     3.03           OBSERVATION DATA    M: Mixed            RINEX VERSION / TYPE
Geo++ RINEX Logger  Geo++               20180430 114857 UTC PGM / RUN BY / DATE
************************************************************COMMENT
This file was generated by the Geo++ RINEX Logger App       COMMENT
for Android devices (Version 1.2.4). If you encounter       COMMENT
any issues, please send an email to android@geopp.de        COMMENT
Note: Tracking signals and phase shifts by best knowledge   COMMENT
************************************************************COMMENT
Geo++                                                       MARKER NAME
GEODETIC                                                    MARKER TYPE
RINEX Logger user   Geo++                                   OBSERVER / AGENCY
7EX0217A17003237    HUAWEI              VTR-L29             REC # / TYPE / VERS
7EX0217A17003237    VTR-L29                                 ANT # / TYPE
 -2418297.2740  5386011.4019  2405171.4839                  APPROX POSITION XYZ
        0.0000        0.0000        0.0000                  ANTENNA: DELTA H/E/N
G    4 C1C L1C D1C S1C                                      SYS / # / OBS TYPES
R    4 C1C L1C D1C S1C                                      SYS / # / OBS TYPES
E    4 C1B L1B D1B S1B                                      SYS / # / OBS TYPES
C    4 C2I L2I D2I S2I                                      SYS / # / OBS TYPES
J    4 C1C L1C D1C S1C                                      SYS / # / OBS TYPES
  2018     4    30    11    49   15.9997345     GPS         TIME OF FIRST OBS
G                                                           SYS / PHASE SHIFTS
R                                                           SYS / PHASE SHIFTS
E                                                           SYS / PHASE SHIFTS
C                                                           SYS / PHASE SHIFTS
J                                                           SYS / PHASE SHIFTS
                                                            END OF HEADER
> 2018  4 30 11 49 15.9997345  0 18
G02  23496381.693    -3412636.9430        914.629          25.665  
G03  23806210.903     3055965.0651      -3434.277          22.921  
G06  21164574.070      128946.2600       -254.029          38.706  
G09  23735292.299    -1093750.1110       1612.363          35.386  
G17  21429853.821     -683531.9300        702.551          34.050  
G19  21491268.404     -945729.4641       1092.866          22.384  
G23  24812098.841     -270013.6901        303.912          21.396  
G28  20982805.106     1487772.5240      -2376.273          25.157  
G30  25350603.143      944851.7231      -2354.144           7.000  
R02  21146629.693     1073165.6531      -1541.776          22.446  
R18  21561985.248     -344287.9560        538.678          27.046  
R16  21615840.565       98459.0691       -408.416          23.320  
R15  21914614.628     3016436.3980      -3756.482          26.738  
R17  21679874.435      713822.6330       -798.815          24.429  
R03  20416140.100    -1586563.8540       2173.608          35.892  
R04  23376909.602    -1658374.6310       3964.159          26.451  
J01  37782948.409      610468.2720       -943.536          28.025  
E010034477460.580      918338.1591      -1527.290          19.475  
> 2018  4 30 11 49 16.9997345  0 18
G02  23496220.105    -3413551.1370        914.297          34.945  
G03  23806846.463     3059399.4531      -3435.041          23.638  
G06  21164624.735      129200.0680       -253.800          35.276  
G09  23734994.905    -1095363.0430       1612.887          33.372  
G17  21429708.422     -684234.7060        702.605          36.595  
G19  21491018.677     -946821.3631       1087.254          20.846  
G23  24812067.963     -270318.3501        304.993          27.742  
G28  20983215.222     1490148.5550      -2376.663          26.609  
G30  25351052.232      947205.6371      -2353.168           7.000  
R02  21146969.658     1074708.0271      -1546.314          20.840  
R18  21561863.233     -344826.8561        538.398          25.855  
R16  21615932.601       98870.4331       -410.829          24.716  
R15  21915308.348     3020192.6220      -3756.717          33.156  
R17  21680035.124      714620.1421       -796.256          25.261  
R03  20415728.185    -1588737.8411       2171.490          33.636  
R04  23376268.346    -1662342.7821       3966.801          26.495  
J01  37783135.480      611411.8580       -943.519          30.392  
E010334270221.670      919860.8821      -1523.345          20.012  
> 2018  4 30 11 49 17.9997345  0 18
G02  23496035.433    -3414465.1490        914.211          37.409  
G03  23807507.506     3062834.8841      -3434.898          23.987  
G06  21164680.197      129454.2380       -254.262          34.031  
G09  23734702.008    -1096976.0360       1612.540          28.970  
G17  21429595.400     -684936.9900        703.025          35.830  
G19  21490794.433     -947913.4801       1093.347          19.453  
G23  24812012.801     -270622.5240        304.252          29.905  
G28  20983664.311     1492525.3970      -2377.454          26.697  
G30  25351499.522      949559.1961      -2354.144           7.000  
R02  21147229.877     1076254.2631      -1545.375          18.695  
R18  21561725.328     -345364.9170        536.178          26.507  
R16  21616015.644       99282.6840       -412.720          24.204  
R15  21916043.439     3023949.1720      -3756.545          34.668  
R17  21680150.544      715418.0631       -797.772          25.866  
R03  20415302.480    -1590910.8820       2174.047          32.336  
R04  23375581.222    -1666311.8971       3965.141          26.929  
J01  37783319.552      612355.7330       -943.412          31.310  
E010634062973.766      921379.8741      -1525.965          20.875  
> 2018  4 30 11 49 18.9997345  0 18
G02  23495863.952    -3415379.1320        913.941          38.358  
G03  23808170.646     3066270.6170      -3435.943          23.869  
G06  21164721.268      129708.5290       -254.346          35.945  
G09  23734351.850    -1098587.9891       1610.432          27.252  
G17  21429443.405     -685639.2500        702.032          35.930  
G19  21490580.681     -949004.9811       1093.462          19.848  
G23  24811957.040     -270926.4090        303.978          30.458  
G28  20984130.789     1494902.6991      -2376.261          24.824  
G30  25351947.112      951912.1491      -2353.168           7.000  
R02  21147495.194     1077802.6061      -1546.181          18.729  
R18  21561617.403     -345901.9841        538.822          23.754  
R16  21616084.296       99696.0971       -410.804          21.650  
R15  21916742.855     3027705.9820      -3756.715          32.666  
R17  21680337.315      716215.6770       -797.554          25.927  
R03  20414893.263    -1593083.1270       2171.318          34.657  
R04  23374855.424    -1670276.7840       3965.018          28.552  
J01  37783496.730      613299.7020       -944.239          32.271  
E010933855719.570      922891.4141      -1529.404          22.761  
> 2018  4 30 11 49 19.9997345  0 18
G02  23495688.273    -3416292.8830        913.642          39.249  
G03  23808856.572     3069706.5501      -3436.277          24.789  
G06  21164768.935      129963.0070       -254.328          36.321  
G09  23734066.747    -1100200.5800       1612.600          29.476  
G17  21429313.595     -686341.4990        702.031          36.436  
G19  21490367.828     -950092.4271       1092.511          17.312  
G23  24811867.701     -271229.9520        303.304          30.382  
G28  20984564.888     1497280.6101      -2374.658          22.027  
G30  25352395.902      954265.4831      -2353.168           7.000  
R02  21147774.300     1079346.9561      -1546.139          19.245  
R18  21561621.600     -346441.4371        538.533          21.284  
R16  21616184.727      100112.4091       -408.697          18.059  
R15  21917445.568     3031463.0810      -3757.511          32.637  
R17  21680455.733      717013.3980       -797.887          26.563  
R03  20414480.149    -1595254.7820       2171.053          33.759  
R04  23374138.621    -1674241.7310       3964.788          28.533  
J01  37783677.804      614243.6820       -944.106          32.167  
E011233648472.266      924420.5971      -1519.879          21.870  
> 2018  4 30 11 49 20.9997345  0 18
G02  23495504.501    -3417206.5090        913.623          39.035  
G03  23809479.241     3073142.6931      -3438.365          23.728  
G06  21164815.103      130217.7690       -255.039          36.487  
G09  23733781.045    -1101813.0040       1612.219          31.546  
G17  21429170.894     -687043.4830        701.762          38.505  
G19  21490137.587     -951184.0171       1091.243          17.149  
G23  24811797.850     -271533.3370        303.153          30.435  
G28  20985080.831     1499658.9091      -2376.157          21.992  
G30  25352845.590      956617.6851      -2353.168           7.000  
R02  21148061.202     1080888.4671      -1546.924          16.988  
R18  21561596.417     -346977.7241        539.808          18.218  
R16  21616335.223      100530.0851       -408.625          12.727  
R15  21918132.393     3035220.3620      -3757.963          31.462  
R17  21680592.438      717810.9440       -797.579          28.894  
R03  20414107.208    -1597425.8990       2170.573          32.113  
R04  23373424.515    -1678206.8270       3965.055          28.184  
J01  37783854.682      615187.6720       -944.201          33.475  
E011533441200.680      925959.3111      -1523.974          20.755  
> 2018  4 30 11 49 21.9997345  0 18
G02  23495325.525    -3418119.8850        913.377          39.133  
G03  23810153.174     3076579.0961      -3434.376          23.410  
G06  21164871.464      130472.7130       -255.315          36.082  
G09  23733475.257    -1103425.4810       1612.921          30.605  
G17  21429036.886     -687745.3640        701.824          37.287  
G19  21489946.919     -952279.9601       1090.561          16.503  
G23  24811725.000     -271836.3640        303.032          31.586  
G28  20985566.495     1502037.9291      -2379.933          21.536  
G30  25353295.579      958970.0291      -2352.193           7.000  
R02  21148330.116     1082434.6931      -1547.715          15.157  
R18  21561491.490     -347516.3681        539.522          16.649  
R16  21616418.265      100945.2801       -410.927          16.569  
R15  21918815.320     3038977.8020      -3757.676          31.208  
R17  21680736.039      718608.6520       -797.620          31.193  
R03  20413722.574    -1599596.3430       2170.096          31.948  
R04  23372646.254    -1682171.8600       3965.122          26.348  
J01  37784041.752      616131.6940       -943.868          34.173  
E011833233905.700      927483.6361      -1531.118          20.087  
> 2018  4 30 11 49 22.9997345  0 18
G02  23495154.943    -3419033.1510        913.136          38.645  
G03  23810801.925     3080015.8581      -3436.035          24.303  
G06  21164918.232      130727.8470       -255.151          37.005  
G09  23733174.565    -1105037.6350       1612.429          29.056  
G17  21428900.181     -688447.2260        701.962          36.376  
G19  21489731.968     -953371.2771       1090.067          14.460  
G23  24811675.834     -272139.0300        302.349          31.982  
G28  20986030.873     1504417.4761      -2381.565          21.457  
G30  25353744.068      961322.2161      -2352.193           7.000  
R02  21148611.321     1083986.1971      -1546.276          12.596  
R18  21561361.980     -348061.8681        540.011          15.757  
R16  21616483.020      101361.5381       -413.120          19.749  
R15  21919534.222     3042735.6080      -3757.985          32.137  
R17  21680903.623      719406.3620       -797.697          32.897  
R03  20413299.267    -1601766.1570       2169.496          33.093  
R04  23371932.148    -1686136.9050       3964.540          27.054  
J01  37784221.028      617075.8100       -944.371          34.151  
E012133026667.990      929008.9871      -1540.429          21.105  
> 2018  4 30 11 49 23.9997345  0 18
G02  23494978.665    -3419946.1210        912.924          38.447  
G03  23811432.388     3083453.0880      -3437.374          23.166  
G06  21164968.297      130983.3080       -255.536          35.400  
G09  23732896.358    -1106649.6740       1612.449          28.579  
G17  21428766.474     -689148.7730        701.926          37.189  
G19  21489546.097     -954462.4801       1089.809          24.871  
G23  24811589.794     -272441.3820        302.136          30.494  
G28  20986488.356     1506797.5181      -2380.957          22.256  
G30  25354196.155      963673.8091      -2352.193           7.000  
R02  21148979.766     1085536.2721      -1547.614          14.299  
R18  21561152.425     -348608.2921        540.943          18.966  
R16  21616560.067      101778.5131       -417.395          22.899  
R15  21920227.942     3046493.7030      -3757.991          31.581  
R17  21681060.114      720204.1630       -797.507          34.193  
R03  20412885.553    -1603935.3150       2168.824          35.213  
R04  23371222.240    -1690101.9310       3964.967          27.335  
J01  37784390.111      618020.0680       -944.448          33.694  
E012432819414.400      930498.4571      -1519.696          21.274  
> 2018  4 30 11 49 24.9997345  0 18
G02  23494805.984    -3420858.9570        912.657          38.409  
G03  23812081.739     3086890.2791      -3434.692          22.479  
G06  21165020.461      131238.9170       -255.853          36.783  
G09  23732575.280    -1108261.6920       1611.916          30.292  
G17  21428626.770     -689850.2580        701.412          35.492  
G19  21489389.905     -955550.5691       1089.934          21.584  
G23  24811541.227     -272743.3800        301.459          30.828  
G28  20986929.051     1509177.8181      -2380.360          23.602  
G30  25354646.144      966024.8111      -2351.217           7.000  
R02  21149366.498     1087034.5281      -1547.050          20.036  
R18  21561065.185     -349147.3001        537.361          23.522  
R16  21616636.514      102196.2880       -418.317          24.183  
R15  21920939.649     3050252.0230      -3758.867          32.438  
R17  21681217.805      721001.9530       -797.943          33.714  
R03  20412484.131    -1606103.8490       2167.711          35.466  
R04  23370436.483    -1694067.0630       3964.907          27.768  
J01  37784574.184      618964.3340       -944.381          33.260  
E012732612146.410      932019.7001      -1520.919          22.068  
> 2018  4 30 11 49 25.9997345  0 18
G02  23494630.606    -3421771.5020        912.710          37.890  
G03  23812736.186     3090328.0861      -3436.435          23.166  
G06  21165072.026      131494.9100       -256.203          36.675  
G09  23732255.401    -1109873.4640       1611.910          30.886  
G17  21428499.658     -690551.4720        701.594          35.454  
G19  21489216.025     -956636.2651       1090.143          18.307  
G23  24811461.782     -273044.9890        301.499          29.461  
G28  20987363.750     1511558.9320      -2381.235          25.632  
G30  25355097.032      968376.1941      -2351.217           7.000  
R02  21149621.022     1088584.5121      -1547.205          20.621  
R18  21561011.522     -349686.6901        534.682          24.371  
R16  21616711.762      102614.9061       -418.583          22.513  
R15  21921648.059     3054010.6370      -3758.654          32.136  
R17  21681353.012      721799.7610       -797.770          34.774  
R03  20412065.621    -1608271.6880       2167.477          33.644  
R04  23369730.172    -1698032.1780       3965.210          27.057  
J01  37784751.661      619908.7500       -944.425          33.276  
E013032404912.890      933542.5771      -1522.316          23.301  
> 2018  4 30 11 49 26.9997345  0 18
G02  23494462.122    -3422683.8770        912.044          37.924  
G03  23813410.419     3093766.0490      -3438.454          24.113  
G06  21165107.401      131751.0710       -256.556          35.587  
G09  23731959.506    -1111485.2000       1611.649          30.677  
G17  21428357.257     -691252.5980        700.609          35.734  
G19  21488973.493     -957721.3081       1090.355          19.427  
G23  24811390.432     -273346.2740        301.067          29.055  
G28  20987847.915     1513940.5491      -2382.376          24.829  
G30  25355546.720      970726.4441      -2351.217           7.000  
R02  21149951.693     1090134.2601      -1550.344          23.128  
R18  21560923.084     -350225.9641        540.499          24.022  
R16  21616759.129      103032.9871       -413.284          19.195  
R15  21922334.883     3057769.5740      -3759.249          32.170  
R17  21681513.401      722597.6310       -798.179          33.938  
R03  20411646.211    -1610438.9120       2166.142          32.310  
R04  23368972.597    -1701997.3330       3965.137          26.828  
J01  37784926.140      620853.2350       -944.527          33.405  
E013332197663.190      935069.7951      -1523.372          23.698  
> 2018  4 30 11 49 27.9997345  0 18
G02  23494279.549    -3423595.9450        911.882          36.192  
G03  23814056.472     3097204.3130      -3438.237          25.451  
G06  21165153.869      132007.5550       -256.772          36.064  
G09  23731657.915    -1113096.7180       1611.565          30.041  
G17  21428228.946     -691953.5650        700.954          35.946  
G19  21488736.957     -958811.1081       1090.320          18.247  
G23  24811354.457     -273647.1730        300.448          27.801  
G28  20988253.534     1516322.6701      -2382.366          24.405  
G30  25355996.709      973076.8371      -2350.242           7.000  
R02  21150249.387     1091684.8310      -1551.077          24.384  
R18  21560871.519     -350765.6671        545.291          22.832  
R16  21616845.169      103449.6501       -415.431          17.948  
R15  21923043.593     3061528.7910      -3759.497          32.015  
R17  21681652.205      723395.5720       -798.066          33.741  
R03  20411187.229    -1612605.3390       2165.658          30.906  
R04  23368218.619    -1705962.4840       3964.927          25.386  
J01  37785112.011      621797.8920       -944.748          32.981  
E013631990419.190      936602.4601      -1519.091          23.720  
> 2018  4 30 11 49 28.9997345  0 18
G02  23494112.864    -3424507.8330        911.704          36.327  
G03  23814722.011     3100642.9120      -3438.756          24.628  
G06  21165212.029      132264.3330       -256.984          36.023  
G09  23731317.651    -1114708.1180       1611.418          30.438  
G17  21428097.037     -692654.3290        700.780          36.215  
G19  21488511.513     -959901.6071       1089.971          19.249  
G23  24811267.517     -273947.7530        300.730          26.008  
G28  20988683.737     1518705.3130      -2383.306          24.709  
G30  25356446.697      975427.0731      -2350.242           7.000  
R02  21150501.512     1093236.1860      -1551.571          24.115  
R18  21560755.500     -351303.4711        540.222          22.280  
R16  21616940.803      103870.1001       -416.732          18.733  
R15  21923746.606     3065288.2800      -3759.815          31.890  
R17  21681818.889      724193.5340       -798.249          34.359  
R03  20410787.906    -1614771.0610       2165.151          30.796  
R04  23367509.610    -1709927.6200       3965.032          25.536  
J01  37785279.295      622742.5840       -944.441          32.341  
E013931783158.990      938130.5481      -1524.074          24.217  
> 2018  4 30 11 49 29.9997345  0 18
G02  23493938.984    -3425419.4220        911.390          36.405  
G03  23815354.273     3104081.9930      -3439.217          25.209  
G06  21165263.593      132521.4640       -257.427          35.286  
G09  23731007.665    -1116319.1590       1610.590          30.738  
G17  21427967.527     -693354.8400        700.344          37.118  
G19  21488424.873     -960992.5841       1089.093          17.546  
G23  24811250.429     -274247.8630        300.309          24.246  
G28  20989179.893     1521087.3961      -2386.368          22.106  
G30  25356895.187      977776.7141      -2350.242           7.000  
R02  21150706.571     1094788.5520      -1552.860          24.555  
R18  21560603.805     -351842.5571        537.990          23.207  
R16  21616960.889      104292.7031       -419.150          17.794  
R15  21924465.508     3069048.1170      -3760.196          31.724  
R17  21681947.800      724991.5920       -798.224          35.025  
R03  20410427.555    -1616936.0570       2164.823          31.335  
R04  23366729.850    -1713892.6130       3965.317          25.840  
J01  37785460.070      623687.5620       -944.894          31.893  
E014231575892.195      939659.3471      -1531.470          24.672  
> 2018  4 30 11 49 30.9997345  0 18
G02  23493766.004    -3426330.7630        911.145          36.970  
G03  23816011.718     3107521.3120      -3439.282          25.969  
G06  21165297.769      132778.7790       -257.351          33.863  
G09  23730715.068    -1117930.3150       1610.895          29.618  
G17  21427838.016     -694055.1280        700.168          37.190  
G19  21488248.895     -962081.9311       1088.016          17.461  
G23  24811203.062     -274547.5541        296.004          23.128  
G28  20989637.077     1523471.4851      -2383.515          22.191  
G30  25357343.676      980125.7651      -2349.266           7.000  
R02  21150972.486     1096341.6821      -1551.454          23.784  
R18  21560496.479     -352382.1861        536.362          22.368  
R16  21617008.556      104715.6721       -420.141          19.778  
R15  21925174.817     3072808.1760      -3760.192          31.240  
R17  21682092.000      725789.6390       -798.262          35.415  
R03  20410048.917    -1619100.3550       2163.890          34.113  
R04  23366039.727    -1717857.7390       3965.099          25.411  
J01  37785641.745      624632.5920       -945.150          32.319  
E014531368666.780      941188.3431      -1529.580          25.632  
> 2018  4 30 11 49 31.9997345  0 18
G02  23493592.424    -3427242.0110        911.242          37.477  
G03  23816675.159     3110960.8840      -3439.812          26.925  
G06  21165364.023      133036.4010       -257.681          32.295  
G09  23730400.885    -1119541.3090       1610.972          30.194  
G17  21427705.508     -694755.3610        700.257          36.926  
G19  21487904.433     -963171.7261       1088.782          19.190  
G23  24811116.122     -274846.9711        296.069          22.769  
G28  20990044.794     1525855.6691      -2381.901          24.404  
G30  25357792.466      982475.1971      -2349.266           7.000  
R02  21151271.380     1097895.7131      -1553.216          24.037  
R18  21560347.182     -352922.1901        536.500          21.542  
R16  21617097.295      105139.2761       -421.640          22.528  
R15  21925887.124     3076568.4230      -3760.154          30.360  
R17  21682240.397      726587.7320       -798.072          35.434  
R03  20409663.384    -1621264.0950       2163.465          35.594  
R04  23365241.980    -1721822.9471       3967.074          25.826  
J01  37785821.620      625577.6600       -945.369          32.042  
E014831161406.280      942717.8581      -1532.290          25.303  
> 2018  4 30 11 49 32.9997345  0 18
G02  23493416.446    -3428152.9910        910.564          37.356  
G03  23817307.121     3114400.6530      -3439.702          26.985  
G06  21165411.690      133294.1980       -258.706          32.317  
G09  23730118.181    -1121152.1660       1610.598          28.945  
G17  21427575.698     -695455.4770        700.062          35.897  
G19  21487646.912     -964261.5941       1089.047          21.361  
G23  24511290.387     -275146.1991        299.578          22.976  
G28  20990490.286     1528240.5740      -2384.969          26.933  
G30  25358240.955      984823.4961      -2349.266           7.000  
R02  21151583.164     1099450.2621      -1555.556          22.831  
R18  21560266.538     -353461.7651        540.083          22.870  
R16  21617189.631      105563.7931       -424.989          22.079  
R15  21926573.949     3080327.8731      -3759.234          26.923  
R17  21682385.497      727385.8540       -798.379          34.964  
R03  20409271.555    -1623427.2530       2162.649          32.968  
R04  23364553.956    -1725788.1490       3964.781          26.426  
J01  37786004.194      626522.7390       -945.380          32.998  
E015130954149.390      944247.6161      -1525.000          24.895  
> 2018  4 30 11 49 33.9997345  0 18
G02  23493244.066    -3429063.7530        910.575          37.493  
G03  23817968.763     3117840.8760      -3440.591          27.021  
G06  21165448.865      133552.2930       -258.852          31.846  
G09  23729790.508    -1122762.9620       1611.092          28.524  
G17  21427441.091     -696155.3880        699.672          35.176  
G19  21487432.260     -965350.5471       1087.551          21.459  
G23  24810976.718     -275444.8871        302.433          22.161  
G28  20990948.968     1530626.0060      -2385.330          30.271  
G30  25358688.845      987171.9381      -2348.291           7.000  
R02  21151870.665     1101005.8251      -1555.427          22.683  
R18  21560234.760     -354001.4071        542.664          23.358  
R16  21617235.499      105988.7861       -428.087          21.668  
R15  21927166.039     3084079.4371      -3758.547          23.292  
R17  21682552.781      728184.0130       -798.345          34.962  
R03  20408873.431    -1625589.6920       2162.130          32.016  
R04  23363771.498    -1729753.3420       3965.037          25.754  
J01  37786178.673      627467.9880       -945.281          32.209  
E015430746905.680      945777.9141      -1532.379          23.724  
> 2018  4 30 11 49 34.9997345  0 18
G02  23493077.081    -3429974.3240        910.497          37.224  
G03  23818618.414     3121281.3010      -3440.822          27.683  
G06  21165512.720      133810.5360       -258.473          30.242  
G09  23729484.120    -1124373.4390       1610.270          28.508  
G17  21427318.176     -696855.1620        699.743          35.244  
G19  21487233.198     -966443.6661       1087.250          21.394  
G23  24810914.961     -275743.3951        300.339          21.144  
G28  20991408.250     1533011.9040      -2385.823          29.011  
G30  25359137.335      989520.2221      -2348.291           7.000  
R02  21152210.929     1102562.4211      -1558.103          22.125  
R18  21560113.944     -354540.9871        542.981          23.854  
R16  21617287.963      106414.7250       -425.912          23.480  
R15  21927844.469     3087836.8481      -3754.851          19.911  
R17  21682689.187      728982.0840       -798.173          35.099  
R03  20408511.581    -1627751.4580       2160.905          28.858  
R04  23363039.704    -1733718.5101       3965.872          25.423  
J01  37786365.743      628413.2760       -945.265          31.863  
E015730539647.280      947308.8181      -1541.238          21.977  
> 2018  4 30 11 49 35.9997345  0 18
G02  23492898.105    -3430884.7700        910.397          37.041  
G03  23819278.856     3124721.9310      -3440.657          27.993  
G06  21165555.891      134069.0540       -258.715          29.704  
G09  23729173.835    -1125984.0250       1610.600          27.457  
G17  21427185.068     -697554.8560        699.790          35.392  
G19  21487032.337     -967536.4861       1087.723          22.249  
G23  24810870.891     -276041.6681        296.580          19.705  
G28  20991848.346     1535398.3580      -2386.585          28.091  
G30  25359584.925      991867.9121      -2348.291           7.000  
R02  21152502.627     1104119.3971      -1557.485          21.948  
R18  21559984.433     -355080.6470        539.508          24.689  
R16  21617419.572      106841.6080       -426.978          23.934  
R15  21928641.318     3091589.8901      -3755.414          17.861  
R17  21682847.777      729780.2080       -798.124          35.400  
R03  20408148.833    -1629912.7021       2160.148          25.638  
R04  23362331.594    -1737683.7690       3965.101          26.283  
J01  37786544.719      629358.5820       -944.925          32.770  
E016030332381.695      948839.6511      -1542.755          21.538  
> 2018  4 30 11 49 36.9997345  0 18
G02  23492723.926    -3431794.9520        909.998          36.444  
G03  23819924.010     3128162.9720      -3441.037          27.810  
G06  21165609.553      134327.8790       -259.147          28.514  
G09  23728847.061    -1127594.4670       1610.126          27.378  
G17  21427050.761     -698254.3820        699.408          35.584  
G19  21486830.577     -968625.7311       1089.586          22.015  
G23  24810795.943     -276340.0121        292.635          18.939  
G28  20992308.227     1537785.3320      -2387.215          27.578  
G30  25360032.515      994215.0121      -2347.315           7.000  
R02  21152843.791     1105682.0851      -1561.030          19.262  
R18  21559891.797     -355620.3910        539.385          24.943  
R16  21617471.136      107269.1631       -430.531          24.194  
R15  21929386.901     3095353.5061      -3757.186          19.385  
R17  21682997.673      730578.4310       -798.114          35.329  
R03  20407612.804    -1632072.9121       2158.166          23.880  
R04  23361556.031    -1741649.0550       3965.615          26.511  
J01  37786716.201      630304.0860       -945.576          32.120  
E016330125129.590      950371.0631      -1535.268          21.873  
> 2018  4 30 11 49 37.9997345  0 18
G02  23492545.249    -3432704.9490        909.808          35.034  
G03  23820605.438     3131604.3050      -3441.650          28.284  
G06  21165644.629      134586.9570       -259.337          29.422  
G09  23728553.864    -1129204.6830       1610.269          26.662  
G17  21426907.161     -698953.7410        699.194          36.029  
G19  21486636.011     -969714.8361       1090.117          23.589  
G23  24810733.886     -276637.1491        292.821          16.803  
G28  20992731.834     1540172.9170      -2388.105          26.399  
G30  25360480.105      996562.4921      -2347.315           7.000  
R02  21153154.676     1107247.5891      -1560.894          15.683  
R18  21559772.180     -356160.1730        540.096          24.777  
R16  21617582.059      107697.5540       -429.018          24.772  
R15  21930143.578     3099114.8201      -3761.993          21.144  
R17  21683139.175      731376.6220       -798.076          36.074  
R03  20407137.033    -1634232.6691       2160.306          24.132  
R04  23360842.525    -1745614.4030       3965.462          26.164  
J01  37786897.575      631249.6550       -945.761          32.515  
E016629917889.180      951903.0831      -1538.831          23.561  
> 2018  4 30 11 49 38.9997345  0 18
G02  23492365.074    -3433614.6830        909.738          33.654  
G03  23821240.398     3135045.9760      -3441.932          28.243  
G06  21165690.797      134846.3390       -259.260          31.277  
G09  23728247.176    -1130814.8270       1610.468          25.970  
G17  21426777.051     -699652.8150        699.160          36.523  
G19  21486433.652     -970803.7430       1089.249          23.471  
G23  24810670.330     -276935.4371        292.673          16.334  
G28  20993173.129     1542561.0611      -2388.639          23.778  
G30  25360927.395      998908.8411      -2347.315           7.000  
R02  21153580.381     1108813.4081      -1561.813          18.403  
R18  21559649.565     -356699.8090        539.542          24.419  
R16  21617621.032      108126.9210       -429.802          24.474  
R15  21930802.521     3102876.9190      -3761.986          25.572  
R17  21683294.468      732174.9670       -798.181          36.176  
R03  20406797.368    -1636391.5990       2158.773          28.675  
R04  23360140.411    -1749579.6760       3964.830          26.141  
J01  37787072.054      632195.3490       -945.664          32.802  
E016929710642.480      953435.4571      -1534.588          24.566  
> 2018  4 30 11 49 39.9997345  0 18
G02  23492198.689    -3434524.1930        909.592          33.897  
G03  23821900.242     3138487.9510      -3442.042          28.169  
G06  21165740.263      135105.9970       -259.748          32.058  
G09  23727931.795    -1132424.6340       1609.771          26.515  
G17  21426649.939     -700351.7280        698.872          36.131  
G19  21486248.979     -971892.4190       1088.904          23.475  
G23  24810607.374     -277231.9411        294.776          18.244  
G28  20993621.618     1544949.6330      -2388.547          23.728  
G30  25361373.786     1001255.3311      -2346.339           7.000  
R02  21153908.054     1110377.4051      -1562.334          17.784  
R18  21559543.738     -357239.5740        540.066          24.137  
R16  21617717.566      108556.9940       -430.344          25.717  
R15  21931554.701     3106639.3880      -3762.291          28.907  
R17  21683432.972      732973.2710       -798.171          35.782  
R03  20406422.927    -1638549.8980       2157.867          33.408  
R04  23359343.563    -1753545.0810       3965.734          25.856  
J01  37787256.427      633141.1730       -945.507          32.724  
E017229503393.375      954968.3951      -1534.933          25.669  
> 2018  4 30 11 49 40.9997345  0 18
G02  23492021.212    -3435433.4700        909.338          34.034  
G03  23822575.674     3141930.2740      -3442.475          28.021  
G06  21165779.836      135365.7960       -259.842          32.912  
G09  23727640.097    -1134034.5331       1610.697          25.699  
G17  21426505.139     -701050.4920        698.793          36.025  
G19  21486055.014     -972980.9460       1088.486          24.017  
G23  24810546.816     -277528.1531        293.942          17.801  
G28  20994095.890     1547338.7901      -2386.287          22.926  
G30  25361821.376     1003601.6641      -2346.339           7.000  
R02  21154106.517     1111934.4641      -1561.579          18.440  
R18  21559494.572     -357779.3181        538.556          24.586  
R16  21617795.811      108987.8300       -430.630          26.757  
R15  21932244.523     3110402.1720      -3762.696          30.398  
R17  21683588.264      733771.6560       -798.192          35.384  
R03  20406042.191    -1640707.6710       2157.464          35.238  
R04  23358617.765    -1757510.4580       3965.809          26.185  
J01  37787433.004      634087.0960       -945.989          32.795  
E017529296142.770      956501.5641      -1530.887          25.622  
> 2018  4 30 11 49 41.9997345  0 18
G02  23491857.525    -3436342.5710        909.170          35.250  
G03  23823211.234     3145372.7780      -3442.717          28.058  
G06  21165843.991      135625.9480       -260.216          33.432  
G09  23727302.830    -1135644.0360       1609.348          26.582  
G17  21426374.729     -701749.1580        698.633          35.101  
G19  21485820.276     -974069.3410       1088.060          24.355  
G23  24810568.701     -277828.5321        294.427          16.107  
G28  20994533.587     1549728.5570      -2390.002          24.189  
G30  25362268.967     1005947.4031      -2346.339           7.000  
R02  21154218.339     1113497.4331      -1561.799          18.775  
R18  21559396.540     -358319.1500        539.903          24.065  
R16  21617907.034      109419.5180       -432.253          26.749  
R15  21932921.454     3114165.1410      -3763.055          31.924  
R17  21683751.052      734570.0250       -798.440          35.410  
R03  20405652.761    -1642864.6990       2156.491          35.053  
R04  23357886.871    -1761475.7500       3965.405          25.868  
J01  37787620.375      635033.1240       -946.031          32.045  
E017829088890.980      958035.2371      -1525.725          24.931  
> 2018  4 30 11 49 42.9997345  0 18
G02  23491681.847    -3437251.3210        908.495          36.745  
G03  23823881.570     3148815.6790      -3442.778          27.907  
G06  21165893.457      135886.3910       -260.702          34.056  
G09  23727009.033    -1137253.5340       1609.331          26.953  
G17  21426246.118     -702447.5090        698.321          34.404  
G19  21485615.218     -975157.6380       1087.940          24.278  
G23  24810535.424     -278122.2131        294.147          11.663  
G28  20995019.251     1552118.8930      -2390.898          24.821  
G30  25362715.358     1008292.5521      -2345.363           7.000  
R02  21154497.146     1115060.7881      -1561.174          18.985  
R18  21559308.401     -358858.8770        539.329          24.354  
R16  21617997.871      109852.1310       -433.100          26.164  
R15  21933634.061     3117928.4990      -3763.555          33.762  
R17  21683880.862      735368.6020       -798.667          35.287  
R03  20405237.548    -1645021.0400       2155.827          34.434  
R04  23357145.784    -1765440.9730       3965.060          25.403  
J01  37787804.747      635979.2990       -946.408          32.072  
E018128881648.164      959569.4831      -1534.818          24.180  
> 2018  4 30 11 49 43.9997345  0 18
G02  23491509.167    -3438159.8280        908.148          37.431  
G03  23824549.208     3152259.0080      -3443.544          27.563  
G06  21165942.923      136147.0420       -261.072          34.631  
G09  23726709.541    -1138862.9410       1609.456          27.198  
G17  21426107.315     -703145.7430        698.206          34.647  
G19  21485406.263     -976245.6741       1085.726          24.184  
G23  24810457.178     -278411.6951        293.659          11.725  
G28  20995465.941     1554509.7590      -2391.510          27.694  
G30  25363161.748     1010638.0811      -2345.363           7.000  
R02  21154822.421     1116625.0471      -1562.118          19.186  
R18  21559175.294     -359398.8580        539.858          24.541  
R16  21618068.023      110285.4680       -433.982          24.136  
R15  21934325.083     3121692.1270      -3763.904          34.008  
R17  21684027.760      736167.1310       -798.583          34.768  
R03  20404847.218    -1647176.7420       2155.102          34.083  
R04  23356360.028    -1769406.2370       3965.253          25.561  
J01  37787969.933      636925.5480       -946.458          31.971  
E018428674408.950      961104.1431      -1542.696          22.744  
> 2018  4 30 11 49 44.9997345  0 18
G02  23491337.985    -3439068.1660        908.283          38.184  
G03  23825204.254     3155702.5060      -3443.505          27.326  
G06  21165986.393      136408.0040       -260.987          35.486  
G09  23726382.767    -1140472.0490       1609.071          25.858  
G17  21425979.003     -703843.8060        697.992          35.009  
G19  21485198.207     -977333.6571       1090.160          23.914  
G23  24810572.298     -278717.3471        295.326          11.996  
G28  20995926.423     1556901.2800      -2391.724          28.811  
G30  25363609.039     1012982.4781      -2345.363           7.000  
R02  21155204.057     1118190.0991      -1564.074          21.042  
R18  21559067.068     -359938.6481        538.004          24.536  
R16  21618164.256      110719.7511       -438.253          22.383  
R15  21935043.086     3125456.0650      -3764.394          33.513  
R17  21684180.055      736965.6440       -798.629          35.068  
R03  20404407.423    -1649331.6620       2154.828          32.182  
R04  23355595.857    -1773371.5160       3965.206          24.930  
J01  37788164.498      637871.8990       -946.460          32.257  
E018728467167.650      962637.7071      -1538.699          21.005  
> 2018  4 30 11 49 45.9997345  0 18
G02  23491171.600    -3439976.3280        907.966          38.633  
G03  23825846.710     3159146.4000      -3444.219          27.463  
G06  21166039.456      136669.1330       -261.208          35.587  
G09  23726098.564    -1142081.1250       1608.973          26.820  
G17  21425849.193     -704541.6910        697.576          35.264  
G19  21484991.650     -978421.3070       1087.777          24.825  
G23  24810451.182     -279012.4871        295.526          18.515  
G28  20996357.524     1559293.1240      -2392.168          29.485  
G30  25364055.730     1015327.0171      -2344.388           7.000  
R02  21155523.936     1119755.9381      -1565.981          19.819  
R18  21558900.084     -360477.8801        541.587          22.403  
R16  21618217.619      111154.7181       -435.038          21.654  
R15  21935726.013     3129220.1840      -3764.238          32.211  
R17  21684325.754      737764.2460       -798.499          34.864  
R03  20403990.112    -1651485.8680       2153.807          30.789  
R04  23354887.148    -1777336.7950       3965.490          24.577  
J01  37788337.179      638818.3190       -946.604          32.498  
E019028259908.950      964172.0231      -1547.651          19.080  
> 2018  4 30 11 49 46.9997345  0 18
G02  23491016.008    -3440884.0960        909.200          36.359  
G03  23826455.588     3162590.9110      -3444.515          26.831  
G06  21166088.922      136930.0121       -262.154          34.195  
G09  23725798.172    -1143689.2090       1606.695          33.330  
G17  21425714.586     -705237.8580        694.503          36.655  
G19  21484791.089     -979508.7691       1086.388          27.709  
G23  24810346.255     -279307.1941        292.841          23.287  
G28  20996830.896     1561685.9470      -2392.425          29.943  
G30  25364807.909     1017671.3991      -2344.388           7.000  
R02  21155766.468     1121321.9611      -1567.246          20.415  
R18  21558821.239     -361016.8390        538.411          27.998  
R16  21618316.251      111591.0711       -436.279          26.555  
R15  21936466.800     3132984.9831      -3764.214          32.391  
R17  21684512.225      738564.9900       -805.114          32.831  
R03  20403597.683    -1653638.5290       2151.570          35.397  
R04  23354215.313    -1781301.6961       3966.537          24.072  
J01  37788528.146      639766.3780       -950.248          33.059  
E019328052685.030      965708.1771      -1541.244          23.181  
> 2018  4 30 11 49 47.9997345  0 18
G02  23490827.738    -3441789.1671        904.470          36.132  
G03  23827127.123     3166036.1791      -3445.439          26.150  
G06  21166138.987      137191.2921       -258.459          32.973  
G09  23725483.989    -1145295.6831       1604.833          33.449  
G17  21425580.579     -705933.0190        696.319          37.465  
G19  21484587.829     -980596.7741       1083.138          25.946  
G23  24810225.738     -279600.4381        293.848          25.933  
G28  20997311.464     1564079.9161      -2391.812          27.078  
G30  25364949.411     1020015.1871      -2344.388           7.000  
R02  21156065.661     1122886.6501      -1568.450          21.972  
R18  21558719.309     -361556.8431        537.271          28.473  
R16  21618392.398      112023.1601       -437.414          24.978  
R15  21937160.220     3136745.7771      -3762.753          32.099  
R17  21684631.542      739369.0611       -798.404          29.164  
R03  20403192.364    -1655790.3711       2150.776          33.027  
R04  23353389.685    -1785265.1851       3967.460          24.338  
J01  37788701.426      640715.1250       -950.273          36.500  
E019627845401.450      967249.3761      -1538.094          23.829  
> 2018  4 30 11 49 48.9997345  0 18
G02  23490661.653    -3442694.7051        901.911          36.077  
G03  23827779.771     3169482.5981      -3442.890          24.574  
G06  21166201.943      137454.4231       -260.773          30.854  
G09  23725181.499    -1146903.1381       1608.491          35.148  
G17  21425451.668     -706628.6521        696.090          33.739  
G19  21484395.363     -981682.3571       1083.894          25.184  
G23  24810204.753     -279889.9631        295.559          27.090  
G28  20997775.542     1566475.8851      -2392.085          25.231  
G30  25365701.590     1022358.3841      -2343.412           7.000  
R02  21156300.098     1124455.0231      -1565.089          24.067  
R18  21558623.675     -362090.1921        538.842          27.538  
R16  21618509.317      112458.7061       -438.210          22.114  
R15  21937877.623     3140513.5211      -3764.301          34.559  
R17  21684778.440      740174.5291       -800.276          26.786  
R03  20402819.122    -1657946.2041       2161.447          29.739  
R04  23352625.814    -1789230.4421       3961.809          22.602  
J01  37788890.296      641664.2451       -949.929          35.865  
E019927638178.130      968790.8791      -1544.958          22.401  
> 2018  4 30 11 49 49.9997345  0 18
G02  23490486.874    -3443603.0071        905.766          32.839  
G03  23828423.726     3172930.1901      -3449.267          26.412  
G06  21166251.109      137725.3981       -263.906          32.644  
G09  23724861.920    -1148510.2381       1607.844          34.299  
G17  21425331.751     -707322.7771        694.748          32.343  
G19  21484198.099     -982771.3271       1085.375          21.824  
G23  24810146.593     -280187.1161        298.752          27.561  
G28  20998230.028     1568866.2331      -2391.493          24.002  
G30  25365844.891     1024703.4941      -2343.412           7.000  
R02  21156597.792     1126023.9221      -1566.579          22.320  
R18  21558575.709     -362633.0691        541.570          26.845  
R16  21618614.844      112903.6571       -442.825          21.637  
R15  21938574.341     3144284.2701      -3768.164          32.517  
R17  21684963.112      740976.9241       -799.916          27.487  
R03  20402441.983    -1660106.8431       2148.121          27.239  
R04  23351879.630    -1793193.9561       3958.692          20.836  
J01  37789070.171      642613.3221       -947.183          35.669  
E010227430916.140      970331.1281      -1543.398          22.017  
> 2018  4 30 11 49 50.9997345  0 18
G02  23490315.993    -3444507.2661        908.082          31.505  
G03  23829124.340     3176374.1001      -3443.749          24.425  
G06  21166307.170      137982.3111       -262.466          31.453  
G09  23724576.817    -1150115.3371       1602.959          36.307  
G17  21425184.553     -708017.3511        690.755          33.587  
G19  21483994.540     -983855.5251       1088.436          22.855  
G23  24810049.460     -280476.9831        289.992          26.959  
G28  20998643.741     1571254.4561      -2392.343          24.929  
G30  25366291.282     1027048.3101      -2345.363           7.000  
R02  21156969.235     1127592.2811      -1569.508          21.214  
R18  21558458.190     -363176.0161        539.066          24.728  
R16  21618652.019      113350.5191       -441.142          20.890  
R15  21939272.558     3148047.6971      -3765.324          32.661  
R17  21685096.520      741776.0461       -799.821          26.179  
R03  20402050.454    -1662255.1621       2141.115          25.891  
R04  23351106.765    -1797160.4371       3972.469          19.477  
J01  37789248.847      643563.0080       -949.514          34.355  
E010527223665.234      971867.9621      -1544.201          22.210  
> 2018  4 30 11 49 51.9997345  0 18
G02  23490161.899    -3445410.8081        906.234          28.834  
G03  23829765.297     3179822.3841      -3446.243          24.502  
G06  21166358.135      138246.3041       -261.654          29.604  
G09  23724289.616    -1151723.5941       1609.773          32.517  
G17  21425070.332     -708712.5981        694.820          30.600  
G19  21483761.302     -984939.9891       1085.414          21.042  
G23  24810015.584     -280759.7831        287.919          25.479  
G28  20999114.116     1573651.7071      -2397.217          25.699  
G30  25366737.673     1029392.8491      -2344.388           7.000  
R02  21157220.461     1129163.1231      -1568.769          21.480  
R18  21558313.390     -363719.0691        538.112          23.023  
R16  21618770.736      113790.7271       -439.320          20.840  
R15  21939951.887     3151812.3371      -3758.474          31.476  
R17  21685266.802      742574.7911       -799.830          27.289  
R03  20401609.160    -1664405.3401       2149.415          24.966  
R04  23350426.836    -1801130.4951       3970.581          18.477  
J01  37789434.719      644512.2830       -948.637          36.604  
E010827016420.630      973400.3031      -1545.251          19.924  
> 2018  4 30 11 49 52.9997345  0 18
G02  23489972.730    -3446310.2331        903.384          27.475  
G03  23830404.754     3183273.7641      -3447.014          24.893  
G06  21166405.802      138506.1171       -262.881          29.400  
G09  23723976.333    -1153335.5161       1610.532          29.336  
G17  21424944.420     -709409.9271        696.489          27.834  
G19  21483555.344     -986016.2801       1081.904          19.953  
G23  24809959.522     -281048.6491        291.136          26.175  
G28  20999531.727     1576045.0861      -2394.963          28.907  
G30  25367184.064     1031737.2321      -2344.388           7.000  
R02  21157508.861     1130733.5671      -1565.567          19.157  
R18  21558263.924     -364260.9711        542.129          24.439  
R16  21618875.364      114230.3951       -440.650          22.003  
R15  21940654.001     3155572.5881      -3764.248          28.318  
R17  21685420.296      743380.2191       -800.504          26.171  
R03  20401203.840    -1666561.0981       2151.183          25.550  
R04  23349721.124    -1805101.7821       3968.377          19.118  
J01  37789611.896      645461.8021       -948.840          34.564  
E011126809165.836      974924.4741      -1530.005          20.666  
> 2018  4 30 11 49 53.9997345  0 18
G02  23489797.651    -3447211.6890        901.262          30.205  
G03  23831095.476     3186727.0671      -3447.255          24.234  
G06  21166440.878      138771.5261       -264.417          29.882  
G09  23723696.027    -1154939.1631       1604.667          26.568  
G17  21424839.792     -710109.3551        698.871          26.929  
G19  21483367.074     -987098.9881       1083.412          19.348  
G23  24809895.367     -281338.7461        296.054          27.966  
G28  20999982.615     1578437.9611      -2393.587          30.583  
G30  25367630.455     1034081.0201      -2344.388           7.000  
R02  21157750.194     1132297.9111      -1572.606          23.049  
R18  21558163.194     -364807.6581        542.461          24.757  
R16  21618884.658      114667.5891       -445.320          21.861  
R15  21941353.417     3159332.5851      -3771.127          28.704  
R17  21685539.613      744179.2501       -803.408          26.353  
R03  20400832.098    -1668717.2871       2148.727          26.065  
R04  23348879.007    -1809075.5711       3967.461          20.705  
J01  37789794.170      646409.3271       -949.743          33.557  
E011426601913.734      976435.9941      -1525.161          19.971  
> 2018  4 30 11 49 54.9997345  0 18
G02  23489641.160    -3448112.9781        901.436          26.077  
G03  23831741.828     3190174.1441      -3450.447          21.639  
G06  21166499.937      139035.6051       -264.082          29.679  
G09  23723397.434    -1156540.6921       1601.852          24.898  
G17  21424680.003     -710804.7341        694.576          25.497  
G19  21483166.513     -988184.9671       1084.623          20.030  
G23  24809811.125     -281634.3791        289.531          29.151  
G28  21000435.601     1580832.3531      -2394.258          36.623  
G30  25368075.647     1036424.2171      -2343.412           7.000  
R02  21158041.593     1133867.7491      -1570.062          21.873  
R18  21558038.481     -365350.9711        537.206          28.487  
R16  21619027.059      115108.7751       -441.642          20.870  
R15  21942054.332     3163102.4781      -3769.313          28.593  
R17  21685720.088      744979.5701       -800.026          24.246  
R03  20400410.889    -1670869.4301       2148.295          25.336  
R04  23348137.621    -1813043.1411       3967.040          19.988  
J01  37789977.043      647356.3361       -948.977          32.466  
E011726394655.336      977951.6551      -1530.826          21.079  
> 2018  4 30 11 49 55.9997345  0 18
G02  23489466.081    -3449012.8841        902.292          25.306  
G03  23832417.261     3193623.2831      -3448.215          20.103  
G06  21166538.910      139299.6021       -263.431          35.322  
G09  23723080.253    -1158144.0671       1604.394          26.986  
G17  21424552.291     -711502.3041        696.388          25.145  
G19  21482971.049     -989274.6091       1085.929          21.730  
G23  24809767.355     -281920.1371        288.264          32.732  
G28  21000897.581     1583227.2911      -2397.428          38.913  
G30  25368520.838     1038767.0291      -2343.412           7.000  
R02  21158375.861     1135437.1421      -1568.622          24.632  
R18  21557941.048     -365887.7981        536.290          29.511  
R16  21619111.900      115547.6881       -441.311          19.348  
R15  21942757.345     3166875.7431      -3764.607          26.179  
R17  21685894.268      745778.3511       -796.064          24.172  
R03  20400003.471    -1673021.8911       2149.008          22.387  
R04  23347383.343    -1817010.2711       3968.123          19.792  
J01  37790159.617      648305.9630       -950.367          31.409  
E012026187390.050      979481.3871      -1532.732          21.619  
> 2018  4 30 11 49 56.9997345  0 18
G02  23489305.692    -3449913.5051        908.724          22.572  
G03  23833065.412     3197069.8121      -3446.598          18.272  
G06  21166589.875      139562.7891       -262.894          34.313  
G09  23722775.664    -1159750.2461       1607.409          26.584  
G17  21424416.485     -712194.2241        695.773          23.587  
G19  21482738.410     -990364.2221       1089.098          23.851  
G23  24809695.105     -282206.8201        286.466          33.901  
G28  21001353.865     1585622.7830      -2395.323          40.946  
G30  25368965.131     1041109.2501      -2342.437           7.000  
R02  21158648.373     1137005.6261      -1573.906          22.465  
R18  21557841.517     -366425.5751        538.529          31.958  
R16  21619189.247      115993.8951       -446.440          22.784  
R15  21943519.118     3170642.3421      -3763.271          23.475  
R17  21686014.185      746578.4441       -797.222          23.813  
R03  20399637.125    -1675172.9441       2147.977          22.108  
R04  23346642.556    -1820982.7821       3966.789          18.951  
J01  37790333.197      649255.5860       -949.320          33.830  
E012325980164.020      981018.5911      -1544.759          20.008  
> 2018  4 30 11 49 57.9997345  0 18
G02  23489128.215    -3450818.1821        903.101          21.277  
G03  23833709.666     3200515.8011      -3445.911          17.411  
G06  21166654.630      139827.7661       -264.706          33.550  
G09  23722468.677    -1161358.5081       1606.930          28.090  
G17  21424292.371     -712885.2191        696.943          23.353  
G19  21482537.549     -991448.6401       1087.195          26.489  
G23  24809634.847     -282491.9410        285.306          36.752  
G28  21001809.250     1588018.2970      -2394.608          38.427  
G30  25369411.522     1043451.8531      -2342.437           7.000  
R02  21158931.676     1138576.9021      -1572.319          23.345  
R18  21557741.686     -366962.1411        538.212          30.852  
R16  21619242.610      116438.8691       -445.024          21.900  
R15  21944201.745     3174408.0381      -3766.806          22.700  
R17  21686139.498      747379.5661       -801.136          23.523  
R03  20399215.317    -1677327.1831       2149.005          25.657  
R04  23345982.712    -1824951.1571       3966.592          18.915  
J01  37790518.169      650204.8480       -948.062          36.088  
E012625772903.530      982556.0981      -1537.869          20.222  
> 2018  4 30 11 49 58.9997345  0 18
G02  23488946.840    -3451718.9971        907.916          22.965  
G03  23834385.698     3203966.0851      -3445.561          19.626  
G06  21166693.603      140093.5791       -268.279          29.712  
G09  23722168.884    -1162964.7441       1604.429          28.796  
G17  21424167.657     -713587.8451        699.917          23.666  
G19  21482323.797     -992532.4401       1084.003          30.028  
G23  24809598.572     -282776.7140        284.902          35.877  
G28  21002268.232     1590414.8811      -2397.875          34.976  
G30  25369855.514     1045793.3231      -2342.437           7.000  
R02  21159226.672     1140152.5151      -1573.693          24.973  
R18  21557643.954     -367496.6251        539.260          29.044  
R16  21619361.328      116885.5171       -446.607          25.273  
R15  21944842.702     3178175.1121      -3761.716          25.701  
R17  21686325.669      748183.9111       -798.454          23.929  
R03  20398820.790    -1679474.1571       2147.504          23.370  
R04  23345240.426    -1828914.9951       3966.207          20.583  
J01  37790689.650      651154.7841       -944.717          35.276  
E012925565630.140      984099.2271      -1535.232          20.933  
> 2018  4 30 11 49 59.9997345  0 18
G02  23488784.953    -3452624.6401        908.256          22.762  
G03  23835026.654     3207407.0921      -3444.990          20.439  
G06  21166760.756      140359.1541       -266.659          26.722  
G09  23721886.780    -1164571.6881       1604.924          26.505  
G17  21424007.268     -714281.7601        695.085          25.749  
G19  21482108.546     -993619.6661       1083.685          30.450  
G23  24809539.813     -283061.7620        285.902          35.674  
G28  21002717.621     1592806.1901      -2395.884          37.660  
G30  25370300.407     1048134.1691      -2341.461           7.000  
R02  21159513.574     1141725.2721      -1571.273          23.846  
R18  21557532.131     -368039.0811        540.059          30.674  
R16  21619450.666      117334.7761       -449.446          29.863  
R15  21945534.323     3181931.9041      -3760.911          27.757  
R17  21686482.760      748983.4021       -799.163          24.824  
R03  20398379.496    -1681623.4021       2143.559          24.772  
R04  23344481.052    -1832885.3171       3964.543          22.338  
J01  37790875.521      652103.8951       -948.270          33.444  
E013225358407.730      985605.2091      -1541.544          20.917  
> 2018  4 30 11 50  0.9997345  0 18
G02  23488609.274    -3453536.3471        906.600          24.090  
G03  23835696.391     3210848.1631      -3444.344          20.515  
G06  21166829.709      140627.1831       -265.840          25.204  
G09  23721571.698    -1166183.8161       1608.558          24.101  
G17  21423905.939     -714977.6031        690.892          26.267  
G19  21481916.978     -994705.6051       1087.815          27.909  
G23  24809487.050     -283346.7501        287.915          36.706  
G28  21003178.402     1595202.6111      -2393.921          34.727  
G30  25370745.898     1050475.4001      -2340.486           7.000  
R02  21159851.739     1143301.4121      -1573.207          23.012  
R18  21557442.793     -368577.7090        536.934          33.253  
R16  21619528.912      117784.4941       -447.937          29.924  
R15  21946296.095     3185692.3881      -3760.387          29.171  
R17  21686656.340      749785.6371       -797.277          23.160  
R03  20398005.055    -1683765.1541       2143.574          26.234  
R04  23343772.343    -1836852.4231       3964.445          22.630  
J01  37791051.499      653052.9611       -949.586          34.443  
E013525151140.630      987143.6421      -1545.319          24.143  
> 2018  4 30 11 50  1.9997345  0 18
G02  23488437.793    -3454448.0351        909.205          24.582  
G03  23836340.045     3214290.5061      -3445.021          20.393  
G06  21166877.376      140893.3581       -261.297          23.845  
G09  23721254.817    -1167792.8861       1606.518          22.410  
G17  21423776.728     -715667.5071        697.501          25.888  
G19  21481696.331     -995791.4581       1085.926          28.576  
G23  24809416.298     -283631.0721        284.142          38.259  
G28  21003652.974     1597602.0661      -2401.061          31.552  
G30  25371191.090     1052816.2761      -2341.461           7.000  
R02  21160116.156     1144878.5491      -1573.768          23.697  
R18  21557363.048     -369116.2131        540.332          29.689  
R16  21619593.967      118234.1971       -447.208          30.531  
R15  21946994.012     3189454.9131      -3767.763          27.143  
R17  21686791.846      750586.7971       -793.374          24.995  
R03  20397575.452    -1685911.0151       2147.010          26.436  
R04  23343069.929    -1840820.8751       3966.764          21.979  
J01  37791234.673      654002.4461       -949.422          34.137  
E013824943900.820      988674.1501      -1548.884          22.886  
> 2018  4 30 11 50  2.9997345  0 18
G02  23488263.314    -3455349.8421        904.823          25.929  
G03  23836987.897     3217741.6651      -3446.368          19.501  
G06  21166936.135      141157.0951       -258.378          22.396  
G09  23720966.417    -1169395.6161       1606.247          24.568  
G17  21423656.211     -716369.2731        703.290          23.243  
G19  21481497.569     -996880.0531       1083.579          32.721  
G23  24809375.827     -283915.1370        284.507          41.923  
G28  21004089.172     1600000.3591      -2400.728          33.000  
G30  25371636.581     1055156.5461      -2340.486           7.000  
R02  21160426.741     1146452.4881      -1576.687          27.196  
R18  21557249.427     -369656.5441        542.353          27.286  
R16  21619677.908      118684.7761       -449.383          28.743  
R15  21947745.292     3193220.4221      -3768.366          27.244  
R17  21686908.166      751387.6151       -795.893          25.803  
R03  20397224.096    -1688064.2541       2146.252          24.113  
R04  23342257.491    -1844788.7981       3964.980          23.829  
J01  37791405.854      654950.7101       -947.423          34.467  
E014124736643.330      990212.6671      -1542.765          23.503  
> 2018  4 30 11 50  3.9997345  0 18
G02  23488098.728    -3456253.9871        902.594          26.815  
G03  23837640.245     3221182.7231      -3446.601          19.515  
G06  21166944.229      141419.4291       -260.336          22.878  
G09  23720663.027    -1170997.3131       1605.057          22.142  
G17  21423520.106     -717069.9711        695.308          24.816  
G19  21481293.110     -997963.9431       1085.241          37.132  
G23  24809311.371     -284204.9731        285.395          39.241  
G28  21004549.053     1602400.9331      -2397.531          35.591  
G30  25372081.473     1057495.6651      -2340.486           7.000  
R02  21160712.144     1148026.5641      -1575.920          27.164  
R18  21557145.699     -370203.8581        542.854          26.191  
R16  21619776.840      119134.8241       -450.652          26.549  
R15  21948460.597     3196983.2441      -3765.783          26.976  
R17  21687105.130      752183.4501       -794.815          25.729  
R03  20396813.680    -1690209.1411       2146.594          26.543  
R04  23341501.415    -1848751.9511       3962.011          20.916  
J01  37791607.315      655900.2620       -951.650          33.038  
E014424529415.510      991758.0781      -1544.246          23.049  
> 2018  4 30 11 50  4.9997345  0 18
G02  23487945.534    -3457151.4811        901.145          24.634  
G03  23838309.082     3224624.4851      -3445.629          19.886  
G06  21166993.695      141682.5961       -263.956          24.848  
G09  23720379.723    -1172606.7961       1607.576          21.263  
G17  21423374.407     -717761.0911        689.607          25.089  
G19  21481085.954     -999050.3121       1084.964          34.743  
G23  24809262.205     -284488.3771        282.672          36.490  
G28  21004996.344     1604801.9581      -2399.826          40.391  
G30  25372525.466     1059833.7751      -2338.534           7.000  
R02  21161029.024     1149606.8651      -1578.199          26.013  
R18  21557071.950     -370749.4231        541.263          26.167  
R16  21619859.583      119584.6451       -450.019          26.794  
R15  21949175.602     3200746.7871      -3762.866          31.156  
R17  21687210.357      752976.3081       -794.864          25.087  
R03  20396420.352    -1692357.6561       2145.728          27.258  
R04  23340857.461    -1852714.6161       3963.191          20.618  
J01  37791779.995      656849.1601       -946.814          31.298  
E014724322151.414      993295.3051      -1538.186          22.486  
> 2018  4 30 11 50  5.9997345  0 18
G02  23487746.471    -3458057.3681        901.498          26.235  
G03  23838964.129     3228067.3811      -3446.308          19.863  
G06  21167055.752      141949.5601       -262.445          25.994  
G09  23720035.261    -1174213.2531       1609.172          23.264  
G17  21423218.514     -718450.5071        694.865          26.482  
G19  21480894.086    -1000139.4181       1086.472          31.731  
G23  24809202.546     -284771.5190        282.956          38.612  
G28  21005461.622     1607200.8471      -2399.921          39.820  
G30  25372969.459     1062171.7091      -2338.534           7.000  
R02  21161312.029     1151183.3211      -1579.120          25.454  
R18  21556997.301     -371294.7591        547.752          24.344  
R16  21619911.447      120037.1471       -449.058          24.633  
R15  21949790.176     3204514.5451      -3764.700          32.001  
R17  21687375.243      753771.7291       -796.322          24.859  
R03  20395960.470    -1694501.4061       2143.353          28.848  
R04  23340086.994    -1856674.4921       3964.740          22.435  
J01  37791958.372      657797.5890       -948.898          36.036  
E015024114920.305      994830.0091      -1539.505          22.012  
> 2018  4 30 11 50  6.9997345  0 18
G02  23487547.709    -3458956.9691        901.309          25.892  
G03  23839627.569     3231511.4801      -3446.331          18.817  
G06  21167098.023      142211.1901       -259.266          26.747  
G09  23719748.959    -1175819.8931       1609.322          21.404  
G17  21423117.185     -719154.1411        697.373          24.812  
G19  21480670.142    -1001227.0711       1086.130          33.309  
G23  24809160.276     -285054.0950        282.009          37.122  
G28  21005909.212     1609600.6441      -2399.888          39.072  
G30  25373413.451     1064508.0911      -2337.559           7.000  
R02  21161604.026     1152761.0131      -1579.518          26.045  
R18  21556865.692     -371840.7901        546.258          23.535  
R16  21620024.469      120483.5501       -450.247          24.615  
R15  21950632.593     3208283.3451      -3774.059          31.194  
R17  21687523.940      754561.9431       -799.806          24.660  
R03  20395576.436    -1696646.1421       2141.255          31.149  
R04  23339252.372    -1860637.5511       3968.787          19.871  
J01  37792141.245      658746.9731       -948.579          36.321  
E015323907666.700      996360.3941      -1547.099          21.721  
> 2018  4 30 11 50  7.9997345  0 18
G02  23487364.836    -3459859.2381        908.989          24.525  
G03  23840266.127     3234953.7591      -3446.072          18.064  
G06  21167148.988      142468.1021       -262.837          24.409  
G09  23719442.272    -1177426.4871       1611.613          21.753  
G17  21422976.882     -719852.3001        693.754          26.204  
G19  21480462.086    -1002312.4321       1083.052          35.188  
G23  24809098.818     -285336.6841        284.163          37.205  
G28  21006374.190     1612007.1871      -2405.784          35.691  
G30  25373857.744     1066844.8251      -2336.583           7.000  
R02  21161901.121     1154349.1981      -1582.129          25.718  
R18  21556769.759     -372380.4761        542.333          23.514  
R16  21620113.207      120936.7961       -452.497          24.101  
R15  21951232.478     3212059.0331      -3767.235          29.068  
R17  21687659.446      755362.3281       -797.891          23.990  
R03  20395173.215    -1698787.3211       2140.526          33.560  
R04  23338502.591    -1864606.9841       3968.398          20.765  
J01  37792319.921      659696.6920       -950.794          38.522  
E015623700420.900      997952.5581      -1540.915          22.176  
> 2018  4 30 11 50  8.9997345  0 18
G02  23487217.338    -3460763.3051        902.940          26.851  
G03  23840916.377     3238397.5211      -3446.796          16.062  
G06  21167208.347      142738.4551       -265.385          22.568  
G09  23719140.081    -1179030.4321       1603.736          20.649  
G17  21422838.078     -720543.7321        695.978          24.563  
G19  21480255.529    -1003395.1911       1082.356          39.862  
G23  24809053.849     -285617.8311        284.453          34.867  
G28  21006825.377     1614409.5281      -2404.252          34.155  
G30  25374301.736     1069181.4031      -2336.583           7.000  
R02  21162193.418     1155925.4051      -1580.222          24.857  
R18  21556650.142     -372922.0581        542.636          22.052  
R16  21620183.658      121393.0381       -455.661          24.260  
R15  21951911.208     3215828.3001      -3763.982          28.291  
R17  21687793.453      756160.2761       -794.459          23.040  
R03  20394752.607    -1700928.8071       2139.321          34.050  
R04  23337781.290    -1868576.5381       3968.284          17.113  
J01  37792499.497      660646.7420       -951.724          41.602  
E015923493155.305      999491.8921      -1532.521          21.598  
> 2018  4 30 11 50  9.9997345  0 18
G02  23487029.068    -3461667.2391        900.576          24.640  
G03  23841591.809     3241848.4891      -3447.115          16.286  
G06  21167270.703      143003.5171       -264.835          23.317  
G09  23718821.102    -1180638.3351       1603.851          19.304  
G17  21422697.475     -721242.0941        693.921          26.133  
G19  21480055.567    -1004478.4871       1082.335          35.069  
G23  24809024.170     -285898.2021        283.435          31.970  
G28  21007288.257     1616812.9061      -2404.100          33.404  
G30  25374746.029     1071518.1521      -2336.583           7.000  
R02  21162479.121     1157506.3661      -1581.595          23.401  
R18  21556581.189     -373465.3101        538.801          22.122  
R16  21620290.384      121847.0341       -455.826          22.623  
R15  21952696.065     3219588.5651      -3765.839          26.421  
R17  21687905.575      756953.9211       -794.970          22.259  
R03  20394373.669    -1703071.8651       2138.752          35.830  
R04  23337027.912    -1872539.0431       3968.977          18.747  
J01  37792674.276      661596.6201       -951.375          40.402  
E016223285914.590     1001035.0401      -1539.419          21.730  
> 2018  4 30 11 50 10.9997345  0 18
G02  23486867.480    -3462567.1091        900.709          23.620  
G03  23842257.948     3245294.2221      -3447.826          18.426  
G06  21167294.687      143272.6641       -266.449          22.994  
G09  23718510.217    -1182246.3721       1605.054          19.721  
G17  21422570.963     -721934.1011        691.403          25.026  
G19  21479843.314    -1005562.3791       1082.259          33.587  
G23  24808951.920     -286180.9201        283.305          28.851  
G28  21007744.541     1619218.1741      -2407.997          34.563  
G30  25375190.021     1073853.7681      -2336.583           7.000  
R02  21162809.792     1159089.1081      -1579.645          22.844  
R18  21556449.880     -374001.4821        540.218          22.377  
R16  21620380.922      122300.5891       -451.479          21.774  
R15  21953329.226     3223353.2641      -3771.761          25.595  
R17  21688104.038      757749.1381       -801.044          21.245  
R03  20393962.054    -1705210.2951       2140.024          33.902  
R04  23336265.240    -1876509.1411       3971.146          17.544  
J01  37792858.948      662546.3460       -951.141          38.836  
E016523078646.610     1002579.6491      -1549.404          20.320  
> 2018  4 30 11 50 11.9997345  0 18
G02  23486712.787    -3463467.5991        902.872          23.998  
G03  23842909.997     3248736.6161      -3447.756          17.143  
G06  21167362.440      143533.9351       -266.365          22.910  
G09  23718230.211    -1183855.6231       1606.562          19.781  
G17  21422436.056     -722630.0941        696.126          26.283  
G19  21479634.359    -1006646.3961       1084.088          33.759  
G23  24808923.739     -286463.0331        283.289          28.033  
G28  21008212.817     1621623.7931      -2408.152          32.382  
G30  25375635.513     1076190.2931      -2335.607           7.000  
R02  21163084.102     1160665.4631      -1586.564          24.211  
R18  21556382.127     -374548.8851        549.778          20.902  
R16  21620421.394      122758.7831       -450.861          22.962  
R15  21954082.005     3227124.0611      -3770.111          27.986  
R17  21688253.934      758546.7421       -795.332          21.470  
R03  20393558.233    -1707349.3961       2138.861          32.395  
R04  23335495.373    -1880474.0001       3968.697          17.129  
J01  37793042.421      663495.3261       -945.420          35.396  
E016822871414.590     1004124.4751      -1544.892          20.343  
> 2018  4 30 11 50 12.9997345  0 18
G02  23486556.895    -3464375.5551        905.236          23.316  
G03  23843568.041     3252178.9811      -3448.172          17.856  
G06  21167407.409      143801.3291       -263.175          21.381  
G09  23717932.817    -1185464.0191       1605.640          19.192  
G17  21422313.141     -723323.4091        696.486          24.750  
G19  21479434.097    -1007729.6271       1085.479          31.685  
G23  24808875.473     -286746.3131        282.917          25.536  
G28  21008668.801     1624031.7651      -2405.566          29.438  
G30  25376079.506     1078527.0801      -2336.583           7.000  
R02  21163396.485     1162249.3871      -1588.924          24.064  
R18  21556258.013     -375101.4961        541.445          23.802  
R16  21620478.354      123217.1531       -451.049          22.547  
R15  21954754.440     3230901.1401      -3773.552          29.639  
R17  21688384.044      759337.0321       -792.876          22.339  
R03  20393161.908    -1709487.4971       2136.922          34.626  
R04  23334786.364    -1884439.1181       3967.397          18.413  
J01  37793223.496      664444.7611       -947.862          33.668  
E017122664177.180     1005672.8581      -1542.697          20.452  
> 2018  4 30 11 50 13.9997345  0 18
G02  23486353.936    -3465287.9971        904.360          21.112  
G03  23844202.702     3255624.0451      -3447.924          17.832  
G06  21167484.755      144060.2471       -265.719          20.297  
G09  23717627.928    -1187075.3861       1605.169          19.235  
G17  21422185.130     -724019.0511        696.928          26.604  
G19  21479238.333    -1008812.8481       1083.500          28.147  
G23  24808832.603     -287035.3551        284.038          23.611  
G28  21009143.073     1626442.9501      -2406.044          27.444  
G30  25376523.199     1080862.2971      -2336.583           7.000  
R02  21163681.288     1163837.8031      -1589.544          26.544  
R18  21556190.860     -375643.7171        541.099          22.519  
R16  21620570.690      123674.4211       -452.978          22.357  
R15  21955432.271     3234676.2781      -3770.524          28.708  
R17  21688555.525      760124.0561       -791.502          22.875  
R03  20392764.683    -1711625.6101       2136.073          35.367  
R04  23334050.973    -1888408.1711       3966.459          16.291  
J01  37793406.069      665393.6871       -950.763          32.731  
E017422456936.480     1007222.0091      -1558.291          21.704  
> 2018  4 30 11 50 14.9997345  0 18
G02  23486217.830    -3466195.2891        902.849          20.574  
G03  23844874.837     3259068.9011      -3446.791          19.493  
G06  21167503.942      144324.2931       -268.667          24.056  
G09  23717340.727    -1188685.8451       1606.307          18.565  
G17  21422050.223     -724717.6611        693.373          27.142  
G19  21479040.769    -1009901.6651       1082.369          25.799  
G23  24808777.141     -287318.3831        283.399          24.936  
G28  21009609.850     1628847.8611      -2403.661          26.267  
G30  25376967.491     1083196.5041      -2334.632           7.000  
R02  21163969.389     1165429.0171      -1592.263          29.393  
R18  21556103.620     -376190.4821        547.912          23.095  
R16  21620652.234      124131.7771       -453.937          24.660  
R15  21956137.682     3238446.5061      -3765.864          28.213  
R17  21688744.095      760915.4941       -796.714          24.065  
R03  20392371.055    -1713757.9241       2137.304          33.932  
R04  23333314.982    -1892379.9451       3965.481          15.838  
J01  37793582.647      666341.3251       -949.941          33.203  
E017722249653.800     1008763.3651      -1552.956          20.204  
> 2018  4 30 11 50 15.9997345  0 18
G02  23486011.872    -3467110.3171        908.884          22.283  
G03  23845537.078     3262513.6751      -3447.819          18.179  
G06  21167555.206      144588.6911       -264.617          23.761  
G09  23717019.349    -1190294.4111       1607.670          19.460  
G17  21421906.023     -725413.9271        691.229          25.829  
G19  21478821.621    -1010988.0361       1087.199          27.323  
G23  24808742.965     -287599.4461        286.470          21.914  
G28  21010050.844     1631254.9201      -2402.247          24.638  
G30  25377411.484     1085530.5351      -2334.632           7.000  
R02  21164245.198     1167023.0921      -1595.500          31.729  
R18  21555965.416     -376732.4741        545.300          22.840  
R16  21620738.874      124580.6171       -454.978          23.924  
R15  21956857.184     3242215.5401      -3768.249          29.274  
R17  21688821.741      761713.0191       -799.672          23.555  
R03  20391964.537    -1715894.9371       2136.269          35.068  
R04  23332592.183    -1896349.5711       3964.016          15.456  
J01  37793767.020      667288.3001       -947.760          31.257  
E018022042407.690     1010308.8571      -1529.450          19.818  
> 2018  4 30 11 50 16.9997345  0 18
G02  23485886.559    -3468021.6201        904.436          22.194  
G03  23846207.414     3265959.5251      -3446.569          18.406  
G06  21167606.171      144848.5541       -264.008          24.620  
G09  23716707.565    -1191896.2961       1606.552          22.266  
G17  21421796.899     -726109.5121        691.822          26.510  
G19  21478629.154    -1012074.6441       1089.701          25.894  
G23  24808667.717     -287880.2471        284.383          23.131  
G28  21010500.833     1633653.5261      -2404.774          23.937  
G30  25377855.776     1087863.9761      -2333.656           7.000  
R02  21164542.592     1168617.9741      -1594.967          33.235  
R18  21555884.472     -377269.6941        541.453          21.360  
R16  21620794.036      125038.4751       -454.784          26.418  
R15  21957521.224     3245980.8851      -3762.789          33.497  
R17  21689027.099      762513.5431       -795.840          25.169  
R03  20391570.010    -1718030.8851       2133.833          35.545  
R04  23331808.225    -1900308.6341       3964.138          15.499  
J01  37793942.698      668237.2351       -947.614          31.750  
E018321835182.870     1011851.7751      -1529.694          18.696  
> 2018  4 30 11 50 17.9997345  0 18
G02  23485691.994    -3468926.2441        905.376          22.950  
G03  23846857.964     3269408.3031      -3447.545          19.087  
G06  21167647.842      145115.8731       -263.304          21.996  
G09  23716402.676    -1193501.9771       1604.841          19.943  
G17  21421666.789     -726803.9531        695.825          27.354  
G19  21478426.495    -1013163.3241       1089.437          25.705  
G23  24808596.966     -288165.1171        285.406          22.367  
G28  21010974.205     1636061.1801      -2407.116          24.328  
G30  25378481.743     1090196.2661      -2333.656           7.000  
R02  21164845.682     1170213.5481      -1594.423          34.656  
R18  21555756.161     -377811.3161        545.838          23.773  
R16  21620889.969      125492.2321       -455.794          26.579  
R15  21958260.213     3249749.5911      -3765.507          32.786  
R17  21689124.232      763308.2731       -792.666          24.446  
R03  20391183.278    -1720169.6841       2135.191          34.657  
R04  23331066.839    -1904266.7911       3968.124          16.505  
J01  37794118.676      669185.2891       -947.587          33.160  
E018621627936.460     1013397.8741      -1546.843          18.818  
> 2018  4 30 11 50 18.9997345  0 18
G02  23485567.880    -3469831.7791        907.349          22.431  
G03  23847478.834     3272862.2391      -3447.705          19.703  
G06  21167730.885      145377.5861       -263.170          23.566  
G09  23716100.785    -1195111.0911       1605.401          20.002  
G17  21421509.697     -727496.4451        694.714          27.824  
G19  21478234.028    -1014251.9691       1087.759          24.283  
G23  24808590.670     -288455.9981        283.711          21.137  
G28  21011440.383     1638465.5181      -2409.971          24.193  
G30  25378737.765     1092526.5851      -2331.705           7.000  
R02  21165144.875     1171809.6511      -1594.402          33.930  
R18  21555625.151     -378352.6831        547.385          22.527  
R16  21620983.505      125944.0441       -455.732          25.009  
R15  21958959.928     3253511.8911      -3763.536          32.342  
R17  21689297.212      764105.4051       -796.039          24.677  
R03  20390768.665    -1722306.1761       2133.788          36.126  
R04  23330339.242    -1908230.3531       3967.521          14.712  
J01  37794318.038      670134.9441       -950.325          29.645  
E018921420682.560     1014941.9371      -1551.858          19.650  
> 2018  4 30 11 50 19.9997345  0 18
G02  23485350.230    -3470742.8581        907.711          25.109  
G03  23848126.985     3276306.9361      -3450.057          19.262  
G06  21167740.778      145636.6221       -265.646          22.997  
G09  23715797.095    -1196722.1511       1606.645          19.909  
G17  21421394.277     -728188.3921        692.617          27.841  
G19  21477999.590    -1015340.8331       1086.945          23.923  
G23  24808536.108     -288739.9211        287.241          22.912  
G28  21011857.993     1640868.5021      -2406.392          22.961  
G30  25379179.360     1094856.7001      -2330.729           7.000  
R02  21165462.655     1173405.0841      -1596.625          31.690  
R18  21555587.377     -378900.2241        544.621          21.271  
R16  21621085.434      126403.6291       -457.643          22.793  
R15  21959677.032     3257281.3701      -3766.951          30.726  
R17  21689438.114      764905.9331       -799.438          25.064  
R03  20390387.628    -1724440.4461       2132.224          33.146  
R04  23329590.061    -1912201.5091       3969.075          14.227  
J01  37794487.121      671080.9281       -948.470          28.598  
E019221213398.984     1016485.3491      -1550.532          20.733  
> 2018  4 30 11 50 20.9997345  0 18
G02  23485179.948    -3471647.9971        910.650          25.179  
G03  23848795.522     3279753.7941      -3449.190          18.006  
G06  21167802.535      145901.6711       -266.824          24.539  
G09  23715490.108    -1198336.4871       1607.537          21.464  
G17  21421260.570     -728880.9121        692.955          28.113  
G19  21477792.134    -1016431.2381       1089.282          26.181  
G23  24808456.963     -289027.8101        283.236          23.596  
G28  21012337.062     1643272.5371      -2407.139          24.553  
G30  25379620.954     1097186.6311      -2329.754           7.000  
R02  21165743.561     1174998.7841      -1597.213          29.459  
R18  21555463.563     -379451.2881        547.059          21.915  
R16  21621168.776      126861.6851       -459.346          21.854  
R15  21960344.070     3261050.6401      -3764.496          29.314  
R17  21689608.097      765699.1731       -796.066          25.618  
R03  20390002.995    -1726573.5001       2134.676          32.736  
R04  23328847.775    -1916170.4431       3970.702          14.774  
J01  37794669.395      672028.1751       -946.105          31.597  
E019521006169.370     1018024.1991      -1545.578          21.133  
> 2018  4 30 11 50 21.9997345  0 18
G02  23484992.578    -3472552.5441        905.893          23.540  
G03  23849497.636     3283201.9931      -3447.989          20.092  
G06  21167853.800      146164.3161       -264.571          25.998  
G09  23715136.952    -1199946.5981       1602.084          20.789  
G17  21421116.969     -729580.7981        693.964          28.616  
G19  21477599.367    -1017516.5631       1086.850          25.979  
G23  24808492.038     -289311.4871        286.296          20.751  
G28  21012794.545     1645680.3151      -2406.874          24.761  
G30  25380061.649     1099517.9171      -2328.778           7.000  
R02  21166062.540     1176596.0571      -1594.950          29.625  
R18  21555325.659     -379995.5531        545.307          21.186  
R16  21621208.649      127317.3691       -458.122          20.503  
R15  21961073.765     3264813.7341      -3765.637          29.979  
R17  21689733.410      766494.2101       -793.748          28.606  
R03  20389572.792    -1728708.8361       2136.134          30.483  
R04  23328147.759    -1920141.9601       3971.339          14.673  
J01  37794845.973      672976.5201       -946.948          31.686  
E019820798918.470     1019568.8981      -1549.145          21.952  
> 2018  4 30 11 50 22.9997345  0 18
G02  23484796.813    -3473452.9511        906.263          22.243  
G03  23850114.609     3286643.9891      -3448.747          20.350  
G06  21167918.855      146428.6901       -262.534          27.454  
G09  23714862.043    -1201549.9841       1605.720          20.340  
G17  21420991.956     -730273.4011        694.084          30.708  
G19  21477370.026    -1018603.6471       1086.122          26.952  
G23  24808415.591     -289596.4701        281.096          18.381  
G28  21013232.542     1648083.5031      -2407.546          22.939  
G30  25380500.545     1101837.6851      -2327.803           7.000  
R02  21166347.642     1178185.1541      -1594.408          28.482  
R18  21555259.404     -380535.7781        545.515          21.658  
R16  21621364.541      127781.5541       -462.762          22.508  
R15  21961747.698     3268576.7291      -3765.500          30.519  
R17  21689894.998      767286.5191       -795.874          28.236  
R03  20389192.656    -1730846.7931       2134.985          28.938  
R04  23327417.165    -1924119.6311       3972.610          14.914  
J01  37795022.251      673923.3621       -946.643          33.061  
E010120591666.070     1021112.8751      -1556.767          22.788  
> 2018  4 30 11 50 23.9997345  0 18
G02  23484612.741    -3474362.8751        905.470          23.194  
G03  23850787.943     3290095.5091      -3449.748          20.228  
G06  21167959.327      146690.9261       -264.844          27.217  
G09  23714553.256    -1203154.6481       1612.403          20.648  
G17  21420875.037     -730970.0631        697.992          28.804  
G19  21477168.566    -1019690.4301       1087.056          27.338  
G23  24808293.876     -289879.8031        282.222          19.291  
G28  21013739.491     1650486.9061      -2405.703          20.693  
G30  25380941.240     1104162.6821      -2324.876           7.000  
R02  21166660.626     1179775.9711      -1594.617          28.717  
R18  21555170.066     -381076.1001        544.331          20.965  
R16  21621420.902      128245.0921       -463.604          24.682  
R15  21962445.615     3272339.1511      -3762.326          31.956  
R17  21690054.488      768082.0941       -797.724          29.488  
R03  20388820.313    -1732985.3301       2133.136          27.069  
R04  23326687.770    -1928089.8441       3974.372          15.417  
J01  37795202.726      674871.3341       -950.669          34.205  
E010420384423.260     1022645.5181      -1535.120          23.435  
> 2018  4 30 11 50 24.9997345  0 18
G02  23484442.759    -3475272.3141        904.800          22.934  
G03  23851452.283     3293547.7991      -3449.487          21.096  
G06  21168005.195      146952.1031       -266.285          30.060  
G09  23714266.055    -1204759.0771       1605.583          19.938  
G17  21420744.627     -731667.5731        698.655          27.300  
G19  21476960.210    -1020776.4611       1088.328          30.024  
G23  24808307.966     -290163.1451        282.435          20.231  
G28  21014160.999     1652890.1931      -2408.187          22.397  
G30  25381380.436     1106485.6301      -2324.876           7.000  
R02  21166949.626     1181369.2821      -1599.921          29.964  
R18  21555042.055     -381625.1421        547.931          22.412  
R16  21621567.500      128706.5041       -462.568          22.163  
R15  21963148.029     3276102.0101      -3762.894          31.773  
R17  21690196.889      768876.7191       -798.665          30.384  
R03  20388418.592    -1735117.4361       2134.407          27.086  
R04  23325953.279    -1932069.0431       3974.231          15.761  
J01  37795389.496      675819.4771       -946.430          34.718  
E010720177180.160     1024189.9551      -1544.276          23.031  
> 2018  4 30 11 50 25.9997345  0 18
G02  23484294.661    -3476177.2101        903.941          23.311  
G03  23852113.925     3296998.6631      -3449.787          19.114  
G06  21168058.258      147217.7001       -266.810          30.643  
G09  23713935.384    -1206364.5701       1604.838          21.410  
G17  21420591.433     -732362.8501        694.035          28.138  
G19  21476762.047    -1021865.0391       1087.159          27.459  
G23  24808241.712     -290452.4701        284.016          21.459  
G28  21014625.378     1655293.0121      -2411.799          24.225  
G30  25381821.131     1108808.6911      -2322.925           7.000  
R02  21167279.997     1182971.3321      -1598.563          29.283  
R18  21554948.819     -382181.0371        552.441          21.463  
R16  21621640.650      129168.4481       -464.196          23.667  
R15  21963885.219     3279865.2621      -3770.847          31.555  
R17  21690330.297      769677.1351       -798.479          29.418  
R03  20388035.157    -1737253.9051       2132.771          24.737  
R04  23325193.604    -1936048.0131       3975.423          15.892  
J01  37795569.072      676767.5171       -948.406          34.844  
E011019969924.450     1025733.3431      -1544.355          23.608  
> 2018  4 30 11 50 26.9997345  0 18
G02  23484070.416    -3477085.0311        904.684          23.726  
G03  23852753.382     3300446.6231      -3451.083          19.097  
G06  21168093.634      147483.3071       -266.568          31.186  
G09  23713641.887    -1207976.8361       1616.193          20.147  
G17  21420484.707     -733059.8541        696.456          27.486  
G19  21476550.094    -1022945.0191       1085.383          25.774  
G23  24808203.338     -290737.5131        282.004          21.726  
G28  21015069.670     1657702.9191      -2413.268          23.660  
G30  25382260.926     1111132.5711      -2322.925           7.000  
R02  21167551.609     1184570.9941      -1598.875          33.332  
R18  21554843.592     -382732.6391        552.446          20.825  
R16  21621737.483      129633.5791       -466.063          22.396  
R15  21964618.211     3283633.7361      -3770.918          29.429  
R17  21690501.778      770474.3321       -796.757          28.928  
R03  20387604.655    -1739392.5111       2133.020          25.097  
R04  23324351.787    -1940023.7141       3975.630          17.859  
J01  37795748.348      677715.6511       -950.200          34.022  
E011319762674.450     1027278.5591      -1546.193          25.048  
> 2018  4 30 11 50 27.9997345  0 18
G02  23483919.621    -3477993.3201        904.562          22.205  
G03  23853412.326     3303892.2011      -3451.639          19.995  
G06  21168158.089      147748.0441       -264.819          31.479  
G09  23713363.980    -1209594.3611       1612.938          20.525  
G17  21420332.113     -733760.9541        695.273          29.083  
G19  21476346.235    -1024031.7411       1088.026          26.129  
G23  24808149.076     -291014.9371        281.045          20.434  
G28  21015532.550     1660115.8491      -2410.432          21.752  
G30  25382702.820     1113456.6521      -2323.900           7.000  
R02  21167838.510     1186174.4151      -1605.977          38.508  
R18  21554729.072     -383279.8461        546.818          23.952  
R16  21621754.871      130101.8761       -465.041          23.259  
R15  21965282.851     3287401.2111      -3769.037          28.078  
R17  21690618.997      771264.5281       -793.841          27.192  
R03  20387180.149    -1741526.4371       2136.722          23.218  
R04  23323594.811    -1943995.7171       3973.642          17.111  
J01  37795927.624      678664.8250       -949.447          36.049  
E011619555416.055     1028823.8411      -1548.429          24.643  
> 2018  4 30 11 50 28.9997345  0 18
G02  23483745.741    -3478901.4331        906.980          24.289  
G03  23854079.664     3307348.3041      -3449.284          19.274  
G06  21168199.161      148013.8981       -264.827          31.219  
G09  23713025.214    -1211197.9191       1601.812          21.291  
G17  21420208.298     -734450.1631        691.881          29.250  
G19  21476141.177    -1025122.5071       1089.939          25.855  
G23  24808044.148     -291295.7751        283.019          21.359  
G28  21016008.620     1662530.1221      -2408.048          21.403  
G30  25383142.616     1115781.5071      -2323.900           7.000  
R02  21168141.900     1187777.9901      -1603.450          35.806  
R18  21554627.742     -383828.0911        544.447          21.971  
R16  21621905.067      130570.1821       -466.619          23.131  
R15  21965990.961     3291164.3231      -3767.611          30.373  
R17  21690785.682      772055.9531       -792.342          26.683  
R03  20386839.585    -1743666.7021       2129.951          22.497  
R04  23322834.837    -1947968.1051       3975.342          15.239  
J01  37796116.193      679613.9101       -947.732          36.563  
E011919348184.945     1030371.3651      -1550.767          21.684  
> 2018  4 30 11 50 29.9997345  0 18
G02  23483537.385    -3479808.1201        905.799          24.231  
G03  23854748.501     3310797.2161      -3450.990          20.225  
G06  21168256.121      148283.4431       -268.114          31.728  
G09  23712728.120    -1212802.5591       1600.845          19.439  
G17  21420083.585     -735146.3721        693.793          28.756  
G19  21475933.421    -1026207.2751       1087.699          27.084  
G23  24807982.391     -291579.2451        285.222          20.820  
G28  21016464.305     1664939.1771      -2415.856          20.584  
G30  25383584.510     1118106.5641      -2324.876           7.000  
R02  21168449.487     1189381.1201      -1600.936          33.943  
R18  21554525.512     -384376.4471        543.213          20.606  
R16  21621962.627      131036.6691       -468.007          23.971  
R15  21966717.958     3294934.2691      -3767.535          28.534  
R17  21690914.892      772848.4131       -798.145          27.441  
R03  20386418.376    -1745788.7971       2125.572          24.009  
R04  23322108.440    -1951945.8001       3972.996          14.373  
J01  37796289.773      680563.1811       -949.061          35.114  
E012219140926.840     1031924.8631      -1547.979          24.444  
> 2018  4 30 11 50 30.9997345  0 18
G02  23483383.292    -3480707.8021        899.545          25.024  
G03  23855397.552     3314246.9781      -3460.661          19.369  
G06  21168309.784      148551.3491       -271.072          30.775  
G09  23712401.946    -1214401.2251       1612.797          19.119  
G17  21419942.682     -735841.3911        694.082          28.823  
G19  21475755.344    -1027292.8941       1082.876          24.651  
G23  24807932.026     -291857.0891        285.651          18.586  
G28  21016931.381     1667349.0851      -2415.001          18.251  
G30  25384026.404     1120431.4341      -2324.876           7.000  
R02  21168737.888     1190986.2861      -1605.409          34.655  
R18  21554426.581     -384923.8181        550.234          21.375  
R16  21622081.644      131507.4161       -468.280          23.112  
R15  21967424.269     3298707.5671      -3770.428          27.870  
R17  21691056.994      773647.7371       -800.023          27.977  
R03  20386006.461    -1747913.3871       2128.597          24.150  
R04  23321376.047    -1955922.6401       3973.904          16.610  
J01  37796475.944      681512.3660       -949.570          35.176  
E012518933669.650     1033479.9441      -1552.082          25.149  
> 2018  4 30 11 50 31.9997345  0 18
G02  23483184.530    -3481611.9111        901.039          26.842  
G03  23856024.118     3317708.5871      -3464.232          18.140  
G06  21168354.453      148820.5351       -268.619          28.177  
G09  23712082.367    -1216001.5611       1605.201          17.865  
G17  21419815.270     -736539.6691        694.843          30.115  
G19  21475523.904    -1028373.9531       1081.530          24.912  
G23  24807887.657     -292148.6891        284.107          18.930  
G28  21017403.554     1669768.1861      -2414.799          17.472  
G30  25384467.099     1122756.4751      -2324.876           7.000  
R02  21169037.980     1192593.2131      -1604.865          34.851  
R18  21554288.377     -385474.1481        551.263          22.698  
R16  21622142.802      131982.9291       -470.307          18.791  
R15  21968069.122     3302482.7751      -3768.202          28.737  
R17  21691243.165      774447.7821       -800.714          26.581  
R03  20385615.532    -1750045.2241       2134.425          24.596  
R04  23320613.076    -1959895.8851       3972.636          14.508  
J01  37796658.218      682461.3511       -946.007          33.071  
E012818726422.640     1035028.6911      -1546.655          29.544  
> 2018  4 30 11 50 32.9997345  0 18
G02  23483031.336    -3482518.3381        902.846          27.319  
G03  23856706.446     3321173.0691      -3464.618          19.128  
G06  21168413.212      149086.9961       -265.186          28.225  
G09  23711799.063    -1217609.0901       1605.829          17.002  
G17  21419674.968     -737238.9031        694.593          32.788  
G19  21475308.353    -1029461.0071       1086.061          27.175  
G23  24807829.197     -292430.7621        282.681          19.507  
G28  21017832.258     1672186.2511      -2415.277          21.205  
G30  25384906.595     1125080.3841      -2324.876           7.000  
R02  21169352.462     1194201.0481      -1609.203          33.457  
R18  21554169.959     -386028.3221        551.329          19.573  
R16  21622215.352      132454.1211       -470.568          18.532  
R15  21968779.331     3306248.1771      -3765.053          30.955  
R17  21691375.074      775249.7341       -794.635          25.500  
R03  20385202.718    -1752179.7121       2129.662          26.903  
R04  23319892.974    -1963868.1081       3971.230          13.994  
J01  37796828.500      683410.1680       -948.396          34.757  
E013118519175.040     1036576.4421      -1545.740          27.966  
> 2018  4 30 11 50 33.9997345  0 18
G02  23482829.875    -3483425.1111        902.152          26.874  
G03  23857367.188     3324632.4301      -3463.270          16.322  
G06  21168463.278      149352.9931       -265.937          28.840  
G09  23711491.176    -1219216.5211       1606.831          18.929  
G17  21419533.466     -737933.6771        694.202          30.912  
G19  21475093.702    -1030544.4801       1087.654          28.534  
G23  24807798.019     -292707.3161        280.360          20.626  
G28  21018311.026     1674605.2301      -2414.590          22.245  
G30  25385345.791     1127403.6701      -2323.900           7.000  
R02  21169653.454     1195809.0261      -1605.164          32.342  
R18  21554140.879     -386584.6271        547.711          22.900  
R16  21622305.889      132928.6581       -472.914          21.844  
R15  21969491.637     3310013.4871      -3768.953          29.012  
R17  21691543.257      776047.7081       -792.602          25.269  
R03  20384803.094    -1754305.8151       2126.154          28.628  
R04  23319147.990    -1967845.5881       3971.407          15.142  
J01  37797018.868      684359.0960       -949.441          35.669  
E013418311920.540     1038127.2571      -1549.796          26.254  
> 2018  4 30 11 50 34.9997345  0 18
G02  23482677.581    -3484326.3021        894.993          33.213  
G03  23858029.130     3328094.3931      -3460.253          15.565  
G06  21168492.957      149620.2421       -268.337          30.066  
G09  23711192.283    -1220827.0751       1606.774          19.701  
G17  21419415.947     -738627.8591        695.180          29.059  
G19  21474903.334    -1031630.2701       1084.439          28.769  
G23  24807740.758     -292980.9311        278.296          19.302  
G28  21018750.522     1677023.8231      -2420.310          23.541  
G30  25385785.287     1129725.4181      -2322.925           7.000  
R02  21169952.647     1197418.9020      -1610.407          36.249  
R18  21553991.882     -387133.3551        546.980          21.742  
R16  21622403.322      133398.7411       -475.107          18.584  
R15  21970203.944     3313781.4221      -3774.443          27.599  
R17  21691689.256      776845.7151       -797.973          25.926  
R03  20384383.385    -1756434.2331       2125.391          28.553  
R04  23318424.591    -1971826.1551       3970.614          14.741  
J01  37797189.750      685308.5091       -947.467          33.729  
E013718104680.430     1039680.0371      -1556.510          24.157  
> 2018  4 30 11 50 35.9997345  0 18
G02  23482489.311    -3485225.3891        901.527          32.446  
G03  23858676.082     3331560.7901      -3459.070          17.966  
G06  21168541.224      149888.4301       -269.572          32.611  
G09  23710909.579    -1222437.3901       1607.029          19.212  
G17  21419277.743     -739325.5681        695.829          28.553  
G19  21474684.485    -1032718.0091       1080.778          29.993  
G23  24807685.597     -293254.0281        278.135          21.186  
G28  21019211.003     1679446.1411      -2418.819          23.869  
G30  25386225.682     1132046.7521      -2321.949           7.000  
R02  21170278.821     1199026.8091      -1611.526          33.497  
R18  21553908.839     -387683.5751        549.160          24.552  
R16  21622482.167      133875.5211       -475.593          19.671  
R15  21970926.144     3317556.1331      -3769.172          27.002  
R17  21691798.081      777645.5081       -801.184          26.247  
R03  20383994.254    -1758559.0280       2124.907          35.229  
R04  23317678.707    -1975788.5451       3974.282          14.681  
J01  37797375.322      686257.0601       -948.621          35.876  
E014017897439.125     1041234.8361      -1550.029          21.957  
> 2018  4 30 11 50 36.9997345  0 18
G02  23482318.729    -3486133.0121        902.461          31.884  
G03  23859337.424     3335017.2981      -3457.529          19.569  
G06  21168585.293      150158.1541       -268.651          39.501  
G09  23710664.948    -1224044.8331       1606.721          18.908  
G17  21419152.130     -740018.2711        697.294          27.852  
G19  21474487.522    -1033801.5031       1081.806          30.079  
G23  24807604.353     -293536.7681        274.630          21.823  
G28  21019680.478     1681863.4151      -2415.275          23.952  
G30  25386666.976     1134369.4321      -2320.973           7.000  
R02  21170560.926     1200636.4221      -1606.364          29.635  
R18  21553787.723     -388235.2841        548.937          24.655  
R16  21622562.811      134355.9501       -474.794          18.659  
R15  21971615.967     3321322.8691      -3764.524          26.290  
R17  21691991.147      778443.3871       -798.571          25.242  
R03  20383600.627    -1760683.2131       2124.551          32.835  
R04  23316948.712    -1979765.8971       3974.001          15.081  
J01  37797550.700      687205.8101       -948.968          34.492  
E014317690196.016     1042795.3561      -1551.533          22.780  
> 2018  4 30 11 50 37.9997345  0 18
G02  23482168.833    -3487031.2161        899.878          30.742  
G03  23859995.169     3338473.1861      -3458.388          19.151  
G06  21168636.258      150426.8700       -269.208          42.776  
G09  23710293.805    -1225656.5401       1604.524          21.732  
G17  21419024.418     -740711.1961        694.930          26.305  
G19  21474268.074    -1034885.1501       1082.717          29.508  
G23  24807585.166     -293811.6091        271.766          22.047  
G28  21020133.764     1684277.3441      -2413.049          23.336  
G30  25387106.172     1136691.7861      -2322.925           7.000  
R02  21170863.716     1202243.6401      -1607.123          34.575  
R18  21553650.718     -388780.7751        547.539          27.541  
R16  21622604.782      134835.2201       -474.266          18.338  
R15  21972387.333     3325093.7721      -3768.635          23.842  
R17  21692166.526      779241.7611       -796.616          23.407  
R03  20383235.780    -1762810.6711       2123.806          28.798  
R04  23316199.231    -1983743.0371       3971.946          15.970  
J01  37797744.366      688153.8431       -949.445          32.993  
E014617482940.016     1044356.2501      -1548.910          21.706  
> 2018  4 30 11 50 38.9997345  0 18
G02  23481984.460    -3487927.6221        895.738          32.170  
G03  23860659.209     3341937.1141      -3458.995          18.754  
G06  21168680.927      150697.1981       -270.081          39.720  
G09  23710036.583    -1227262.9651       1604.187          20.212  
G17  21418882.017     -741406.6751        694.812          27.588  
G19  21474090.297    -1035964.2641       1084.868          27.300  
G23  24807538.399     -294090.3541        277.907          21.704  
G28  21020577.757     1686696.2121      -2417.148          25.392  
G30  25387548.066     1139013.5191      -2321.949           7.000  
R02  21171169.804     1203853.6261      -1610.544          33.955  
R18  21553554.185     -389333.4091        547.684          26.526  
R16  21622738.789      135312.1681       -475.106          20.565  
R15  21973067.262     3328868.9941      -3777.846          23.135  
R17  21692334.110      780041.6191       -795.969          23.150  
R03  20382834.957    -1764942.0571       2125.756          26.019  
R04  23315470.136    -1987708.7631       3971.199          18.501  
J01  37797907.153      689102.4971       -946.216          32.913  
E014917275711.600     1045908.5141      -1555.651          20.823  
> 2018  4 30 11 50 39.9997345  0 18
G02  23481806.384    -3488827.7671        896.116          31.973  
G03  23861310.059     3345390.0101      -3458.302          18.577  
G06  21168738.787      150967.1261       -268.799          40.190  
G09  23709707.711    -1228861.6211       1601.393          18.508  
G17  21418765.097     -742095.7221        694.541          24.641  
G19  21473868.150    -1037050.5031       1085.479          26.086  
G23  24807488.633     -294366.3201        277.559          21.646  
G28  21021039.737     1689114.7881      -2419.477          28.417  
G30  25387991.159     1141335.6341      -2321.949           7.000  
R02  21171465.699     1205466.4661      -1612.923          35.461  
R18  21553443.861     -389877.2221        545.937          26.088  
R16  21622838.021      135791.7551       -479.478          22.165  
R15  21973732.202     3332650.2471      -3769.945          25.993  
R17  21692423.448      780839.0511       -798.023          25.501  
R03  20382477.305    -1767059.7411       2121.874          23.638  
R04  23314715.858    -1991688.9421       3973.645          17.068  
J01  37798095.723      690049.8551       -945.077          32.148  
E015217068440.914     1047461.7341      -1549.075          20.348  
> 2018  4 30 11 50 40.9997345  0 18
G02  23481638.500    -3489725.5371        896.675          31.350  
G03  23861977.697     3348844.5961      -3458.012          18.623  
G06  21168786.754      151236.3611       -268.802          40.938  
G09  23709362.350    -1230466.2001       1603.263          18.635  
G17  21418623.296     -742788.9001        695.666          24.604  
G19  21473661.593    -1038133.2851       1082.999          24.896  
G23  24807407.989     -294647.8381        278.465          19.441  
G28  21021490.325     1691534.1831      -2417.537          33.089  
G30  25388434.253     1143657.5771      -2321.949           7.000  
R02  21171756.498     1207079.8921      -1611.570          36.456  
R18  21553365.915     -390422.2751        548.356          25.366  
R16  21622891.684      136271.4671       -481.377          19.937  
R15  21974438.213     3336421.6111      -3767.615          26.948  
R17  21692575.143      781632.1181       -795.462          22.925  
R03  20382144.535    -1769178.7811       2118.958          21.496  
R04  23313953.786    -1995657.8251       3971.917          18.948  
J01  37798274.999      690997.1381       -945.072          31.231  
E015516861190.016     1049014.4371      -1552.885          22.230  
> 2018  4 30 11 50 41.9997345  0 18
G02  23481460.423    -3490623.5861        900.178          30.852  
G03  23862651.630     3352305.2491      -3456.854          19.682  
G06  21168858.104      151501.8371       -263.958          36.259  
G09  23709094.036    -1232071.7241       1603.845          18.664  
G17  21418486.290     -743479.6571        692.187          27.161  
G19  21473449.940    -1039215.9291       1082.736          24.217  
G23  24807374.712     -294926.8801        274.411          20.338  
G28  21021952.305     1693953.4701      -2415.599          32.914  
G30  25388877.046     1145978.9261      -2321.949           7.000  
R02  21172073.678     1208693.6851      -1612.065          37.829  
R18  21553279.875     -390973.1511        546.957          25.802  
R16  21622972.328      136744.8871       -475.398          20.314  
R15  21975131.933     3340187.7421      -3766.982          28.066  
R17  21692736.731      782426.1901       -795.296          22.767  
R03  20381663.068    -1771293.6551       2119.933          23.959  
R04  23313229.187    -1999623.9311       3969.937          20.438  
J01  37798451.277      691944.9341       -949.139          31.326  
E015816653961.300     1050569.6901      -1555.975          22.351  
> 2018  4 30 11 50 42.9997345  0 18
G02  23481305.431    -3491531.3051        901.765          30.952  
G03  23863292.886     3355765.1081      -3454.737          22.225  
G06  21168913.566      151770.1901       -271.814          33.613  
G09  23708779.553    -1233680.8061       1604.347          18.755  
G17  21418374.168     -744172.1061        693.294          26.281  
G19  21473231.691    -1040301.3831       1086.871          25.691  
G23  24807286.573     -295200.2621        274.994          26.226  
G28  21022425.078     1696374.0541      -2421.986          34.406  
G30  25389318.940     1148299.6841      -2320.973           7.000  
R02  21172364.177     1210307.5161      -1616.318          34.745  
R18  21553129.979     -391514.9821        546.515          25.406  
R16  21623047.875      137214.9611       -478.889          21.794  
R15  21975837.045     3343954.7161      -3769.288          28.566  
R17  21692848.853      783225.7591       -799.696          21.210  
R03  20381339.892    -1773422.6531       2123.752          24.201  
R04  23312496.195    -2003590.8561       3968.594          18.955  
J01  37798633.551      692892.6041       -949.285          31.053  
E016116446708.590     1052132.1691      -1558.811          22.119  
> 2018  4 30 11 50 43.9997345  0 18
G02  23481113.563    -3492435.9851        896.940          31.940  
G03  23863949.132     3359215.8281      -3452.169          19.328  
G06  21168971.426      152041.1901       -272.883          31.120  
G09  23708447.383    -1235287.0721       1605.015          18.549  
G17  21418233.865     -744866.1721        694.729          26.081  
G19  21473051.216    -1041387.2581       1084.606          25.459  
G23  24807246.401     -295478.7051        275.549          24.459  
G28  21022885.559     1698795.2311      -2420.710          33.027  
G30  25389760.834     1150620.8231      -2320.973           7.000  
R02  21172680.458     1211921.7501      -1616.536          34.747  
R18  21553073.318     -392058.4201        544.325          25.974  
R16  21623192.675      137696.6361       -478.573          22.338  
R15  21976567.639     3347726.5791      -3774.186          28.573  
R17  21693005.645      784024.7581       -794.748          22.960  
R03  20380828.446    -1775546.1331       2125.711          23.452  
R04  23311763.802    -2007552.2061       3967.781          16.446  
J01  37798813.126      693840.8700       -949.470          31.878  
E016416239451.695     1053700.7721      -1549.306          20.228  
> 2018  4 30 11 50 44.9997345  0 18
G02  23480939.984    -3493336.8841        902.343          31.466  
G03  23864611.673     3362663.5041      -3453.415          18.358  
G06  21169027.187      152308.1221       -269.897          31.348  
G09  23708138.597    -1236887.6781       1605.960          17.781  
G17  21418108.552     -745557.3841        693.356          24.142  
G19  21472837.164    -1042470.7991       1081.275          26.775  
G23  24807217.621     -295751.3881        270.825          21.708  
G28  21023343.342     1701218.0531      -2420.664          32.536  
G30  25390203.928     1152942.7521      -2320.973           7.000  
R02  21172978.752     1213537.7891      -1615.929          36.141  
R18  21553007.663     -392597.5641        546.147          24.493  
R16  21623241.841      138177.9181       -477.832          23.047  
R15  21977224.484     3351502.3851      -3770.770          27.814  
R17  21693153.442      784817.5561       -790.874          22.214  
R03  20380450.708    -1777666.9271       2120.521          23.342  
R04  23311030.509    -2011516.9831       3967.185          17.364  
J01  37798999.297      694789.6640       -949.855          34.724  
E016716032219.086     1055255.0881      -1562.232          21.597  
> 2018  4 30 11 50 45.9997345  0 18
G02  23480770.601    -3494236.8181        904.251          29.142  
G03  23865269.418     3366114.6901      -3455.098          16.076  
G06  21169084.148      152578.3021       -270.304          29.905  
G09  23707835.807    -1238492.4341       1606.291          18.965  
G17  21417983.539     -746252.0371        692.396          25.293  
G19  21472634.504    -1043554.1101       1081.991          25.986  
G23  24807157.362     -296028.8041        270.528          20.045  
G28  21023802.624     1703641.9371      -2423.171          32.691  
G30  25390645.822     1155264.8811      -2321.949           7.000  
R02  21173271.349     1215154.8641      -1615.563          37.468  
R18  21552871.558     -393150.3381        549.765          22.023  
R16  21623301.500      138654.1651       -480.735          20.676  
R15  21977994.351     3355270.8001      -3772.839          28.290  
R17  21693264.066      785610.0151       -793.798          21.451  
R03  20380088.558    -1779791.5581       2121.984          22.879  
R04  23310219.271    -2015481.8321       3969.466          16.371  
J01  37799171.378      695738.9210       -950.105          34.488  
E017015824966.380     1056865.7101      -1550.053          22.206  
> 2018  4 30 11 50 46.9997345  0 18
G02  23480640.791    -3495134.0381        897.176          28.016  
G03  23865886.690     3369566.1461      -3451.986          17.427  
G06  21169133.914      152853.3691       -273.394          30.699  
G09  23707547.107    -1240094.5971       1605.887          18.890  
G17  21417850.431     -746943.5981        691.063          25.519  
G19  21472424.650    -1044641.1841       1080.391          27.746  
G23  24807082.414     -296302.1571        275.774          25.267  
G28  21024269.401     1706064.9901      -2421.021          30.907  
G30  25391088.915     1157586.8251      -2321.949           7.000  
R02  21173576.538     1216772.7501      -1615.858          35.992  
R18  21552764.831     -393696.4591        550.487          19.516  
R16  21623437.606      139139.8451       -480.132          24.169  
R15  21978677.578     3359044.4161      -3776.571          28.357  
R17  21693461.629      786409.9621       -801.731          24.520  
R03  20379679.342    -1781913.3441       2122.064          22.811  
R04  23309461.396    -2019447.0721       3970.122          16.335  
J01  37799362.346      696687.3321       -950.458          31.502  
E017315617727.170     1058417.8381      -1555.051          23.206  
> 2018  4 30 11 50 47.9997345  0 18
G02  23480400.957    -3496037.1391        900.057          26.564  
G03  23866577.112     3373014.2861      -3451.339          17.499  
G06  21169180.082      153136.0821       -273.827          28.947  
G09  23707264.402    -1241694.4311       1604.445          19.838  
G17  21417704.132     -747635.5761        691.320          26.257  
G19  21472228.585    -1045728.3051       1081.113          28.995  
G23  24807034.148     -296574.4351        273.205          26.321  
G28  21024749.369     1708484.2291      -2419.500          27.219  
G30  25391530.809     1159908.9391      -2321.949           7.000  
R02  21173891.620     1218391.1010      -1619.175          36.193  
R18  21552684.187     -394241.3411        549.031          20.955  
R16  21623528.743      139619.3731       -474.325          24.711  
R15  21979376.694     3362817.8391      -3773.019          28.933  
R17  21693625.016      787206.2421       -798.223          24.440  
R03  20379258.733    -1784035.8601       2120.631          22.987  
R04  23308727.204    -2023412.5391       3971.156          14.412  
J01  37799543.720      697636.3101       -948.399          29.451  
E017615410464.280     1059974.5131      -1558.127          22.057  
> 2018  4 30 11 50 48.9997345  0 18
G02  23480260.054    -3496944.5261        902.581          25.271  
G03  23867247.149     3376459.6701      -3453.364          17.629  
G06  21169237.042      153400.8171       -270.173          28.949  
G09  23706938.828    -1243295.0321       1603.141          19.115  
G17  21417589.311     -748326.4861        689.995          25.400  
G19  21472010.337    -1046812.5291       1081.442          28.205  
G23  24806974.489     -296846.2460        272.127          28.356  
G28  21025187.066     1710900.7321      -2420.218          23.885  
G30  25391971.504     1162230.8831      -2321.949           7.000  
R02  21174195.310     1220010.7781      -1620.662          35.793  
R18  21552541.486     -394789.4121        545.356          19.423  
R16  21623592.299      140090.0241       -474.184          22.985  
R15  21980104.590     3366591.1101      -3771.688          28.266  
R17  21693767.417      788001.5811       -794.302          23.375  
R03  20378889.388    -1786153.7211       2119.588          21.841  
R04  23307987.616    -2027385.5331       3970.691          15.742  
J01  37799723.596      698585.9751       -948.604          28.706  
E017915203210.680     1061532.2871      -1565.646          22.169  
> 2018  4 30 11 50 49.9997345  0 18
G02  23480086.774    -3497847.6171        902.234          24.522  
G03  23867912.388     3379906.9441      -3456.420          16.353  
G06  21169279.313      153672.2141       -271.084          30.445  
G09  23706591.368    -1244897.6561       1602.955          18.789  
G17  21417459.202     -749010.4161        689.844          24.448  
G19  21471816.970    -1047897.6011       1081.322          29.129  
G23  24806940.912     -297120.5821        273.148          25.822  
G28  21025627.761     1713318.7401      -2422.548          23.099  
G30  25392413.098     1164552.2311      -2321.949           7.000  
R02  21174485.209     1221631.4321      -1619.465          36.476  
R18  21552456.045     -395338.1311        544.133          20.004  
R16  21623700.224      140567.8011       -480.218          26.635  
R15  21980780.622     3370362.7241      -3776.796          27.524  
R17  21693950.591      788802.0241       -796.519          23.821  
R03  20378520.944    -1788265.7251       2115.100          22.142  
R04  23307292.397    -2031360.5431       3971.166          16.419  
J01  37799913.964      699536.9791       -951.088          31.571  
E018214995972.670     1063083.0511      -1555.616          22.487  
> 2018  4 30 11 50 50.9997345  0 18
G02  23479908.398    -3498751.8871        900.592          25.287  
G03  23868571.931     3383360.8521      -3457.654          13.380  
G06  21169345.567      153942.1791       -272.933          30.948  
G09  23706281.383    -1246496.7011       1601.370          19.257  
G17  21417329.991     -749706.1231        692.456          23.122  
G19  21471600.820    -1048973.9831       1081.439          31.093  
G23  24806911.233     -297388.7791        272.465          25.368  
G28  21026134.710     1715746.3381      -2423.831          22.490  
G30  25392854.692     1166872.0281      -2320.973           7.000  
R02  21174798.192     1223252.7081      -1618.401          36.063  
R18  21552346.021     -395884.9281        544.968          20.823  
R16  21623762.281      141046.6281       -481.619          26.674  
R15  21981483.036     3374137.3331      -3777.025          27.062  
R17  21694022.241      789604.3861       -799.331          24.805  
R03  20378120.121    -1790379.0291       2109.361          21.567  
R04  23306490.452    -2035335.6581       3971.449          18.217  
J01  37800095.039      700486.5200       -948.772          31.521  
E018514788734.060     1064636.2691      -1548.559          21.113  
> 2018  4 30 11 50 51.9997345  0 18
G02  23479751.906    -3499652.9701        897.642          23.772  
G03  23869238.970     3386816.6581      -3458.104          16.602  
G06  21169385.140      154213.8971       -272.236          31.099  
G09  23706023.861    -1248096.1291       1602.009          20.398  
G17  21417177.696     -750400.7481        690.402          21.634  
G19  21471405.056    -1050054.7371       1082.209          29.863  
G23  24806857.570     -297660.3671        273.089          25.999  
G28  21026584.698     1718167.1521      -2422.164          21.419  
G30  25393294.188     1169192.1771      -2319.998           7.000  
R02  21175100.383     1224874.6431      -1618.786          34.146  
R18  21552287.262     -396433.6801        552.730          21.890  
R16  21623801.554      141530.5861       -482.249          23.368  
R15  21982214.530     3377913.8401      -3774.122          25.798  
R17  21694225.800      790398.4111       -800.253          25.330  
R03  20377686.022    -1792493.2941       2111.282          20.444  
R04  23305756.560    -2039311.9931       3974.779          21.503  
J01  37800283.308      701434.8391       -951.910          27.747  
E018814581474.766     1066191.0741      -1546.157          21.646  
> 2018  4 30 11 50 52.9997345  0 18
G02  23479603.809    -3500548.4341        895.096          26.145  
G03  23869902.111     3390277.4781      -3457.111          14.465  
G06  21169445.398      154486.8671       -270.715          31.803  
G09  23705722.870    -1249697.1771       1600.675          20.437  
G17  21417055.381     -751092.7491        692.174          25.660  
G19  21471201.197    -1051135.9421       1082.717          30.144  
G23  24806779.024     -297930.6451        273.538          24.049  
G28  21027028.991     1720581.7841      -2420.683          23.940  
G30  25393735.183     1171512.1691      -2319.998           7.000  
R02  21175404.073     1226497.6531      -1622.038          34.125  
R18  21552169.144     -396989.2481        549.274          22.037  
R16  21623960.144      142016.8141       -485.125          21.794  
R15  21982944.224     3381684.1141      -3776.008          25.095  
R17  21694276.165      791195.0591       -798.195          22.156  
R03  20377331.667    -1794605.7341       2114.749          23.853  
R04  23305044.853    -2043290.1011       3978.885          20.974  
J01  37800444.297      702384.9481       -949.816          29.745  
E019114374238.555     1067749.6181      -1559.694          22.082  
> 2018  4 30 11 50 53.9997345  0 18
G02  23479386.759    -3501445.1601        897.800          26.040  
G03  23870545.465     3393743.0071      -3461.288          15.664  
G06  21169498.161      154758.3371       -271.691          28.635  
G09  23705412.285    -1251296.6231       1601.527          22.434  
G17  21416907.284     -751790.1891        693.896          24.874  
G19  21470994.340    -1052217.3131       1082.130          29.411  
G23  24806824.892     -298199.2531        275.189          22.285  
G28  21027488.872     1722998.0511      -2421.389          23.187  
G30  25394174.379     1173831.5671      -2319.998           7.000  
R02  21175696.071     1228117.4151      -1625.067          32.529  
R18  21552075.908     -397530.9611        543.335          21.879  
R16  21624055.478      142501.3251       -483.900          22.386  
R15  21983609.164     3385453.6981      -3776.739          25.142  
R17  21694548.676      791985.1721       -790.254          21.011  
R03  20376907.760    -1796719.2351       2111.952          22.034  
R04  23304202.436    -2047269.6081       3971.644          21.840  
J01  37800626.871      703331.5661       -948.677          29.243  
E019414167006.836     1069294.2301      -1551.812          23.047  
> 2018  4 30 11 50 54.9997345  0 18
G02  23479249.154    -3502341.9511        899.326          24.504  
G03  23871175.329     3397207.7021      -3462.622          15.403  
G06  21169547.627      155037.6481       -273.771          28.017  
G09  23705119.387    -1252897.7541       1606.564          20.517  
G17  21416797.560     -752479.7111        688.567          23.851  
G19  21470791.980    -1053296.9111       1081.513          28.647  
G23  24806670.499     -298469.9001        273.114          23.332  
G28  21027954.150     1725418.8211      -2421.308          22.863  
G30  25394615.074     1176149.4131      -2319.022           7.000  
R02  21176023.444     1229739.1741      -1625.386          31.187  
R18  21551956.891     -398075.5491        543.540          24.389  
R16  21624186.487      142991.5291       -488.678          24.391  
R15  21984299.286     3389228.1301      -3776.478          25.953  
R17  21694660.199      792779.4061       -796.211          22.239  
R03  20376496.745    -1798827.3011       2110.925          21.422  
R04  23303540.195    -2051237.7891       3970.345          22.695  
J01  37800816.339      704279.3061       -948.703          27.433  
E019713959751.140     1070850.4301      -1560.395          22.717  
> 2018  4 30 11 50 55.9997345  0 18
G02  23479045.295    -3503236.7911        899.217          23.873  
G03  23871833.973     3400702.7471      -3459.165          16.060  
G06  21169603.688      155317.4411       -274.025          27.847  
G09  23704804.305    -1254503.4861       1613.297          18.238  
G17  21416668.649     -753163.3921        688.225          22.831  
G19  21470579.727    -1054380.0421       1081.211          29.498  
G23  24806689.986     -298747.7361        275.694          20.846  
G28  21028426.923     1727843.9181      -2426.455          23.115  
G30  25395056.069     1178469.1421      -2318.047           7.000  
R02  21176324.136     1231359.8561      -1624.493          31.981  
R18  21551827.980     -398622.5521        547.982          25.954  
R16  21624252.741      143472.2791       -486.449          23.306  
R15  21985007.096     3393000.1141      -3771.671          26.927  
R17  21694840.674      793573.0621       -800.622          21.743  
R03  20376113.010    -1800941.3131       2109.002          20.603  
R04  23302750.841    -2055215.0241       3972.456          23.700  
J01  37800981.825      705232.5731       -950.103          27.004  
E010013752511.930     1072409.2221      -1551.752          22.456  
> 2018  4 30 11 50 56.9997345  0 18
G02  23478882.508    -3504134.0141        899.398          24.256  
G03  23872528.892     3404161.7861      -3461.667          16.020  
G06  21169649.557      155592.1161       -274.166          30.572  
G09  23704487.725    -1256116.9411       1611.841          16.471  
G17  21416541.837     -753852.2981        687.937          24.755  
G19  21470382.763    -1055461.5851       1080.832          29.933  
G23  24806671.399     -299019.7701        272.847          21.602  
G28  21028854.427     1730267.4981      -2421.785          24.057  
G30  25395497.663     1180788.5931      -2319.998           7.000  
R02  21176620.031     1232990.1991      -1626.649          34.830  
R18  21551743.438     -399168.4651        546.812          30.909  
R16  21624351.673      143950.4891       -484.518          21.468  
R15  21985722.401     3396772.0861      -3773.169          26.943  
R17  21695007.959      794367.5661       -799.138          23.370  
R03  20375782.339    -1803046.5201       2108.126          20.578  
R04  23301995.664    -2059193.2551       3973.669          21.536  
J01  37801160.501      706183.0931       -949.693          32.655  
E010313545252.630     1073968.2081      -1562.848          23.410  
> 2018  4 30 11 50 57.9997345  0 18
G02  23478701.133    -3505028.9961        897.345          23.508  
G03  23873193.832     3407625.5551      -3461.562          18.013  
G06  21169702.320      155866.8481       -275.714          31.797  
G09  23704181.037    -1257732.6761       1609.885          17.104  
G17  21416394.339     -754537.5451        687.569          22.342  
G19  21470178.305    -1056541.3431       1078.622          30.862  
G23  24806609.042     -299299.0851        273.965          21.367  
G28  21029321.504     1732691.5791      -2423.418          23.055  
G30  25395939.557     1183107.0001      -2319.022           7.000  
R02  21176920.423     1234617.7900      -1628.957          33.840  
R18  21551626.819     -399713.6301        544.741          30.840  
R16  21624429.619      144433.4271       -486.610          23.998  
R15  21986428.113     3400546.4651      -3775.214          27.916  
R17  21695134.171      795157.7531       -794.034          21.927  
R03  20375314.064    -1805157.0841       2108.983          22.738  
R04  23301242.585    -2063168.2551       3973.633          20.729  
J01  37801352.069      707133.8490       -950.967          34.090  
E010613338026.320     1075524.8901      -1559.414          21.616  
> 2018  4 30 11 50 58.9997345  0 18
G02  23478558.132    -3505924.1511        894.221          22.568  
G03  23873840.784     3411088.1541      -3459.618          17.702  
G06  21169754.484      156142.5441       -277.171          30.082  
G09  23703860.259    -1259351.2731       1609.217          14.576  
G17  21416259.732     -755228.6381        688.838          25.070  
G19  21469960.356    -1057620.9781       1077.785          32.009  
G23  24806522.402     -299575.2731        275.801          23.048  
G28  21029814.362     1735117.4551      -2426.546          20.364  
G30  25396378.753     1185423.8701      -2318.047           7.000  
R02  21177227.710     1236245.9631      -1626.051          32.626  
R18  21551517.695     -400258.8391        543.268          30.548  
R16  21624494.674      144917.9921       -487.466          23.689  
R15  21987142.818     3404318.8781      -3778.845          25.844  
R17  21695269.078      795952.1301       -796.601          23.838  
R03  20374933.327    -1807266.7411       2108.682          20.364  
R04  23300550.365    -2067142.8411       3975.204          21.387  
J01  37801530.745      708084.5441       -953.416          31.941  
E010913130756.830     1077083.5781      -1555.761          23.430  
> 2018  4 30 11 50 59.9997345  0 18
G02  23478325.793    -3506819.8401        892.371          21.461  
G03  23874506.323     3414547.1141      -3459.636          18.208  
G06  21169803.350      156418.7731       -275.525          27.467  
G09  23703556.569    -1260959.7171       1606.164          15.985  
G17  21416146.111     -755916.2301        690.154          24.935  
G19  21469757.696    -1058702.9301       1078.689          28.974  
G23  24806473.836     -299846.9891        274.333          22.792  
G28  21030251.760     1737539.1791      -2425.984          24.981  
G30  25396820.047     1187742.6241      -2317.071           7.000  
R02  21177540.694     1237875.2361      -1627.629          34.051  
R18  21551432.254     -400804.7691        545.390          27.960  
R16  21624595.104      145409.0081       -490.790          25.348  
R15  21987868.316     3408095.3961      -3778.513          25.740  
R17  21695441.458      796757.5261       -797.626          23.805  
R03  20374526.509    -1809379.0651       2108.641          21.684  
R04  23299756.214    -2071113.1571       3975.415          22.488  
J01  37801719.014      709034.3591       -946.645          31.445  
E011212923513.125     1078644.3641      -1558.949          24.315  
> 2018  4 30 11 51  0.9997345  0 18
G02  23478226.262    -3507716.6461        894.648          22.428  
G03  23875158.372     3418007.7651      -3460.239          19.428  
G06  21169852.516      156688.8721       -274.631          27.244  
G09  23703247.183    -1262566.3111       1604.510          16.116  
G17  21415993.516     -756603.4471        687.746          24.971  
G19  21469549.940    -1059784.7271       1081.729          28.862  
G23  24806440.858     -300119.8031        275.965          23.305  
G28  21030708.643     1739966.2311      -2423.412          27.487  
G30  25397260.143     1190060.1381      -2319.022           7.000  
R02  21177853.077     1239501.0881      -1627.715          32.669  
R18  21551339.618     -401348.4031        547.885          29.791  
R16  21624676.048      145902.6481       -495.833          29.591  
R15  21988588.117     3411877.3251      -3777.449          25.769  
R17  21695564.973      797560.9921       -796.304          23.766  
R03  20374218.622    -1811489.0591       2109.651          21.357  
R04  23299032.515    -2075086.1451       3974.236          23.633  
J01  37801897.991      709985.4811       -949.622          31.756  
E011512716268.220     1080209.7081      -1558.116          24.349  
> 2018  4 30 11 51  1.9997345  0 18
G02  23478014.609    -3508620.6051        901.822          23.700  
G03  23875818.215     3421463.5851      -3459.419          18.966  
G06  21169919.370      156959.3341       -274.892          31.011  
G09  23702952.188    -1264169.0421       1604.638          13.244  
G17  21415890.088     -757299.0881        691.406          23.380  
G19  21469355.674    -1060866.3601       1082.221          27.205  
G23  24806401.885     -300397.6721        279.224          26.973  
G28  21031162.829     1742391.6941      -2425.994          29.361  
G30  25397699.638     1192376.5791      -2317.071           7.000  
R02  21178144.476     1241130.8141      -1624.963          30.830  
R18  21551235.590     -401897.3391        545.124          29.061  
R16  21624785.473      146395.4271       -493.748          27.377  
R15  21989279.439     3415654.3111      -3775.030          25.127  
R17  21695692.984      798357.9841       -793.444          22.406  
R03  20373770.432    -1813594.0281       2109.309          21.715  
R04  23298310.915    -2079052.7321       3973.113          20.802  
J01  37802081.763      710936.6471       -949.523          31.321  
E011812509018.516     1081774.6311      -1561.572          24.184  
> 2018  4 30 11 51  2.9997345  0 18
G02  23477871.608    -3509520.9061        899.747          23.813  
G03  23876492.448     3424918.9831      -3458.624          18.090  
G06  21169956.844      157235.3681       -274.649          33.547  
G09  23702653.894    -1265766.1531       1603.676          15.691  
G17  21415755.781     -757997.6051        688.613          25.226  
G19  21469142.522    -1061944.7471       1079.714          28.764  
G23  24806327.837     -300673.3901        278.299          27.636  
G28  21031621.511     1744820.1841      -2428.195          33.111  
G30  25398137.635     1194690.5371      -2316.095           7.000  
R02  21178463.455     1242753.5151      -1629.454          28.201  
R18  21551142.355     -402449.0721        544.889          29.054  
R16  21624878.108      146888.6271       -493.290          23.995  
R15  21989997.142     3419433.1101      -3777.272          25.222  
R17  21695904.938      799153.8241       -798.928          23.382  
R03  20373333.035    -1815701.2021       2105.909          20.949  
R04  23297550.042    -2083018.4951       3974.514          23.299  
J01  37802248.748      711883.3991       -952.266          30.462  
E012112301773.610     1083332.6511      -1559.342          25.305  
> 2018  4 30 11 51  3.9997345  0 18
G02  23477678.242    -3510419.7591        891.141          22.802  
G03  23877191.264     3428374.3201      -3460.014          17.400  
G06  21170006.010      157510.9911       -276.205          31.792  
G09  23702335.215    -1267367.7271       1601.570          18.020  
G17  21415622.973     -758686.5631        685.926          26.237  
G19  21468934.166    -1063022.0251       1077.454          29.920  
G23  24806295.759     -300944.4511        272.940          25.227  
G28  21032083.791     1747247.4500      -2427.559          39.170  
G30  25398574.133     1197006.3501      -2314.144           7.000  
R02  21178764.147     1244386.4701      -1631.158          26.461  
R18  21550996.056     -402994.5371        545.463          28.798  
R16  21624966.247      147384.8671       -493.573          26.165  
R15  21990708.249     3423209.3811      -3778.576          24.691  
R17  21695999.972      799953.2601       -795.480          21.847  
R03  20372932.213    -1817804.2441       2103.861          22.154  
R04  23296832.339    -2086989.6121       3972.172          22.221  
J01  37802437.317      712836.0161       -951.899          30.292  
E012412094515.210     1084879.8641      -1561.397          26.953  
> 2018  4 30 11 51  4.9997345  0 18
G02  23477504.662    -3511308.7051        893.928          22.337  
G03  23877842.414     3431826.5091      -3461.966          17.657  
G06  21170068.067      157786.1721       -276.010          30.106  
G09  23702055.209    -1268966.3191       1603.866          16.647  
G17  21415494.662     -759372.3031        688.087          24.282  
G19  21468732.706    -1064101.6261       1077.598          31.056  
G23  24806200.425     -301212.6851        267.558          24.256  
G28  21032539.176     1749674.9531      -2428.066          37.008  
G30  25399007.933     1199321.8981      -2316.095           7.000  
R02  21179102.013     1246013.1371      -1629.210          25.785  
R18  21550943.292     -403538.4381        544.300          27.268  
R16  21625041.196      147880.4631       -493.479          24.588  
R15  21991427.751     3426987.3171      -3779.909          24.530  
R17  21696145.071      800750.4411       -798.639          22.954  
R03  20372568.564    -1819913.3261       2102.734          22.658  
R04  23296072.065    -2090964.5441       3971.931          20.430  
J01  37802621.090      713786.4431       -950.773          32.402  
E012711887274.805     1086420.5701      -1558.433          25.552  
> 2018  4 30 11 51  5.9997345  0 18
G02  23477317.591    -3512206.4661        898.976          23.964  
G03  23878477.974     3435283.2581      -3461.856          17.769  
G06  21170132.222      158061.1441       -275.845          29.737  
G09  23701730.833    -1270563.7971       1602.362          16.117  
G17  21415358.856     -760062.3751        687.412          24.727  
G19  21468531.245    -1065180.6471       1082.011          31.838  
G23  24806183.936     -301486.1501        274.765          25.558  
G28  21032998.158     1752102.8011      -2427.809          37.752  
G30  25399442.632     1201636.4031      -2315.120           7.000  
R02  21179382.918     1247645.8061      -1631.651          29.924  
R18  21550850.057     -404087.7551        544.281          24.544  
R16  21625174.004      148380.7811       -497.840          24.595  
R15  21992066.909     3430766.4101      -3788.086          22.830  
R17  21696371.714      801548.5791       -797.664          22.556  
R03  20372162.645    -1822020.0651       2104.675          21.176  
R04  23295316.588    -2094935.4011       3975.162          24.487  
J01  37802801.265      714737.2731       -952.031          32.893  
E013011680026.000     1087957.9481      -1560.212          28.724  
> 2018  4 30 11 51  6.9997345  0 18
G02  23477150.907    -3513106.1281        899.229          25.625  
G03  23879142.614     3438736.9561      -3461.507          17.580  
G06  21170173.294      158337.5031       -275.814          31.532  
G09  23701434.938    -1272165.5561       1602.118          14.927  
G17  21415244.035     -760748.8131        688.299          24.435  
G19  21468327.086    -1066260.2461       1081.506          29.841  
G23  24806130.273     -301761.7131        278.185          27.576  
G28  21033465.835     1754531.4051      -2429.223          37.593  
G30  25399880.029     1203950.3321      -2314.144           7.000  
R02  21179678.214     1249280.9991      -1634.411          29.432  
R18  21550753.524     -404634.7931        548.819          23.538  
R16  21625226.167      148879.4921       -502.392          22.432  
R15  21992805.897     3434547.8471      -3785.332          21.452  
R17  21696444.264      802339.8481       -796.649          23.980  
R03  20371810.989    -1824128.8281       2105.699          22.527  
R04  23294597.686    -2098906.9751       3973.368          23.420  
J01  37802981.141      715689.0061       -951.804          32.528  
E013311472780.195     1089513.2350      -1560.675          34.305  
> 2018  4 30 11 51  7.9997345  0 19
G02  23476988.719    -3513998.0491        893.482          25.879  
G03  23879788.067     3442200.6291      -3461.538          16.902  
G06  21170226.957      158615.7401       -275.242          31.334  
G09  23701118.357    -1273774.5261       1603.736          16.310  
G123608487757.600       -1977.093        3216.582           7.000  
G17  21415091.141     -761440.9161        687.330          25.142  
G19  21468115.433    -1067337.9531       1076.575          28.739  
G23  24806076.011     -302036.1921        278.913          25.881  
G28  21033927.215     1756960.2010      -2429.694          38.602  
G30  25400317.126     1206263.8751      -2314.144           7.000  
R02  21179993.895     1250916.5001      -1635.956          29.826  
R18  21550662.387     -405189.2621        550.384          22.271  
R16  21625320.902      149382.2361       -492.345          21.929  
R15  21993549.083     3438327.4751      -3777.496          21.884  
R17  21696684.098      803135.0141       -795.968          23.923  
R03  20371411.365    -1826233.8171       2104.848          23.586  
R04  23293842.808    -2102879.4631       3970.998          19.086  
J01  37803165.513      716641.2911       -951.488          31.545  
E013611265527.490     1091073.8871      -1561.050          32.852  
> 2018  4 30 11 51  8.9997345  0 19
G02  23476828.330    -3514894.1161        891.543          24.611  
G03  23880410.436     3445662.5351      -3462.179          18.036  
G06  21170277.922      158897.7421       -279.774          28.883  
G09  23700805.973    -1275373.5601       1604.725          15.338  
G123908279577.050         -44.9641       3218.227           7.000  
G17  21414958.333     -762125.4661        685.094          28.306  
G19  21467921.167    -1068417.1801       1079.596          27.847  
G23  24806028.344     -302311.4101        273.108          24.745  
G28  21034391.294     1759386.2441      -2429.993          37.060  
G30  25400753.924     1208574.9071      -2313.168           7.000  
R02  21180294.587     1252553.0750      -1636.348          35.788  
R18  21550479.214     -405740.6181        548.236          24.066  
R16  21625372.766      149876.7711       -491.391          22.955  
R15  21994249.098     3442097.5411      -3779.460          22.468  
R17  21696817.206      803926.0941       -795.887          24.010  
R03  20370988.358    -1828333.0811       2099.616          23.091  
R04  23293122.707    -2106846.6751       3971.173          19.089  
J01  37803346.888      717590.3351       -950.431          29.982  
E013911058288.280     1092635.1991      -1561.335          33.968  
> 2018  4 30 11 51  9.9997345  0 19
G02  23476642.159    -3515790.6981        895.971          24.743  
G03  23881098.759     3449125.2331      -3463.506          19.455  
G06  21170302.205      159168.1351       -274.903          26.846  
G09  23700526.867    -1276980.7561       1602.424          15.831  
G124208071422.570       -3258.4641       3217.832           7.000  
G17  21414853.405     -762811.2811        684.763          25.291  
G19  21467710.713    -1069496.2981       1080.129          29.909  
G23  24805970.484     -302580.5681        271.258          28.115  
G28  21034852.675     1761817.1710      -2435.355          35.175  
G30  25401190.122     1210886.2601      -2311.217           7.000  
R02  21180608.170     1254190.7660      -1637.639          36.240  
R18  21550434.245     -406288.7141        543.146          21.487  
R16  21625551.442      150372.8731       -498.291          22.325  
R15  21994887.656     3445884.2551      -3787.843          21.281  
R17  21696959.907      804728.7251       -798.298          24.261  
R03  20370600.727    -1830430.7931       2103.882          23.339  
R04  23292412.498    -2110814.8221       3972.125          18.374  
J01  37803529.761      718538.0661       -951.046          27.515  
E014210851041.880     1094198.9801      -1563.563          31.146  
> 2018  4 30 11 51 10.9997345  0 19
G02  23476502.755    -3516680.4911        892.329          25.250  
G03  23881788.282     3452592.4111      -3463.017          19.705  
G06  21170366.061      159446.2971       -275.013          29.269  
G09  23700212.684    -1278583.0011       1602.678          15.628  
G124507863268.390       -6476.2981       3217.832           7.000  
G17  21414711.604     -763495.6811        687.367          26.052  
G19  21467501.458    -1070573.6671       1077.158          29.852  
G23  24805933.909     -302855.4861        273.273          29.149  
G28  21035317.053     1764253.3881      -2431.671          34.392  
G30  25401628.718     1213197.4721      -2311.217           7.000  
R02  21180911.860     1255828.6670      -1639.277          34.993  
R18  21550342.508     -406828.1731        542.969          18.576  
R16  21625643.179      150871.5141       -505.082          20.415  
R15  21995628.443     3449669.0611      -3784.982          22.727  
R17  21697136.485      805529.6211       -794.918          25.251  
R03  20370195.107    -1832530.1851       2101.797          23.754  
R04  23291657.621    -2114781.8851       3972.604          15.449  
J01  37803706.339      719490.2951       -950.934          25.293  
E014510643803.270     1095768.5831      -1565.667          28.312  
> 2018  4 30 11 51 11.9997345  0 19
G02  23476303.693    -3517571.5661        895.371          23.674  
G03  23882451.423     3456060.6561      -3461.768          21.905  
G06  21170406.233      159719.2531       -276.611          33.100  
G09  23699914.990    -1280183.5371       1602.600          16.893  
G124807655113.920       -9694.1321       3217.832           7.000  
G17  21414593.785     -764181.7471        684.178          23.508  
G19  21467298.798    -1071652.0831       1077.485          27.904  
G23  24805870.054     -303130.1180        273.384          33.769  
G28  21035783.230     1766685.0101      -2435.536          32.071  
G30  25402068.214     1215508.8551      -2311.217           7.000  
R02  21181216.149     1257468.4481      -1642.362          33.322  
R18  21550221.392     -407367.4921        544.096          17.533  
R16  21625654.271      151370.0071       -504.131          20.874  
R15  21996320.064     3453450.3861      -3775.697          22.998  
R17  21697283.083      806326.2101       -791.673          25.417  
R03  20369830.860    -1834631.6731       2100.085          23.653  
R04  23290887.454    -2118757.6471       3974.954          21.367  
J01  37803880.818      720443.0551       -950.502          28.325  
E014810436572.160     1097342.8491      -1563.548          26.376  
> 2018  4 30 11 51 12.9997345  0 19
G02  23476146.902    -3518467.0001        894.335          24.364  
G03  23883113.964     3459525.2251      -3461.899          19.714  
G06  21170487.177      159997.5981       -278.199          30.377  
G09  23699602.906    -1281778.1501       1600.797          15.773  
G125107446959.740      -12911.9671       3217.832           7.000  
G17  21414459.478     -764869.7181        686.379          23.551  
G19  21467091.941    -1072726.3011       1076.543          26.187  
G23  24805818.189     -303395.8481        270.001          30.803  
G28  21036259.900     1769117.2891      -2436.826          30.194  
G30  25402507.710     1217820.0671      -2311.217           7.000  
R02  21181563.609     1259108.6371      -1642.674          30.902  
R18  21550095.180     -407913.0171        546.508          19.545  
R16  21625805.966      151870.6041       -501.980          21.827  
R15  21997016.782     3457221.2291      -3776.139          23.511  
R17  21697364.927      807115.3671       -789.060          23.209  
R03  20369387.466    -1836733.1681       2101.471          28.745  
R04  23290137.074    -2122735.3101       3972.829          19.668  
J01  37804074.784      721395.7711       -953.597          27.616  
E015110229316.760     1098921.4051      -1566.795          26.577  
> 2018  4 30 11 51 13.9997345  0 19
G02  23475958.332    -3519352.7441        891.018          24.994  
G03  23883768.711     3462983.5901      -3461.674          20.910  
G06  21170536.343      160277.1141       -279.328          28.273  
G09  23699269.237    -1283380.7431       1603.839          17.732  
G125407238805.266      -16129.8011       3217.832           7.000  
G17  21414323.073     -765556.5361        688.153          23.570  
G19  21466887.783    -1073801.1091       1076.102          27.675  
G23  24805765.126     -303659.6901        270.798          29.139  
G28  21036707.790     1771551.7761      -2434.022          31.029  
G30  25402947.206     1220131.4501      -2311.217           7.000  
R02  21181846.913     1260747.4101      -1637.509          30.430  
R18  21550040.318     -408456.0031        546.677          19.882  
R16  21625846.138      152366.2291       -500.815          21.009  
R15  21997760.267     3460995.9231      -3781.962          25.008  
R17  21697596.966      807905.5930       -790.204          31.076  
R03  20369025.917    -1838833.7421       2100.525          27.172  
R04  23289405.880    -2126712.2861       3972.778          19.000  
J01  37804250.462      722348.1061       -955.152          28.342  
E015410022091.940     1100505.5311      -1568.851          25.550  
> 2018  4 30 11 51 14.9997345  0 19
G02  23475811.434    -3520240.4451        892.115          25.654  
G03  23884433.651     3466446.6481      -3457.387          21.341  
G06  21170566.921      160555.6181       -278.046          26.538  
G09  23698994.927    -1284982.5551       1601.171          18.264  
G125707030651.086      -19347.6351       3217.832           7.000  
G17  21414197.759     -766238.4611        689.177          23.926  
G19  21466687.821    -1074880.3241       1074.866          27.484  
G23  24805725.853     -303928.1081        273.273          29.092  
G28  21037177.265     1773989.5321      -2434.947          29.486  
G30  25403387.001     1222442.6611      -2311.217           7.000  
R02  21182168.890     1262377.0161      -1637.204          29.358  
R18  21549939.887     -408998.0801        546.910          19.131  
R16  21625948.068      152867.2991       -503.841          24.246  
R15  21998507.950     3464774.2281      -3787.636          23.492  
R17  21697740.867      808695.6740       -790.407          33.325  
R03  20368664.667    -1840930.4681       2100.393          22.873  
R04  23288667.491    -2130690.2711       3974.462          15.393  
J01  37804439.931      723301.3621       -951.512          26.456  
E015709814847.930     1102097.8371      -1574.355          24.794  
> 2018  4 30 11 51 15.9997345  0 19
G02  23475614.470    -3521129.6271        890.171          26.674  
G03  23885029.938     3469908.5981      -3462.149          20.800  
G06  21170632.276      160836.7181       -278.127          27.671  
G09  23698667.854    -1286585.3821       1600.850          19.670  
G126006822496.620      -22565.4691       3217.832           7.000  
G17  21414050.261     -766927.0681        684.460          23.977  
G19  21466481.264    -1075959.1011       1075.127          26.627  
G23  24805669.792     -304202.3791        270.761          27.126  
G28  21037632.650     1776421.0671      -2433.037          31.534  
G30  25403826.497     1224754.0441      -2311.217           7.000  
R02  21182472.280     1264015.8461      -1641.294          28.955  
R18  21549812.175     -409538.9751        548.124          19.777  
R16  21626057.792      153367.0361       -503.197          22.335  
R15  21999160.898     3468563.1571      -3785.113          22.672  
R17  21697840.398      809485.2431       -789.894          30.789  
R03  20368259.947    -1843033.9731       2098.728          22.418  
R04  23287944.092    -2134666.9171       3972.984          14.746  
J01  37804638.094      724252.8001       -946.612          22.642  
E016009607595.830     1103675.6461      -1568.756          25.198  
> 2018  4 30 11 51 16.9997345  0 19
G02  23475467.272    -3522022.3511        891.559          24.710  
G03  23885699.974     3473382.2691      -3468.773          20.476  
G06  21170668.251      161111.4501       -278.982          28.287  
G09  23698350.074    -1288181.2611       1603.712          18.259  
G126306614342.440      -25783.3031       3217.832           7.000  
G17  21413945.934     -767620.8291        685.992          24.712  
G19  21466277.106    -1077039.6281       1080.640          25.868  
G23  24805610.433     -304471.5971        269.768          26.487  
G28  21038094.930     1778854.9330      -2435.741          35.760  
G30  25404267.192     1227064.2951      -2311.217           7.000  
R02  21182769.674     1265658.6231      -1642.813          27.739  
R18  21549711.445     -410083.4781        547.768          18.808  
R16  21626115.652      153873.5481       -502.040          21.166  
R15  21999856.716     3472348.1531      -3780.787          20.982  
R17  21698033.764      810275.5781       -789.321          28.319  
R03  20367862.122    -1845136.3821       2098.029          25.595  
R04  23287229.686    -2138634.8661       3972.780          13.481  
J01  37804811.973      725203.7041       -943.545          20.545  
E016309400333.234     1105239.9981      -1564.960          30.171  
> 2018  4 30 11 51 17.9997345  0 19
G02  23475313.479    -3522910.9451        891.591          23.302  
G03  23886385.899     3476859.4971      -3467.232          19.963  
G06  21170742.300      161391.2171       -281.128          29.603  
G09  23698071.566    -1289782.9071       1603.676          17.661  
G126606406187.960      -29001.1371       3217.832           7.000  
G17  21413818.522     -768314.2811        687.707          23.482  
G19  21466080.442    -1078126.1661       1077.558          24.728  
G23  24805565.165     -304744.0271        270.620          29.309  
G28  21038557.210     1781288.7481      -2434.542          35.485  
G30  25404705.488     1229374.6881      -2310.242           7.000  
R02  21183113.536     1267294.5631      -1639.737          25.026  
R18  21549604.120     -410636.5071        548.915          17.385  
R16  21626221.478      154371.2541       -501.687          20.182  
R15  22000608.895     3476130.6271      -3784.501          20.639  
R17  21698202.247      811065.3981       -791.205          30.068  
R03  20367437.916    -1847232.4651       2096.552          31.764  
R04  23286513.182    -2142606.0341       3973.930          13.927  
J01  37804989.151      726159.2621       -957.748          19.920  
E016609193084.734     1106803.7881      -1565.032          36.937  
> 2018  4 30 11 51 18.9997345  0 18
G02  23475135.102    -3523807.7971        890.018          23.439  
G03  23887064.329     3480323.2971      -3464.959          20.557  
G06  21170809.753      161669.4311       -280.043          27.362  
G09  23697777.470    -1291384.3781       1604.784          19.137  
G17  21413705.500     -768997.3171        685.863          21.895  
G19  21465864.891    -1079207.2021       1077.411          22.469  
G23  24805520.196     -305016.9541        271.183          27.305  
G28  21039023.687     1783724.7721      -2433.923          33.896  
G30  25405142.886     1231684.9241      -2310.242           7.000  
R02  21183433.114     1268929.2421      -1643.219          24.380  
R18  21549536.067     -411190.4621        550.465          18.409  
R16  21626354.586      154870.3831       -502.365          21.023  
R15  22001320.902     3479915.4531      -3784.269          23.112  
R17  21698347.047      811855.0460       -789.713          32.681  
R03  20367053.882    -1849328.6831       2095.890          35.017  
R04  23285774.194    -2146611.3741       3975.595          13.390  
J01  37805148.041      727119.9621       -955.534          21.193  
E016908985839.230     1108368.2050      -1564.744          38.681  
> 2018  4 30 11 51 19.9997345  0 18
G02  23474941.736    -3524698.7221        892.902          22.742  
G03  23887737.364     3483788.0571      -3464.908          19.626  
G06  21170837.334      161945.6941       -275.638          25.420  
G09  23697471.682    -1292993.4641       1606.038          18.773  
G17  21413558.002     -769692.1591        687.918          23.938  
G19  21465667.328    -1080284.3611       1078.601          27.232  
G23  24805466.233     -305292.4581        269.010          24.842  
G28  21039486.866     1786159.9881      -2435.890          36.312  
G30  25405579.983     1233994.5651      -2310.242           7.000  
R02  21183687.338     1270568.9511      -1645.589          24.931  
R18  21549405.657     -411737.5231        551.161          17.479  
R16  21626433.731      155378.4121       -504.729          22.080  
R15  22001989.140     3483698.9231      -3779.255          20.421  
R17  21698469.962      812643.8711       -790.942          31.475  
R03  20366653.959    -1851424.4081       2095.174          34.135  
R04  23284969.251    -2150588.2591       3972.918          13.238  
J01  37805328.516      728078.2321       -951.726          27.490  
E017208778597.920     1109932.5731      -1564.964          37.078  
> 2018  4 30 11 51 20.9997345  0 18
G02  23474802.033    -3525586.4091        890.536          23.630  
G03  23888417.892     3487253.4051      -3464.741          18.246  
G06  21170879.005      162223.6081       -277.143          28.935  
G09  23697170.690    -1294602.8651       1606.254          17.956  
G17  21413403.010     -770381.4471        686.555          22.920  
G19  21465455.674    -1081360.9871       1076.535          27.838  
G23  24805417.367     -305567.0341        271.686          26.962  
G28  21039944.350     1788595.5151      -2436.816          36.924  
G30  25406016.781     1236301.6941      -2309.266           7.000  
R02  21184017.110     1272210.6741      -1642.468          24.455  
R18  21549292.335     -412285.6341        551.551          18.589  
R16  21626507.480      155880.0841       -501.878          25.963  
R15  22002631.895     3487480.9731      -3780.187          20.583  
R17  21698633.049      813432.6521       -791.628          32.978  
R03  20366282.816    -1853519.3571       2095.152          32.942  
R04  23284221.269    -2154562.3241       3974.146          12.424  
J01  37805523.681      729029.9651       -949.948          28.310  
E017508571349.414     1111497.0341      -1565.006          37.326  
> 2018  4 30 11 51 21.9997345  0 18
G02  23474634.449    -3526481.2951        890.151          23.708  
G03  23889079.235     3490721.5391      -3463.784          19.710  
G06  21170932.668      162502.0921       -280.795          36.442  
G09  23696876.294    -1296205.9541       1605.763          17.234  
G17  21413266.604     -771072.3441        685.349          22.664  
G19  21465257.511    -1082442.5951       1078.303          27.200  
G23  24805376.295     -305828.0811        264.958          27.266  
G28  21040405.730     1791033.8461      -2435.274          38.440  
G30  25406453.878     1238608.3791      -2307.315           7.000  
R02  21184339.387     1273848.3101      -1641.422          23.774  
R18  21549224.882     -412830.9621        552.573          19.488  
R16  21626602.215      156382.8471       -503.061          28.810  
R15  22003384.974     3491263.7691      -3782.246          21.418  
R17  21698785.943      814221.8851       -786.762          32.034  
R03  20365884.991    -1855614.2891       2094.996          31.971  
R04  23283433.714    -2158539.2601       3977.558          12.323  
J01  37805701.757      729979.8911       -949.291          28.369  
E017808364104.810     1113062.2831      -1566.186          36.651  
> 2018  4 30 11 51 22.9997345  0 18
G02  23474406.906    -3527375.2571        893.468          22.229  
G03  23889712.696     3494191.6341      -3463.669          18.609  
G06  21170980.036      162780.3931       -278.037          39.574  
G09  23696550.420    -1297812.9731       1605.615          19.676  
G17  21413168.872     -771759.6041        691.062          22.943  
G19  21465035.365    -1083524.6381       1078.957          25.643  
G23  24805318.435     -306087.9711        264.725          28.713  
G28  21040873.706     1793468.7071      -2437.238          34.658  
G30  25406892.474     1240914.5031      -2306.339           7.000  
R02  21184610.999     1275496.9431      -1645.068          28.051  
R18  21549112.460     -413378.0141        551.881          19.107  
R16  21626670.568      156885.8211       -502.059          31.438  
R15  22004089.486     3495042.1341      -3783.192          21.666  
R17  21698949.330      815010.5041       -788.730          30.040  
R03  20365494.961    -1857708.7520       2093.916          35.500  
R04  23282688.430    -2162515.9681       3975.538          11.523  
J01  37805876.836      730931.1691       -951.858          28.288  
E018108156861.700     1114627.1301      -1565.869          35.151  
> 2018  4 30 11 51 23.9997345  0 18
G02  23474240.521    -3528266.5221        895.900          22.937  
G03  23890315.279     3497655.8581      -3464.918          19.040  
G06  21171037.296      163059.0131       -278.615          39.772  
G09  23696246.730    -1299420.2881       1604.880          19.260  
G17  21413038.762     -772447.3481        692.585          22.563  
G19  21464821.913    -1084603.0641       1078.872          24.848  
G23  24805256.678     -306349.3801        268.302          27.751  
G28  21041341.083     1795906.8551      -2437.890          33.498  
G30  25407330.771     1243221.0081      -2306.339           7.000  
R02  21184899.999     1277144.4051      -1648.265          30.153  
R18  21549002.436     -413929.1741        552.118          21.198  
R16  21626785.388      157388.4481       -503.825          32.068  
R15  22004840.766     3498820.8671      -3783.999          24.028  
R17  21699073.744      815798.1731       -794.766          28.002  
R03  20365104.931    -1859802.0061       2094.533          33.747  
R04  23281858.305    -2166494.5461       3974.514          11.402  
J01  37806056.112      731882.6291       -951.402          33.156  
E018407949618.000     1116192.2671      -1565.317          36.258  
> 2018  4 30 11 51 24.9997345  0 18
G02  23474093.623    -3529156.0191        890.980          21.816  
G03  23890994.609     3501118.8521      -3465.808          17.501  
G06  21171086.162      163337.5970       -280.380          41.265  
G09  23695910.363    -1301021.8741       1604.504          19.202  
G17  21412891.863     -773137.8311        691.461          24.905  
G19  21464599.767    -1085679.8971       1078.511          27.754  
G23  24805200.317     -306623.6371        269.662          27.529  
G28  21041802.463     1798342.6761      -2435.731          37.959  
G30  25407769.067     1245526.3811      -2306.339           7.000  
R02  21185238.165     1278793.0531      -1645.144          31.626  
R18  21548906.802     -414486.4821        555.036          22.942  
R16  21626874.726      157892.2441       -505.452          32.208  
R15  22005523.093     3502609.5241      -3787.394          24.069  
R17  21699204.753      816592.2421       -796.953          27.829  
R03  20364701.111    -1861895.5431       2093.321          35.425  
R04  23281174.478    -2170472.6601       3975.447          10.917  
J01  37806238.985      732834.3581       -952.152          31.926  
E018707742373.990     1117757.3041      -1564.820          36.322  
> 2018  4 30 11 51 25.9997345  0 18
G02  23473899.358    -3530045.8691        888.866          24.098  
G03  23891702.718     3504588.0331      -3465.624          18.210  
G06  21171144.622      163616.3680       -280.800          41.100  
G09  23695604.275    -1302627.9831       1603.347          23.890  
G17  21412744.665     -773827.0541        684.934          26.100  
G19  21464407.600    -1086756.5270       1075.628          32.386  
G23  24805157.147     -306898.7571        269.847          25.349  
G28  21042269.540     1800781.2961      -2436.649          37.752  
G30  25408208.263     1247830.3631      -2305.364           7.000  
R02  21185542.454     1280441.8951      -1648.709          34.022  
R18  21548833.953     -415039.1241        556.263          22.580  
R16  21626978.454      158396.8671       -505.296          34.220  
R15  22006251.589     3506395.8991      -3788.557          24.063  
R17  21699373.236      817380.6511       -789.988          29.442  
R03  20364315.278    -1863987.9631       2092.729          35.850  
R04  23280534.721    -2174451.1171       3979.574          12.283  
J01  37806408.968      733785.7891       -951.977          33.092  
E019007535135.984     1119322.9020      -1565.943          37.903  
> 2018  4 30 11 51 26.9997345  0 18
G02  23473727.876    -3530939.2681        890.125          24.593  
G03  23892366.759     3508055.2591      -3464.749          18.593  
G06  21171196.785      163895.3020       -280.478          40.993  
G09  23695277.801    -1304232.8271       1600.930          23.334  
G17  21412651.730     -774514.2401        687.809          26.289  
G19  21464194.447    -1087833.5271       1077.343          34.252  
G23  24805106.182     -307169.0621        269.379          25.838  
G28  21042725.824     1803218.0721      -2439.414          38.380  
G30  25408648.059     1250134.3121      -2303.412           7.000  
R02  21185887.515     1282089.6471      -1645.338          30.772  
R18  21548718.832     -415595.1751        552.473          23.019  
R16  21627070.191      158902.2241       -505.906          31.974  
R15  22006958.500     3510188.4431      -3788.678          22.656  
R17  21699525.231      818168.4931       -787.493          27.503  
R03  20363924.049    -1866080.0880       2091.471          36.703  
R04  23279769.951    -2178429.5681       3979.410          11.423  
J01  37806598.736      734736.8761       -950.644          34.122  
E019307327893.170     1120889.1131      -1566.673          36.636  
> 2018  4 30 11 51 27.9997345  0 18
G02  23473580.378    -3531825.9861        892.522          26.339  
G03  23893027.801     3511521.7201      -3464.732          17.107  
G06  21171248.650      164174.6630       -279.741          41.288  
G09  23695001.092    -1305836.8011       1607.013          21.239  
G17  21412471.854     -775198.6571        688.216          27.014  
G19  21463982.194    -1088909.5931       1074.485          35.271  
G23  24805038.729     -307438.0661        267.309          27.743  
G28  21043195.299     1805655.7791      -2440.740          36.248  
G30  25409087.255     1252437.3481      -2304.388           7.000  
R02  21186131.846     1283733.3481      -1650.383          29.520  
R18  21548551.248     -416147.8271        548.782          23.730  
R16  21627156.531      159409.4831       -511.480          30.103  
R15  22007671.106     3513975.5331      -3786.425          20.739  
R17  21699657.740      818961.6581       -790.034          26.263  
R03  20363536.717    -1868171.5351       2091.978          33.225  
R04  23279178.460    -2182406.5161       3979.578          10.761  
J01  37806782.809      735689.3911       -954.050          32.308  
E019607120650.370     1122455.6121      -1572.014          34.014  
> 2018  4 30 11 51 28.9997345  0 18
G02  23473395.706    -3532714.1511        889.006          28.451  
G03  23893670.556     3514991.6151      -3464.101          19.425  
G06  21171300.214      164454.2280       -279.386          41.145  
G09  23694673.719    -1307440.9871       1602.362          21.231  
G17  21412336.348     -775881.5521        685.350          29.073  
G19  21463785.830    -1089986.0260       1077.114          38.792  
G23  24804997.657     -307709.0491        265.731          25.805  
G28  21043662.376     1808094.5621      -2436.056          35.844  
G30  25409527.050     1254741.2821      -2302.437           7.000  
R02  21186473.010     1285378.8191      -1650.764          27.573  
R18  21548415.143     -416696.8261        548.168          26.172  
R16  21627244.070      159916.6671       -510.047          30.881  
R15  22008344.440     3517760.8281      -3787.834          19.709  
R17  21699839.414      819752.0501       -792.397          24.842  
R03  20363138.892    -1870262.5991       2089.192          34.080  
R04  23278357.928    -2186380.9911       3980.687           9.901  
J01  37806956.689      736640.6771       -952.036          35.178  
E019906913397.370     1124022.4191      -1565.808          35.323  
> 2018  4 30 11 51 29.9997345  0 18
G02  23473235.317    -3533601.8011        887.155          27.328  
G03  23894335.196     3518454.6101      -3464.913          18.774  
G06  21171354.176      164733.6920       -280.230          42.811  
G09  23694376.924    -1309042.1961       1600.599          24.190  
G17  21412200.542     -776566.4681        683.517          31.746  
G19  21463576.875    -1091062.6471       1078.146          37.726  
G23  24804936.500     -307977.9991        268.932          27.031  
G28  21044123.756     1810533.2821      -2440.081          37.560  
G30  25409965.347     1257045.0991      -2304.388           7.000  
R02  21186775.501     1287027.1721      -1647.614          26.165  
R18  21548336.597     -417246.4691        550.137          26.992  
R16  21627361.589      160424.5911       -508.178          29.048  
R15  22009033.663     3521543.7501      -3786.366          21.411  
R17  21700004.599      820541.1091       -792.854          24.802  
R03  20362746.464    -1872352.7900       2089.397          35.981  
R04  23277580.267    -2190365.0201       3974.525           9.164  
J01  37807146.157      737592.1590       -951.341          35.146  
E010206706168.050     1125588.5581      -1569.717          32.992  
> 2018  4 30 11 51 30.9997345  0 18
G02  23473082.123    -3534494.0311        887.784          25.851  
G03  23894998.637     3521914.4911      -3465.944          18.186  
G06  21171409.039      165013.3090       -280.210          41.847  
G09  23694070.536    -1310642.5981       1600.295          23.285  
G17  21412076.428     -777251.4211        683.641          36.287  
G19  21463376.913    -1092139.3260       1077.196          41.029  
G23  24804898.126     -308243.0841        268.639          26.219  
G28  21044580.340     1812972.3801      -2440.126          37.093  
G30  25410404.843     1259348.2961      -2303.412           7.000  
R02  21187106.771     1288678.3821      -1647.942          27.286  
R18  21548230.171     -417796.0631        550.867          30.657  
R16  21627486.902      160936.8901       -510.814          26.486  
R15  22009807.128     3525332.6571      -3789.231          23.115  
R17  21700126.315      821334.9271       -797.213          25.440  
R03  20362370.524    -1874442.5650       2089.638          36.885  
R04  23276916.826    -2194340.9761       3976.770          10.312  
J01  37807320.936      738543.4610       -949.796          34.445  
E010506498929.140     1127159.5071      -1572.010          32.547  
> 2018  4 30 11 51 31.9997345  0 18
G02  23472907.045    -3535381.2341        886.689          26.340  
G03  23895642.291     3525380.5131      -3465.742          16.783  
G06  21171460.003      165293.5430       -279.461          42.129  
G09  23693756.354    -1312239.3231       1602.475          24.103  
G17  21411937.324     -777934.9320        684.845          41.395  
G19  21463168.258    -1093215.3230       1076.983          40.702  
G23  24804848.661     -308513.1511        266.363          26.710  
G28  21045050.115     1815411.6381      -2440.106          36.208  
G30  25410844.638     1261651.8751      -2303.412           7.000  
R02  21187396.371     1290332.2141      -1654.899          32.837  
R18  21548116.849     -418344.9151        548.315          36.767  
R16  21627562.750      161450.4751       -513.392          24.596  
R15  22010567.401     3529117.1881      -3788.503          22.408  
R17  21700254.327      822130.8441       -792.060          25.882  
R03  20361974.798    -1876531.2261       2086.051          35.078  
R04  23276105.288    -2198316.3761       3975.721          10.664  
J01  37807504.409      739494.5431       -951.549          34.877  
E010806291685.734     1128732.7081      -1574.802          29.836  
> 2018  4 30 11 51 32.9997345  0 18
G02  23472744.557    -3536272.5541        889.198          25.566  
G03  23896312.927     3528845.3531      -3468.954          17.442  
G06  21171518.463      165573.8590       -279.662          41.860  
G09  23693482.044    -1313838.1831       1604.134          22.083  
G17  21411812.910     -778618.8631        682.676          38.332  
G19  21462964.999    -1094291.0951       1075.800          41.542  
G23  24804787.203     -308781.9041        265.813          25.623  
G28  21045526.485     1817852.7271      -2443.510          35.230  
G30  25411285.333     1263955.2811      -2303.412           7.000  
R02  21187690.467     1291986.7991      -1656.097          34.809  
R18  21548014.320     -418893.7441        549.512          36.508  
R16  21627684.765      161967.4381       -514.773          23.159  
R15  22011163.389     3532907.2511      -3787.559          20.046  
R17  21700393.730      822923.3721       -786.889          27.800  
R03  20361570.678    -1878620.2320       2089.222          33.063  
R04  23275415.465    -2202298.3201       3976.194          11.355  
J01  37807687.583      740446.2520       -951.604          35.215  
E011106084429.734     1130302.4681      -1572.438          29.910  
> 2018  4 30 11 51 33.9997345  0 18
G02  23472552.690    -3537160.0931        886.998          33.844  
G03  23896970.971     3532318.0431      -3467.732          15.211  
G06  21171567.029      165854.8160       -281.266          39.262  
G09  23693165.163    -1315446.8931       1601.818          20.522  
G17  21411677.404     -779302.4651        684.889          35.665  
G19  21462759.041    -1095367.2371       1075.570          39.940  
G23  24804745.832     -309045.8251        265.848          27.787  
G28  21045969.878     1820294.2691      -2440.678          37.538  
G30  25411724.529     1266258.0931      -2303.412           7.000  
R02  21188025.635     1293641.7631      -1652.509          33.127  
R18  21547926.481     -419441.6091        551.507          33.482  
R16  21627771.106      162481.6171       -518.124          22.293  
R15  22011916.168     3536697.1001      -3787.471          20.428  
R17  21700544.825      823714.9141       -789.191          27.156  
R03  20361188.443    -1880708.0721       2089.638          34.302  
R04  23274651.894    -2206276.8651       3976.269          11.423  
J01  37807869.257      741397.7461       -954.550          31.489  
E011405877202.516     1131870.5611      -1572.869          28.679  
> 2018  4 30 11 51 34.9997345  0 18
G02  23472378.211    -3538047.3900        886.852          33.694  
G03  23897635.611     3535790.3901      -3467.013          16.116  
G06  21171626.988      166135.7440       -279.857          41.032  
G09  23692841.987    -1317055.2011       1602.812          22.548  
G17  21411544.896     -779981.0251        681.998          37.157  
G19  21462552.784    -1096443.0191       1075.188          39.194  
G23  24804698.465     -309309.6491        267.755          28.400  
G28  21046440.852     1822735.2961      -2440.712          37.948  
G30  25412164.325     1268560.3151      -2302.437           7.000  
R02  21188306.840     1295298.0311      -1653.784          32.625  
R18  21547816.757     -419984.8391        544.578          32.136  
R16  21627889.823      163004.6131       -520.297          21.536  
R15  22012591.300     3540489.8861      -3786.382          20.204  
R17  21700704.015      824504.9161       -791.696          25.843  
R03  20360794.815    -1882794.0161       2083.908          34.956  
R04  23273922.199    -2210255.4521       3975.203          11.453  
J01  37808038.639      742349.1001       -954.924          32.082  
E011705669949.220     1133441.5451      -1573.388          26.369  
> 2018  4 30 11 51 35.9997345  0 18
G02  23472261.891    -3538942.6451        889.454          29.832  
G03  23898275.368     3539258.7681      -3467.420          16.631  
G06  21171675.554      166416.6640       -281.188          41.496  
G09  23692536.498    -1318656.1571       1603.619          22.157  
G17  21411430.975     -780672.0971        688.298          34.628  
G19  21462351.923    -1097519.3081       1077.427          35.777  
G23  24804645.102     -309580.6631        266.443          26.067  
G28  21046902.233     1825176.6480      -2441.576          36.283  
G30  25412603.521     1270862.1511      -2302.437           7.000  
R02  21188607.532     1296953.2771      -1655.376          29.860  
R18  21547716.027     -420533.7241        548.349          29.654  
R16  21627978.862      163525.8381       -516.029          20.161  
R15  22013306.005     3544278.0311      -3785.646          18.607  
R17  21700856.909      825303.9461       -793.899          23.151  
R03  20360402.687    -1884882.0661       2087.496          34.815  
R04  23273221.884    -2214228.9401       3977.196          10.669  
J01  37808225.410      743299.7991       -953.352          31.077  
E012005462722.900     1135019.3451      -1574.590          25.027  
> 2018  4 30 11 51 36.9997345  0 18
G02  23472045.741    -3539835.0531        886.391          30.099  
G03  23898932.513     3542720.6611      -3469.120          17.053  
G06  21171726.219      166697.5200       -280.324          41.904  
G09  23692214.221    -1320255.0221       1597.448          28.108  
G17  21411302.064     -781358.9471        684.523          34.086  
G19  21462149.563    -1098595.1151       1075.125          38.289  
G23  24804642.703     -309847.3341        266.467          22.235  
G28  21047372.307     1827618.9231      -2443.108          33.198  
G30  25413040.918     1273163.3971      -2301.461           7.000  
R02  21188937.304     1298610.9631      -1659.131          30.970  
R18  21547602.405     -421083.8291        552.726          30.624  
R16  21628086.787      164045.5581       -516.937          18.831  
R15  22014018.312     3548058.4831      -3786.416          19.604  
R17  21700979.824      826094.2271       -791.658          25.465  
R03  20360031.843    -1886967.7031       2084.502          33.279  
R04  23272499.984    -2218208.0621       3977.759          10.974  
J01  37808408.883      744251.0261       -950.878          31.921  
E012305255493.880     1136607.5491      -1574.063          23.519  
> 2018  4 30 11 51 37.9997345  0 18
G02  23471894.046    -3540721.8371        887.339          30.746  
G03  23899617.839     3546184.8791      -3468.267          17.438  
G06  21171782.280      166978.6130       -279.354          38.930  
G09  23691914.729    -1321848.4451       1598.004          28.121  
G17  21411159.663     -782042.3991        682.969          38.145  
G19  21461942.406    -1099670.8540       1076.189          41.592  
G23  24804572.252     -310111.3931        265.802          21.692  
G28  21047837.585     1830060.5631      -2443.368          34.380  
G30  25413478.315     1275465.0241      -2301.461           7.000  
R02  21189246.990     1300268.5321      -1657.073          29.621  
R18  21547498.377     -421633.4160        549.673          36.566  
R16  21628144.947      164565.0741       -519.114          18.860  
R15  22014711.732     3551837.1021      -3784.078          19.565  
R17  21701143.811      826883.5471       -789.571          25.732  
R03  20359642.413    -1889052.8631       2083.839          33.832  
R04  23271822.153    -2222188.8451       3975.306          11.276  
J01  37808594.455      745202.5860       -952.682          32.284  
E012605048236.984     1138183.7081      -1569.978          22.772  
> 2018  4 30 11 51 38.9997345  0 18
G02  23471735.755    -3541608.8431        887.798          27.668  
G03  23900290.273     3549651.9741      -3469.840          16.571  
G06  21171837.142      167259.9370       -280.722          40.805  
G09  23691601.446    -1323451.3351       1600.065          28.692  
G17  21411036.748     -782725.8341        686.085          35.705  
G19  21461739.747    -1100746.6390       1076.132          41.596  
G23  24804494.006     -310373.7391        265.284          21.365  
G28  21048293.570     1832502.8040      -2442.658          36.466  
G30  25413916.612     1277765.5191      -2301.461           7.000  
R02  21189561.772     1301927.2081      -1657.904          30.196  
R18  21547404.842     -422183.0140        550.097          34.535  
R16  21628225.291      165091.7591       -519.326          18.869  
R15  22015397.657     3555616.3001      -3783.024          19.653  
R17  21701285.912      827672.1960       -789.239          29.465  
R03  20359241.890    -1891138.1901       2086.840          33.291  
R04  23271078.368    -2226168.2711       3977.210          11.250  
J01  37808774.630      746153.5361       -947.558          31.599  
E012904841013.960     1139753.2411      -1571.402          22.119  
> 2018  4 30 11 51 39.9997345  0 18
G02  23471539.691    -3542496.5461        888.173          27.972  
G03  23900951.016     3553117.0211      -3469.536          14.601  
G06  21171888.706      167541.0190       -279.556          38.644  
G09  23691308.848    -1325059.1011       1602.287          28.841  
G17  21410905.139     -783409.3640        683.251          37.152  
G19  21461533.789    -1101822.5510       1076.409          41.218  
G23  24804482.014     -310636.7411        264.322          20.144  
G28  21048764.544     1834945.7141      -2441.389          35.581  
G30  25414354.009     1280065.3891      -2300.486           7.000  
R02  21189887.346     1303592.6131      -1657.997          26.650  
R18  21547296.917     -422733.1940        550.683          35.209  
R16  21628347.607      165616.0111       -520.062          17.737  
R15  22016104.268     3559404.4641      -3783.705          18.755  
R17  21701452.297      828460.8661       -787.547          27.289  
R03  20358864.451    -1893222.5581       2081.072          32.896  
R04  23270244.945    -2230138.3351       3978.337          11.017  
J01  37808951.508      747104.4811       -951.846          32.601  
E013204633773.555     1141321.0521      -1562.176          19.158  
> 2018  4 30 11 51 40.9997345  0 18
G02  23471381.401    -3543383.4561        889.676          29.460  
G03  23901616.255     3556582.0031      -3468.004          13.789  
G06  21171944.168      167822.1040       -280.813          40.793  
G09  23691005.158    -1326658.1961       1600.081          29.544  
G17  21410775.928     -784094.4911        684.893          37.454  
G19  21461323.035    -1102898.4550       1075.597          40.838  
G23  24804437.945     -310905.4091        264.126          18.470  
G28  21049225.325     1837389.0210      -2444.406          36.771  
G30  25414790.806     1282362.7611      -2299.510           7.000  
R02  21190215.619     1305250.5941      -1651.683          25.623  
R18  21547187.792     -423284.2091        545.410          32.177  
R16  21628432.148      166141.3921       -520.385          15.704  
R15  22016816.275     3563194.0381      -3783.026          18.512  
R17  21701597.996      829249.3311       -788.357          26.091  
R03  20358467.226    -1895306.9991       2084.275          34.937  
R04  23269524.244    -2234119.0801       3980.930          10.914  
J01  37809132.882      748056.0410       -952.859          35.222  
E013504426522.350     1142887.9481      -1560.957          16.856  
> 2018  4 30 11 51 41.9997345  0 18
G02  23471230.006    -3544269.8581        887.059          30.722  
G03  23902278.797     3560051.6811      -3472.162          15.005  
G06  21172000.829      168104.6411       -281.718          39.206  
G09  23690716.758    -1328261.7401       1599.781          27.249  
G17  21410643.720     -784787.1631        684.687          36.042  
G19  21461121.874    -1103974.3090       1075.627          41.398  
G23  24804389.978     -311165.2061        264.094          19.533  
G28  21049698.097     1839832.1761      -2447.903          33.271  
G30  25415228.503     1284661.9921      -2297.559           7.000  
R02  21190515.112     1306909.8711      -1654.634          26.520  
R18  21547078.968     -423834.0641        551.855          32.904  
R16  21628618.919      166669.7901       -522.529          19.254  
R15  22017591.838     3566982.8171      -3784.527          20.801  
R17  21701720.312      830039.1051       -790.968          25.470  
R03  20358067.603    -1897392.5321       2083.698          32.426  
R04  23268761.272    -2238100.7001       3980.042          10.860  
J01  37809322.051      749007.0720       -952.263          36.720  
E013804219269.055     1144457.5241      -1567.614          19.816  
> 2018  4 30 11 51 42.9997345  0 18
G02  23471070.216    -3545160.0101        888.666          27.591  
G03  23902907.761     3563526.0081      -3471.952          15.905  
G06  21172053.293      168386.1400       -282.179          41.799  
G09  23690374.995    -1329863.6951       1602.121          27.500  
G17  21410516.008     -785474.9501        682.760          36.093  
G19  21460918.016    -1105050.0650       1075.479          42.620  
G23  24804334.517     -311427.5641        263.488          19.034  
G28  21050157.679     1842276.2050      -2445.845          36.822  
G30  25415667.400     1286963.8371      -2299.510           7.000  
R02  21190811.007     1308570.3001      -1661.368          27.698  
R18  21546978.837     -424385.5711        551.839          33.875  
R16  21628716.351      167189.2781       -522.016          19.270  
R15  22018321.533     3570771.0041      -3786.886          20.618  
R17  21701911.579      830833.4461       -794.978          23.337  
R03  20357662.284    -1899475.3801       2082.605          33.822  
R04  23268019.585    -2242072.6561       3977.998          10.561  
J01  37809491.134      749958.4901       -950.311          35.059  
E014104012029.550     1146034.2511      -1563.950          17.130  
> 2018  4 30 11 51 43.9997345  0 18
G02  23470898.135    -3546049.1951        890.947          26.771  
G03  23903552.915     3566989.9501      -3470.147          14.918  
G06  21172103.957      168668.3270       -284.231          40.855  
G09  23690100.984    -1331464.9461       1601.442          27.829  
G17  21410389.496     -786157.6671        682.425          38.933  
G19  21460713.557    -1106125.3940       1074.487          41.476  
G23  24804276.956     -311692.1971        263.047          17.719  
G28  21050622.357     1844720.5030      -2443.636          35.455  
G30  25416102.998     1289263.9581      -2301.461           7.000  
R02  21191122.191     1310227.9611      -1663.559          28.363  
R18  21546882.604     -424939.0751        550.340          34.088  
R16  21628837.168      167716.0561       -523.257          20.555  
R15  22018959.791     3574558.2871      -3788.820          20.180  
R17  21702055.779      831634.5841       -792.287          24.345  
R03  20357301.933    -1901557.4761       2081.616          35.158  
R04  23267259.911    -2246048.4821       3977.550          13.208  
J01  37809685.399      750910.0421       -950.963          35.492  
E014403804771.750     1147614.9821      -1571.408          17.702  
> 2018  4 30 11 51 44.9997345  0 18
G02  23470713.463    -3546945.5551        888.808          28.197  
G03  23904198.967     3570453.2951      -3468.375          14.011  
G06  21172154.622      168950.8891       -282.942          39.012  
G09  23689781.705    -1333065.7041       1600.646          26.410  
G17  21410249.193     -786840.4221        681.548          38.692  
G19  21460511.497    -1107200.6450       1074.120          41.674  
G23  24804251.174     -311955.8801        260.873          17.136  
G28  21051081.040     1847166.9691      -2444.334          33.035  
G30  25416540.395     1291562.0831      -2299.510           7.000  
R02  21191458.559     1311882.5271      -1658.499          26.559  
R18  21546770.481     -425489.0721        552.356          32.682  
R16  21628918.112      168243.4081       -523.726          20.631  
R15  22019660.406     3578348.9841      -3788.651          21.518  
R17  21702201.778      832428.7491       -790.517          25.410  
R03  20356925.993    -1903639.0961       2084.349          33.417  
R04  23266482.250    -2250030.9441       3976.392          13.659  
J01  37809852.684      751861.3081       -953.069          36.235  
E014703597555.020     1149196.8421      -1564.127          16.109  
> 2018  4 30 11 51 45.9997345  0 18
G02  23470550.676    -3547834.1361        886.261          28.830  
G03  23904868.404     3573926.9361      -3471.625          15.559  
G06  21172212.782      169233.1030       -283.203          39.655  
G09  23689504.697    -1334668.9251       1600.737          25.545  
G17  21410123.880     -787528.4411        683.104          38.490  
G19  21460306.139    -1108275.9180       1074.916          43.351  
G23  24804228.990     -312219.7961        258.216          17.176  
G28  21051561.607     1849613.5321      -2444.719          35.058  
G30  25416975.994     1293859.2361      -2298.534           7.000  
R02  21191756.852     1313541.2031      -1659.258          29.858  
R18  21546675.747     -426041.9301        553.502          34.109  
R16  21628916.613      168771.6761       -526.927          22.915  
R15  22020373.613     3582137.6801      -3790.121          19.858  
R17  21702318.997      833218.6521       -792.167          26.957  
R03  20356532.666    -1905718.5251       2080.689          32.942  
R04  23265750.156    -2254010.8911       3979.351          12.847  
J01  37810044.851      752812.9611       -949.060          33.999  
E015003390297.230     1150788.8941      -1564.900          16.232  
> 2018  4 30 11 51 46.9997345  0 18
G02  23470360.607    -3548720.8451        886.662          29.060  
G03  23905561.824     3577405.0791      -3471.349          17.539  
G06  21172267.644      169515.7491       -283.554          38.940  
G09  23689175.225    -1336269.2411       1601.219          28.925  
G17  21409995.269     -788213.6211        684.084          38.613  
G19  21460099.282    -1109351.2120       1073.335          42.599  
G23  24804189.717     -312474.9621        257.383          18.887  
G28  21052018.791     1852059.3681      -2446.084          36.322  
G30  25417413.391     1296155.3961      -2296.583           7.000  
R02  21192063.839     1315205.3471      -1667.309          34.532  
R18  21546588.807     -426588.7461        551.799          32.350  
R16  21629108.480      169301.0801       -522.769          21.358  
R15  22021096.112     3585931.8911      -3789.170          20.643  
R17  21702493.776      834013.9371       -788.887          26.971  
R03  20356127.346    -1907798.0241       2079.641          35.382  
R04  23265030.954    -2257992.1551       3979.834          12.709  
J01  37810221.728      753764.3561       -948.339          30.316  
E015303183048.730     1152391.6621      -1571.797          16.920  
> 2018  4 30 11 51 47.9997345  0 18
G02  23470202.017    -3549606.5541        890.223          27.011  
G03  23906208.776     3580880.7711      -3472.745          17.264  
G06  21172317.410      169798.2240       -282.479          41.090  
G09  23688864.041    -1337868.7761       1597.618          32.973  
G17  21409860.962     -788897.5211        683.586          38.776  
G19  21459892.725    -1110426.6381       1074.718          39.980  
G23  24804132.456     -312728.0261        257.468          18.390  
G28  21052487.666     1854506.1661      -2447.153          33.517  
G30  25417850.488     1298451.3781      -2296.583           7.000  
R02  21192364.831     1316869.3091      -1665.167          32.792  
R18  21546492.574     -427144.4171        551.356          29.885  
R16  21629193.321      169823.7091       -520.318          17.775  
R15  22021811.717     3589723.4331      -3789.287          19.994  
R17  21702585.513      834806.4391       -789.382          25.341  
R03  20355739.715    -1909877.4490       2078.883          36.946  
R04  23264258.089    -2261971.4801       3978.712          14.013  
J01  37810396.807      754714.1471       -952.647          28.056  
E015602975815.810     1153966.8251      -1572.793          16.403  
> 2018  4 30 11 51 48.9997345  0 18
G02  23470066.811    -3550492.6111        887.654          30.663  
G03  23906853.630     3584348.4471      -3470.280          14.148  
G06  21172371.972      170081.0940       -282.696          41.465  
G09  23688571.443    -1339468.1231       1599.979          34.179  
G17  21409730.252     -789582.2301        682.561          36.718  
G19  21459689.166    -1111502.3261       1077.874          38.659  
G23  24804077.894     -312991.2081        257.941          18.511  
G28  21052946.049     1856953.4761      -2451.229          31.347  
G30  25418286.386     1300745.8091      -2295.608           7.000  
R02  21192681.412     1318535.8251      -1664.658          31.957  
R18  21546375.355     -427697.4921        554.961          30.283  
R16  21629218.504      170350.8031       -523.047          18.809  
R15  22022506.636     3593512.7471      -3789.470          21.170  
R17  21702801.663      835596.8441       -791.100          28.257  
R03  20355346.387    -1911956.1900       2079.215          36.976  
R04  23263513.705    -2265952.4561       3980.204          13.455  
J01  37810594.670      755666.1361       -952.568          29.857  
E015902768593.086     1155537.3581      -1574.066          16.623  
> 2018  4 30 11 51 49.9997345  0 18
G02  23469894.130    -3551378.9851        886.003          30.063  
G03  23907483.194     3587817.8201      -3471.659          13.813  
G06  21172429.532      170364.6440       -282.945          43.029  
G09  23688270.152    -1341070.7301       1600.251          31.935  
G17  21409608.237     -790264.4551        687.259          35.429  
G19  21459486.507    -1112576.8511       1074.594          38.484  
G23  24804028.428     -313254.1631        258.094          16.509  
G28  21053455.396     1859401.3521      -2454.320          27.220  
G30  25418723.484     1303040.5941      -2294.632           7.000  
R02  21192991.697     1320202.9781      -1661.608          31.283  
R18  21546275.524     -428249.0231        553.411          31.251  
R16  21629343.517      170872.1121       -524.008          19.491  
R15  22023279.201     3597298.6381      -3786.442          21.343  
R17  21702963.851      836385.6581       -788.776          28.526  
R03  20354976.143    -1914034.1270       2076.726          37.083  
R04  23262712.959    -2269933.4781       3979.845          14.133  
J01  37810766.151      756618.1871       -952.386          30.561  
E016202561327.800     1157111.9531      -1573.818          16.327  
> 2018  4 30 11 51 50.9997345  0 18
G02  23469723.249    -3552266.1031        885.522          27.125  
G03  23908134.643     3591291.7671      -3474.418          13.322  
G06  21172481.996      170649.0521       -285.557          36.702  
G09  23687962.565    -1342669.1811       1598.825          31.530  
G17  21409476.028     -790948.7631        686.294          39.093  
G19  21459285.346    -1113650.8571       1074.535          40.493  
G23  24803976.564     -313515.9141        257.209          14.675  
G28  21053915.578     1861853.1361      -2450.839          25.020  
G30  25419160.282     1305337.1441      -2294.632           7.000  
R02  21193319.970     1321869.7791      -1665.427          30.220  
R18  21546165.200     -428802.1591        551.869          33.295  
R16  21629480.522      171392.3751       -530.939          22.824  
R15  22023971.722     3601089.1661      -3784.933          20.068  
R17  21703052.290      837174.8951       -788.686          29.650  
R03  20354586.113    -1916108.9251       2075.893          34.348  
R04  23261952.086    -2273913.5191       3978.925          13.774  
J01  37810947.826      757570.2791       -950.657          30.401  
E016502354058.910     1158681.4921      -1574.047          16.621  
> 2018  4 30 11 51 51.9997345  0 18
G02  23469571.554    -3553151.5181        886.432          26.712  
G03  23908830.161     3594762.8861      -3473.431          13.640  
G06  21172532.960      170933.2800       -283.592          39.318  
G09  23687650.481    -1344267.3461       1598.444          30.880  
G17  21409349.216     -791632.8411        683.699          34.643  
G19  21459077.590    -1114724.8170       1075.673          40.522  
G23  24803918.405     -313774.2181        256.886          16.388  
G28  21054388.350     1864300.8371      -2449.849          23.593  
G30  25419598.578     1307633.9201      -2296.583           7.000  
R02  21193633.253     1323531.7611      -1666.856          27.780  
R18  21546065.669     -429352.2031        552.714          34.551  
R16  21629600.439      171929.4901       -537.925          19.407  
R15  22024690.024     3604869.4031      -3783.734          18.503  
R17  21703196.490      837970.3221       -792.665          28.052  
R03  20354200.580    -1918182.9821       2075.501          34.228  
R04  23261218.494    -2277892.1151       3978.522          15.375  
J01  37811131.298      758522.6530       -951.945          34.163  
E016802146820.590     1160262.2951      -1574.633          17.275  
> 2018  4 30 11 51 52.9997345  0 18
G02  23469384.483    -3554035.6631        883.954          27.884  
G03  23909538.571     3598235.3601      -3473.304          13.160  
G06  21172586.323      171217.9560       -284.665          41.895  
G09  23687348.290    -1345864.9271       1596.903          31.041  
G17  21409211.911     -792316.3851        684.459          33.756  
G19  21458878.528    -1115798.1741       1073.795          40.871  
G23  24803880.031     -314025.3991        254.744          15.116  
G28  21054825.148     1866756.1311      -2452.043          23.525  
G30  25420035.975     1309931.4601      -2296.583           7.000  
R02  21193939.041     1325195.2411      -1667.784          28.639  
R18  21545949.649     -429902.4911        552.904          33.824  
R16  21629760.229      172473.5971       -539.296          17.629  
R15  22025348.968     3608652.0571      -3784.981          17.533  
R17  21703399.449      838768.6071       -796.994          26.253  
R03  20353814.148    -1920258.6490       2075.689          36.528  
R04  23260502.589    -2281870.6071       3973.444          14.196  
J01  37811309.075      759475.0810       -951.590          34.090  
E017101939593.380     1161843.9271      -1575.608          16.975  
> 2018  4 30 11 51 53.9997345  0 18
G02  23469192.616    -3554920.0051        881.347          27.167  
G03  23910217.301     3601709.2731      -3474.406          12.887  
G06  21172643.584      171503.0730       -284.602          42.898  
G09  23687055.093    -1347461.8971       1598.789          30.328  
G17  21409089.596     -792998.8301        682.478          32.997  
G19  21458668.373    -1116871.6760       1074.251          40.795  
G23  24803840.758     -314281.2511        254.895          15.309  
G28  21055324.602     1869206.6401      -2452.611          23.227  
G30  25420473.372     1312229.1981      -2297.559           7.000  
R02  21194295.495     1326866.9821      -1664.922          28.198  
R18  21545856.114     -430451.7951        552.244          32.905  
R16  21629817.489      173017.9941       -539.776          18.024  
R15  22026055.879     3612443.6711      -3786.691          18.815  
R17  21703493.284      839561.5501       -795.174          24.929  
R03  20353409.428    -1922333.6580       2075.202          36.677  
R04  23259792.081    -2285844.7621       3980.053          14.262  
J01  37811486.553      760427.7981       -955.055          35.014  
E017401732357.766     1163417.8451      -1577.559          18.103  
> 2018  4 30 11 51 54.9997345  0 18
G02  23469069.401    -3555805.8261        883.003          24.345  
G03  23910868.750     3605182.6421      -3474.563          13.511  
G06  21172697.546      171787.9990       -284.556          42.767  
G09  23686749.604    -1349066.6421       1600.720          29.558  
G17  21408960.385     -793681.8861        682.811          33.865  
G19  21458470.210    -1117945.3090       1074.039          40.557  
G23  24803755.917     -314535.9791        255.753          15.483  
G28  21055793.477     1871652.8971      -2450.639          21.615  
G30  25420910.770     1314526.7511      -2297.559           7.000  
R02  21194562.010     1328536.9481      -1664.248          29.125  
R18  21545736.497     -431000.8351        551.778          34.912  
R16  21629858.261      173560.9651       -540.303          18.776  
R15  22026810.157     3616237.8571      -3787.433          17.748  
R17  21703681.254      840356.1151       -793.888          25.622  
R03  20353017.000    -1924407.7690       2074.039          35.607  
R04  23259091.466    -2289818.2091       3980.223          16.297  
J01  37811668.227      761376.9061       -949.856          34.784  
E017701525111.960     1164997.0691      -1578.535          18.250  
> 2018  4 30 11 51 55.9997345  0 18
G02  23468882.631    -3556690.4731        886.494          25.487  
G03  23911528.293     3608661.9731      -3474.086          14.042  
G06  21172749.411      172073.5940       -286.191          41.563  
G09  23686434.223    -1350664.4081       1600.278          30.165  
G17  21408829.076     -794362.9841        682.058          34.805  
G19  21458261.854    -1119019.0470       1074.779          42.530  
G23  24803704.353     -314790.9491        254.729          15.663  
G28  21056231.774     1874103.1231      -2455.765          20.663  
G30  25421347.867     1316823.7091      -2297.559           7.000  
R02  21194875.593     1330207.8651      -1670.788          30.073  
R18  21545652.255     -431551.1671        547.011          33.337  
R16  21629963.488      174106.1121       -539.827          18.344  
R15  22027578.525     3620030.4411      -3789.315          17.552  
R17  21703829.651      841149.3071       -792.953          23.805  
R03  20352644.657    -1926481.2180       2074.257          36.248  
R04  23258247.250    -2293800.2341       3978.847          24.476  
J01  37811846.603      762326.4661       -950.199          33.894  
E018001317872.750     1166575.3861      -1578.535          19.422  
> 2018  4 30 11 51 56.9997345  0 18
G02  23468715.346    -3557575.2151        887.114          26.438  
G03  23912194.432     3612135.6121      -3475.167          13.987  
G06  21172802.174      172359.6010       -286.484          38.157  
G09  23686162.611    -1352266.5311       1597.816          29.137  
G17  21408695.369     -795045.7211        682.306          34.392  
G19  21458052.599    -1120092.3370       1073.025          40.846  
G23  24803702.554     -315046.3851        253.989          16.349  
G28  21056721.635     1876560.0551      -2458.588          20.452  
G30  25421784.964     1319120.0781      -2296.583           7.000  
R02  21195195.771     1331879.0951      -1670.550          28.225  
R18  21545548.827     -432099.6751        551.126          35.120  
R16  21630060.321      174650.5741       -539.521          15.208  
R15  22028273.743     3623821.3011      -3789.559          19.124  
R17  21703984.045      841945.0811       -793.677          21.375  
R03  20352228.246    -1928554.0850       2072.003          34.956  
R04  23257485.778    -2297803.7951       3985.045          32.919  
J01  37812039.670      763278.4450       -950.179          33.470  
E018301110609.260     1168158.7291      -1579.511          17.629  
> 2018  4 30 11 51 57.9997345  0 18
G02  23468544.765    -3558461.6501        886.569          26.266  
G03  23912843.183     3615611.9731      -3474.419          13.883  
G06  21172863.632      172645.7810       -286.701          35.964  
G09  23685831.640    -1353867.4471       1596.333          28.132  
G17  21408559.263     -795729.0481        683.861          34.609  
G19  21457846.342    -1121167.2600       1075.137          37.151  
G23  24803614.715     -315294.5641        254.292          18.127  
G28  21057179.118     1879015.1421      -2457.425          21.825  
G30  25422222.062     1321416.0601      -2296.583           7.000  
R02  21195530.639     1333545.3691      -1667.044          26.142  
R18  21545438.803     -432651.9470        552.901          38.664  
R16  21630161.950      175188.3561       -537.706          13.916  
R15  22028969.862     3627612.0081      -3790.881          20.786  
R17  21704101.863      842736.2301       -794.499          20.368  
R03  20351872.092    -1930626.4180       2072.268          35.252  
R04  23256749.487    -2301768.7121       3985.045          31.402  
J01  37812204.855      764229.5791       -955.856          29.881  
E018600903393.734     1169740.7371      -1592.392          19.528  
