     3.03           OBSERVATION DATA    M: Mixed            RINEX VERSION / TYPE
Geo++ RINEX Logger  Geo++               20180430 115226 UTC PGM / RUN BY / DATE
************************************************************COMMENT
This file was generated by the Geo++ RINEX Logger App       COMMENT
for Android devices (Version 1.2.4). If you encounter       COMMENT
any issues, please send an email to android@geopp.de        COMMENT
Note: Tracking signals and phase shifts by best knowledge   COMMENT
************************************************************COMMENT
Geo++                                                       MARKER NAME
GEODETIC                                                    MARKER TYPE
RINEX Logger user   Geo++                                   OBSERVER / AGENCY
7EX0217A17003237    HUAWEI              VTR-L29             REC # / TYPE / VERS
7EX0217A17003237    VTR-L29                                 ANT # / TYPE
 -2418179.4985  5386123.0645  2405088.0816                  APPROX POSITION XYZ
        0.0000        0.0000        0.0000                  ANTENNA: DELTA H/E/N
G    4 C1C L1C D1C S1C                                      SYS / # / OBS TYPES
R    4 C1C L1C D1C S1C                                      SYS / # / OBS TYPES
E    4 C1B L1B D1B S1B                                      SYS / # / OBS TYPES
C    4 C2I L2I D2I S2I                                      SYS / # / OBS TYPES
J    4 C1C L1C D1C S1C                                      SYS / # / OBS TYPES
  2018     4    30    11    52   44.9996979     GPS         TIME OF FIRST OBS
G                                                           SYS / PHASE SHIFTS
R                                                           SYS / PHASE SHIFTS
E                                                           SYS / PHASE SHIFTS
C                                                           SYS / PHASE SHIFTS
J                                                           SYS / PHASE SHIFTS
                                                            END OF HEADER
> 2018  4 30 11 52 44.9996979  0 18
G02  23449680.024    -3600057.6270        880.602          35.433  
G03  23932881.611     3779141.0951      -3483.743          15.100  
G06  21164500.621      186296.0380       -295.464          36.403  
G09  23660551.341    -1428919.6920       1594.506          30.696  
G17  21391490.579     -827767.2070        678.518          36.624  
G19  21437264.990    -1171625.7490       1071.216          32.133  
G23  24790392.069     -326928.1961        243.068          14.116  
G28  21068228.569     1994927.0081      -2475.692          22.533  
G30  25431717.988     1429021.3811      -2280.973           7.000  
R02  21199352.094     1412806.5151      -1703.673          24.327  
R18  21529589.375     -458759.8921        559.166          22.612  
R16  21624064.771      201074.9610       -568.487          25.376  
R15  22051307.098     3805927.3970      -3798.954          33.679  
R17  21700149.999      880080.0181       -795.386          17.361  
R03  20322823.702    -2027339.9270       2042.002          42.748  
R04  23210876.445    -2488650.7350       3976.734          36.420  
J01  37809742.960      808954.9010       -952.591          32.388  
E012691152148.500     1244462.1011      -1615.478          18.986  
> 2018  4 30 11 52 45.9996979  0 18
G02  23449517.537    -3600938.6620        880.641          37.929  
G03  23933541.154     3782624.8611      -3483.618          14.240  
G06  21164550.087      186591.4780       -295.851          36.036  
G09  23660254.547    -1430514.0030       1594.068          31.746  
G17  21391354.473     -828445.6460        678.018          38.281  
G19  21437056.335    -1172697.3500       1072.889          29.928  
G23  24790308.726     -327175.3161        244.420          13.629  
G28  21068716.031     1997404.3981      -2479.180          23.071  
G30  25432152.687     1431301.7531      -2280.973           7.000  
R02  21199693.558     1414512.6250      -1706.734          29.003  
R18  21529443.376     -459317.8381        558.470          26.093  
R16  21624172.997      201643.8140       -569.624          25.771  
R15  22052048.185     3809726.0540      -3799.435          33.835  
R17  21700328.675      880880.0601       -794.510          16.720  
R03  20322445.664    -2029381.9510       2041.431          41.121  
R04  23210140.154    -2492627.7460       3976.551          36.869  
J01  37809930.030      809907.3110       -952.711          35.051  
E012990944927.875     1246063.6821      -1606.211          19.551  
> 2018  4 30 11 52 46.9996979  0 18
G02  23449342.158    -3601819.2140        880.502          39.252  
G03  23934209.092     3786109.4511      -3483.853          13.818  
G06  21164604.949      186887.2580       -295.961          34.851  
G09  23659953.555    -1432108.0480       1594.005          34.044  
G17  21391233.357     -829123.8710        678.022          38.936  
G19  21436838.086    -1173772.9441       1069.220          25.929  
G23  24790238.275     -327421.8761        243.486          12.769  
G28  21069168.718     1999882.4450      -2478.304          24.220  
G30  25432586.487     1433581.5371      -2279.998           7.000  
R02  21200023.629     1416219.5820      -1707.512          30.903  
R18  21529386.416     -459875.4940        557.655          30.124  
R16  21624270.429      202213.5870       -570.087          25.638  
R15  22052744.902     3813525.1190      -3799.157          33.547  
R17  21700478.871      881674.5571       -793.693          19.758  
R03  20322055.634    -2031423.1470       2040.906          41.676  
R04  23209409.260    -2496604.5540       3976.827          37.461  
J01  37810103.010      810860.0170       -952.860          34.807  
E013290737674.580     1247663.4301      -1605.496          20.509  
> 2018  4 30 11 52 47.9996979  0 18
G02  23449173.375    -3602699.4250        880.246          39.060  
G03  23934876.730     3789572.1661      -3484.514          12.958  
G06  21164676.000      187183.4490       -296.371          35.606  
G09  23659652.563    -1433701.7350       1593.705          35.032  
G17  21391102.348     -829801.7140        677.867          37.334  
G19  21436621.036    -1174844.0351       1070.370          26.065  
G23  24790156.732     -327664.0981        241.279          12.701  
G28  21069638.193     2002361.1071      -2476.245          22.958  
G30  25433020.286     1435861.7001      -2279.998           7.000  
R02  21200336.612     1417927.4690      -1707.877          29.742  
R18  21529270.696     -460433.0380        557.524          31.308  
R16  21624387.348      202784.3830       -571.081          25.190  
R15  22053453.012     3817324.5560      -3799.669          33.883  
R17  21700635.063      882469.2281       -793.844          18.541  
R03  20321680.593    -2033463.4570       2040.073          42.373  
R04  23208672.370    -2500581.1870       3976.733          38.272  
J01  37810287.683      811812.9370       -952.539          33.333  
E013590530456.350     1249264.8371      -1602.128          22.152  
> 2018  4 30 11 52 48.9996979  0 18
G02  23449009.688    -3603579.4920        880.013          38.397  
G03  23935554.560     3793061.6711      -3484.676          12.097  
G06  21164720.669      187479.8110       -296.476          35.780  
G09  23659353.970    -1435295.4070       1593.627          34.790  
G17  21390976.135     -830479.4880        677.880          37.300  
G19  21436417.477    -1175914.1621       1072.927          25.901  
G23  24790129.450     -327905.1811        240.373          12.141  
G28  21070098.974     2004840.2911      -2474.982          22.057  
G30  25433454.086     1438140.7311      -2279.998           7.000  
R02  21200684.372     1419636.1030      -1709.232          29.290  
R18  21529179.859     -460990.8200        558.064          31.146  
R16  21624523.454      203355.8631       -572.629          24.586  
R15  22054179.110     3821124.2260      -3799.788          32.965  
R17  21700846.417      883264.4301       -793.927          18.283  
R03  20321298.358    -2035503.1940       2039.473          41.819  
R04  23207931.583    -2504557.8820       3976.656          37.627  
J01  37810466.958      812765.9580       -952.817          32.342  
E013890323209.650     1250866.7031      -1593.652          21.661  
> 2018  4 30 11 52 49.9996979  0 18
G02  23448846.301    -3604459.3360        878.995          37.836  
G03  23936217.701     3796547.7951      -3484.358          11.630  
G06  21164773.732      187776.4020       -297.082          34.973  
G09  23659050.580    -1436888.9470       1593.066          34.345  
G17  21390848.424     -831157.0440        676.665          37.284  
G19  21436226.209    -1176984.1640       1070.336          25.214  
G23  24790082.983     -328150.1181        240.918          12.386  
G28  21070578.342     2007320.0591      -2479.845          21.023  
G30  25433888.186     1440420.6721      -2279.022           7.000  
R02  21201000.353     1421345.4500      -1709.941          27.812  
R18  21529042.254     -461548.5700        557.225          31.451  
R16  21624592.706      203928.2110       -572.758          23.674  
R15  22054874.328     3824924.0410      -3800.655          32.171  
R17  21700988.818      884064.8771       -795.631          18.773  
R03  20320910.426    -2037542.1550       2038.152          41.167  
R04  23207179.704    -2508534.5950       3976.198          37.323  
J01  37810650.431      813719.0590       -954.044          33.251  
E014190115987.230     1252468.8681      -1593.364          22.329  
> 2018  4 30 11 52 50.9996979  0 18
G02  23448672.722    -3605339.2100        880.378          36.506  
G03  23936881.742     3800032.5191      -3485.824          11.947  
G06  21164834.890      188073.1100       -296.476          35.653  
G09  23658743.892    -1438482.4330       1593.915          35.504  
G17  21390715.016     -831834.6280        677.745          37.877  
G19  21436031.944    -1178053.8690       1069.903          27.551  
G23  24790038.613     -328384.1531        240.076          11.525  
G28  21071064.606     2009800.1001      -2483.109          20.468  
G30  25434321.985     1442700.8731      -2279.998           7.000  
R02  21201280.659     1423055.5691      -1710.149          25.493  
R18  21528954.115     -462106.4920        558.060          31.110  
R16  21624712.023      204501.1840       -573.438          24.518  
R15  22055600.126     3828724.0750      -3799.932          31.272  
R17  21701120.427      884860.7301       -794.740          17.218  
R03  20320528.191    -2039580.6090       2038.351          41.724  
R04  23206447.611    -2512511.4590       3977.339          36.696  
J01  37810828.808      814672.0580       -952.585          31.742  
E014489908762.110     1254071.5491      -1592.009          22.335  
> 2018  4 30 11 52 51.9996979  0 18
G02  23448513.232    -3606218.9860        879.593          36.545  
G03  23937545.782     3803521.1051      -3485.246          11.738  
G06  21164893.349      188369.8790       -296.479          35.672  
G09  23658429.710    -1440075.9290       1593.197          33.870  
G17  21390590.602     -832512.2240        677.396          38.190  
G19  21435829.284    -1179124.4050       1069.803          29.095  
G23  24789992.745     -328625.2771        240.076          12.158  
G28  21071531.083     2012280.5931      -2482.126          21.512  
G30  25434756.984     1444981.0371      -2279.998           7.000  
R02  21201640.710     1424766.2590      -1711.561          30.020  
R18  21528827.603     -462664.6900        559.017          33.827  
R16  21624779.477      205074.7081       -573.770          23.349  
R15  22056311.233     3832524.1230      -3800.346          30.016  
R17  21701286.812      885648.9891       -793.020          15.692  
R03  20320148.054    -2041618.5730       2037.564          42.984  
R04  23205702.327    -2516488.4670       3977.161          37.104  
J01  37811011.082      815624.9850       -953.042          32.596  
E014789701521.400     1255674.2381      -1593.920          22.839  
> 2018  4 30 11 52 52.9996979  0 18
G02  23448346.547    -3607098.8310        879.767          36.291  
G03  23938208.623     3807006.0321      -3486.923          10.878  
G06  21164945.813      188666.6540       -296.982          35.055  
G09  23658130.517    -1441669.5770       1593.649          32.640  
G17  21390460.193     -833189.8900        677.104          37.128  
G19  21435615.232    -1180194.5490       1070.270          30.556  
G23  24789982.252     -328864.2081        239.554          11.781  
G28  21072014.648     2014761.2471      -2479.023          21.820  
G30  25435189.585     1447260.0671      -2279.998           7.000  
R02  21201933.907     1426477.4990      -1711.828          29.741  
R18  21528733.768     -463223.0170        558.492          34.452  
R16  21624919.480      205648.9151       -571.739          22.786  
R15  22057018.744     3836324.1360      -3800.646          29.130  
R17  21701323.386      886439.0361       -792.870          16.783  
R03  20319774.813    -2043656.1060       2037.166          42.358  
R04  23204944.151    -2520465.6970       3977.138          36.531  
J01  37811196.953      816577.7140       -952.826          34.160  
E015089494285.484     1257276.9171      -1587.763          21.484  
> 2018  4 30 11 52 53.9996979  0 18
G02  23448173.567    -3607978.5390        879.968          36.593  
G03  23938872.663     3810488.7971      -3487.787          10.376  
G06  21165000.675      188963.5800       -297.050          34.222  
G09  23657815.735    -1443263.1910       1593.462          31.783  
G17  21390331.282     -833867.5110        677.598          37.929  
G19  21435432.659    -1181264.4390       1069.788          30.829  
G23  24789924.692     -329103.3431        239.371          10.920  
G28  21072493.416     2017242.2371      -2484.626          21.930  
G30  25435623.384     1449539.2411      -2279.022           7.000  
R02  21202260.980     1428189.5470      -1712.069          28.675  
R18  21528634.836     -463781.6220        558.651          34.593  
R16  21625010.916      206223.8441       -576.345          23.207  
R15  22057686.981     3840124.2470      -3800.359          28.414  
R17  21701508.358      887232.8411       -794.721          22.869  
R03  20319391.978    -2045693.0230       2036.565          41.569  
R04  23204206.062    -2524443.0480       3977.587          35.545  
J01  37811373.831      817530.4880       -952.855          35.427  
E015389287059.164     1258888.6611      -1595.967          21.321  
> 2018  4 30 11 52 54.9996979  0 18
G02  23448011.679    -3608858.2840        879.809          37.243  
G03  23939536.404     3813982.1731      -3485.105           9.515  
G06  21165057.036      189260.5010       -297.161          34.519  
G09  23657519.240    -1444856.7520       1593.499          31.921  
G17  21390204.170     -834545.1610        677.387          38.371  
G19  21435228.200    -1182334.4990       1069.809          32.466  
G23  24789892.315     -329340.4131        236.956          10.060  
G28  21072984.177     2019723.7101      -2480.052          20.966  
G30  25436057.184     1451818.2581      -2279.022           7.000  
R02  21202618.033     1429902.2860      -1713.082          28.061  
R18  21528531.408     -464340.5010        558.756          34.956  
R16  21625118.542      206799.2691       -577.227          23.132  
R15  22058413.978     3843924.3820      -3800.486          27.979  
R17  21701687.634      888026.7611       -793.814          20.436  
R03  20319017.237    -2047729.3380       2035.896          41.999  
R04  23203474.269    -2528420.5980       3977.733          35.176  
J01  37811549.509      818483.0650       -952.702          34.763  
E015689079805.570     1260492.0241      -1592.094          21.700  
> 2018  4 30 11 52 55.9996979  0 18
G02  23447837.800    -3609737.9410        879.521          37.348  
G03  23940199.245     3817469.0731      -3487.534           8.655  
G06  21165118.493      189557.5380       -297.258          36.691  
G09  23657220.347    -1446450.2980       1593.560          32.224  
G17  21390068.364     -835222.7680        677.530          36.930  
G19  21435012.650    -1183404.5750       1069.732          31.208  
G23  24789857.839     -329572.7441        241.314          10.485  
G28  21073417.677     2022205.5991      -2478.375          20.333  
G30  25436490.984     1454096.6791      -2279.022           7.000  
R02  21202915.127     1431615.6690      -1713.650          28.588  
R18  21528434.875     -464899.4930        559.014          34.290  
R16  21625237.859      207375.2811       -575.655          22.086  
R15  22059115.792     3847724.7360      -3801.028          28.610  
R17  21701761.383      888820.1221       -795.595          23.306  
R03  20318633.503    -2049765.1600       2035.636          41.706  
R04  23202739.178    -2532398.2590       3977.771          34.275  
J01  37811733.881      819435.6450       -952.576          33.786  
E015988872573.250     1262075.3901      -1595.890          22.086  
> 2018  4 30 11 52 56.9996979  0 18
G02  23447676.511    -3610617.6090        879.702          38.266  
G03  23940863.585     3820952.0431      -3487.017           8.343  
G06  21165170.657      189854.6040       -297.521          36.437  
G09  23656914.859    -1448043.9580       1593.455          31.824  
G17  21389946.948     -835900.3670        677.442          37.070  
G19  21434797.099    -1184474.5850       1070.070          29.421  
G23  24789766.102     -329813.7901        238.288          11.950  
G28  21073917.131     2024687.6791      -2478.279          21.279  
G30  25436924.783     1456374.5111      -2278.047           7.000  
R02  21203268.583     1433329.6980      -1714.283          29.589  
R18  21528312.559     -465458.7770        559.512          33.702  
R16  21625328.397      207951.9201       -577.478          23.884  
R15  22059837.692     3851524.9890      -3800.276          28.961  
R17  21701892.093      889613.4511       -794.408          22.034  
R03  20318264.458    -2051800.5370       2035.090          41.328  
R04  23202001.988    -2536376.0550       3977.931          33.096  
J01  37811910.759      820388.1260       -952.238          33.709  
E016288665340.040     1263679.2801      -1600.623          21.428  
> 2018  4 30 11 52 57.9996979  0 18
G02  23447507.129    -3611497.0380        879.315          37.012  
G03  23941527.326     3824440.0331      -3487.992           7.483  
G06  21165233.614      190151.8880       -297.370          36.113  
G09  23656621.662    -1449637.4930       1593.614          32.348  
G17  21389810.842     -836577.8440        677.400          37.452  
G19  21434607.330    -1185544.5490       1069.780          30.275  
G23  24789720.833     -330044.8361        237.707          13.354  
G28  21074405.493     2027170.4511      -2484.175          23.144  
G30  25437358.583     1458652.7241      -2278.047           7.000  
R02  21203600.453     1435044.5440      -1715.627          28.574  
R18  21528207.332     -466018.0640        559.241          33.718  
R16  21625417.435      208529.4150       -577.677          24.153  
R15  22060559.293     3855325.4600      -3800.393          29.090  
R17  21702104.046      890406.8961       -795.448          20.822  
R03  20317886.420    -2053835.2070       2034.393          41.703  
R04  23201232.121    -2540353.8810       3977.691          34.056  
J01  37812091.534      821340.7160       -952.518          33.599  
E016588458095.130     1265277.2631      -1594.129          21.582  
> 2018  4 30 11 52 58.9996979  0 18
G02  23447345.241    -3612376.4930        879.553          36.950  
G03  23942191.066     3827922.6981      -3491.043           7.000  
G06  21165281.281      190449.2420       -297.533          36.138  
G09  23656326.066    -1451231.1090       1593.383          33.842  
G17  21389684.330     -837255.3230        677.168          38.159  
G19  21434408.268    -1186614.4160       1069.868          29.828  
G23  24789662.374     -330287.8211        237.495          15.105  
G28  21074872.569     2029653.4801      -2486.474          23.507  
G30  25437792.083     1460928.8411      -2278.047           7.000  
R02  21203893.350     1436759.8720      -1715.437          28.109  
R18  21528114.097     -466577.5780        559.451          33.984  
R16  21625561.036      209107.4880       -577.736          24.003  
R15  22061236.224     3859125.9790      -3800.448          27.930  
R17  21702317.498      891199.9141       -795.641          20.303  
R03  20317504.484    -2055869.3790       2033.942          41.216  
R04  23200487.437    -2544331.9970       3978.072          35.145  
J01  37812274.107      822293.1760       -952.668          33.546  
E016888250861.320     1266881.7231      -1590.105          22.092  
> 2018  4 30 11 52 59.9996979  0 18
G02  23447174.059    -3613255.9750        879.456          37.078  
G03  23942855.106     3831411.6601      -3486.635           7.538  
G06  21165341.239      190746.6370       -297.501          35.633  
G09  23656014.882    -1452824.7840       1593.672          34.541  
G17  21389555.419     -837932.8640        677.660          37.823  
G19  21434214.302    -1187684.3880       1069.669          31.572  
G23  24789621.902     -330524.7551        238.063          19.068  
G28  21075356.135     2032136.8220      -2483.496          24.965  
G30  25438225.583     1463204.3081      -2276.095           7.000  
R02  21204190.744     1438475.9810      -1716.613          27.352  
R18  21528009.769     -467137.4220        559.896          34.764  
R16  21625674.057      209686.1861       -578.298          23.990  
R15  22061956.925     3862926.6170      -3801.169          27.244  
R17  21702479.686      891994.0571       -786.332          19.560  
R03  20317123.748    -2057903.0720       2033.415          41.686  
R04  23199750.247    -2548310.2960       3978.141          35.549  
J01  37812451.884      823245.4660       -952.117          33.550  
E017188043618.516     1268482.2691      -1602.514          21.122  
> 2018  4 30 11 53  0.9996979  0 18
G02  23447001.679    -3614135.2920        879.196          37.927  
G03  23943519.147     3834896.3901      -3487.235           9.361  
G06  21165397.001      191044.1540       -297.595          35.795  
G09  23655724.383    -1454418.3300       1593.584          34.440  
G17  21389421.112     -838610.3040        677.424          38.537  
G19  21434006.246    -1188754.3320       1069.733          32.554  
G23  24789582.329     -330762.7061        237.226          18.108  
G28  21075831.006     2034620.5960      -2483.898          26.112  
G30  25438658.483     1465479.2131      -2275.120           7.000  
R02  21204502.229     1440192.8970      -1717.651          28.085  
R18  21527914.135     -467697.3700        560.119          35.839  
R16  21625780.184      210265.5541       -584.289          23.296  
R15  22062671.630     3866727.2870      -3800.753          27.213  
R17  21702628.683      892776.8011       -788.101          19.369  
R03  20316732.519    -2059936.1190       2032.639          41.638  
R04  23198997.168    -2552288.5690       3978.120          35.595  
J01  37812644.651      824197.8160       -952.131          34.710  
E017487836340.030     1270087.7191      -1604.465          20.083  
> 2018  4 30 11 53  1.9996979  0 18
G02  23446836.793    -3615014.4820        879.037          38.425  
G03  23944182.887     3838384.3581      -3485.913          10.616  
G06  21165459.957      191341.9240       -298.044          36.882  
G09  23655414.397    -1456011.7780       1593.250          34.647  
G17  21389302.994     -839287.5880        677.101          39.249  
G19  21433812.281    -1189824.1270       1069.772          34.322  
G23  24789532.264     -330999.7291        237.347          15.195  
G28  21076304.378     2037104.8810      -2484.526          26.511  
G30  25439092.283     1467754.4991      -2275.120           7.000  
R02  21204840.394     1441910.5200      -1717.911          29.126  
R18  21527811.606     -468257.3760        559.900          37.434  
R16  21625930.080      210845.6740       -580.519          23.998  
R15  22063409.120     3870528.2240      -3800.990          27.419  
R17  21702758.493      893564.0431       -788.200          18.634  
R03  20316349.084    -2061968.4940       2031.869          42.485  
R04  23198251.884    -2556266.9240       3978.080          36.662  
J01  37812822.128      825150.2450       -952.787          35.462  
E017787629112.210     1271693.1761      -1605.974          20.807  
> 2018  4 30 11 53  2.9996979  0 18
G02  23446667.410    -3615893.3090        878.760          38.522  
G03  23944828.640     3841874.9921      -3485.659          12.013  
G06  21165516.918      191640.0320       -298.263          37.590  
G09  23655116.703    -1457604.9470       1593.054          34.786  
G17  21389172.284     -839964.5830        676.838          39.520  
G19  21433611.420    -1190893.6280       1069.320          35.256  
G23  24789494.190     -331236.8961        236.671          15.353  
G28  21076767.258     2039589.7500      -2485.047          27.170  
G30  25439524.883     1470028.6511      -2275.120           7.000  
R02  21205158.174     1443629.1690      -1718.913          30.186  
R18  21527706.079     -468817.3060        559.913          37.885  
R16  21626007.726      211426.8640       -582.399          23.230  
R15  22064131.020     3874329.5670      -3801.778          27.863  
R17  21702864.320      894356.0031       -788.503          19.264  
R03  20315966.549    -2064000.0500       2031.120          42.134  
R04  23197513.196    -2560245.1380       3978.110          37.099  
J01  37813006.500      826102.8490       -952.541          35.550  
E018087421870.010     1273299.2211      -1615.410          21.053  
> 2018  4 30 11 53  3.9996979  0 18
G02  23446495.929    -3616771.7720        878.302          38.577  
G03  23945502.873     3845360.5991      -3487.083          12.972  
G06  21165578.375      191938.5730       -298.818          38.443  
G09  23654809.116    -1459197.7820       1592.825          34.901  
G17  21389046.072     -840641.2410        676.395          39.727  
G19  21433406.661    -1191962.8230       1069.282          34.372  
G23  24789449.821     -331472.8461        235.117          14.841  
G28  21077260.716     2042075.3660      -2485.621          27.665  
G30  25439958.683     1472302.9481      -2274.144           7.000  
R02  21205497.240     1445348.8350      -1720.147          30.287  
R18  21527597.554     -469377.0920        559.643          37.863  
R16  21626153.725      212008.7091       -582.919          23.950  
R15  22064847.524     3878131.2450      -3802.285          27.586  
R17  21702978.840      895149.6601       -792.349          20.908  
R03  20315592.708    -2066030.7320       2030.040          42.122  
R04  23196768.811    -2564223.1500       3977.760          37.004  
J01  37813187.875      827055.7350       -953.147          35.371  
E018387214649.380     1274911.9871      -1603.855          20.953  
> 2018  4 30 11 53  4.9996979  0 18
G02  23446333.741    -3617649.8780        878.110          38.312  
G03  23946173.209     3848849.2461      -3488.184          14.402  
G06  21165633.237      192237.4980       -299.069          38.391  
G09  23654508.425    -1460790.3270       1592.475          35.317  
G17  21388919.559     -841317.5630        676.279          40.074  
G19  21433211.796    -1193031.7150       1068.995          35.333  
G23  24789402.454     -331701.9601        234.898          14.395  
G28  21077726.893     2044561.6850      -2486.570          27.440  
G30  25440391.284     1474577.0861      -2274.144           7.000  
R02  21205821.615     1447069.4000      -1720.941          30.049  
R18  21527492.627     -469936.7590        559.628          37.147  
R16  21626234.369      212591.7231       -581.210          23.764  
R15  22065554.135     3881933.3500      -3801.875          27.664  
R17  21703111.049      895943.3841       -795.361          19.730  
R03  20315212.271    -2068060.5870       2029.495          42.171  
R04  23196011.236    -2568200.9940       3977.763          36.618  
J01  37813375.545      828008.8480       -953.192          35.460  
E018687007402.680     1276514.3111      -1598.642          18.676  
> 2018  4 30 11 53  5.9996979  0 18
G02  23446160.461    -3618527.6090        877.505          38.599  
G03  23946836.650     3852337.3541      -3489.578          18.508  
G06  21165696.793      192536.8510       -299.654          38.091  
G09  23654207.133    -1462382.5600       1591.916          34.983  
G17  21388790.948     -841993.5530        675.793          39.722  
G19  21433002.241    -1194100.1980       1068.364          36.321  
G23  24789352.388     -331934.2991        233.760          13.826  
G28  21078181.379     2047048.7000      -2487.519          27.351  
G30  25440825.083     1476850.6301      -2274.144           7.000  
R02  21206122.907     1448790.9470      -1722.253          30.578  
R18  21527374.209     -470496.3180        559.287          37.730  
R16  21626302.722      213175.5901       -584.523          24.774  
R15  22066264.643     3885735.8680      -3802.880          27.440  
R17  21703245.356      896737.1511       -793.124          22.086  
R03  20314840.229    -2070089.6080       2028.549          42.787  
R04  23195286.038    -2572178.7100       3977.432          37.720  
J01  37813547.925      828962.2020       -953.411          35.698  
E018986800178.760     1278121.9581      -1605.441          18.141  
> 2018  4 30 11 53  6.9996979  0 18
G02  23445999.772    -3619404.7640        877.001          38.265  
G03  23947520.776     3855826.0761      -3490.061          20.133  
G06  21165747.158      192836.7770       -299.904          37.574  
G09  23653904.343    -1463974.2840       1591.448          35.879  
G17  21388659.339     -842668.9790        675.447          39.779  
G19  21432806.477    -1195168.2520       1068.043          36.492  
G23  24789317.613     -332179.6231        234.866          13.004  
G28  21078646.657     2049536.5550      -2487.903          27.200  
G30  25441257.684     1479123.5841      -2273.168           7.000  
R02  21206460.173     1450513.6270      -1723.002          30.650  
R18  21527271.380     -471055.5480        559.352          38.095  
R16  21626427.736      213760.7680       -585.566          25.003  
R15  22066949.669     3889538.9520      -3803.030          27.245  
R17  21703348.784      897531.3811       -795.506          24.488  
R03  20314455.895    -2072117.5880       2027.678          42.858  
R04  23194535.357    -2576156.0320       3977.373          37.836  
J01  37813736.795      829916.0720       -953.956          35.705  
E019286592943.750     1279730.3381      -1604.770          18.489  
> 2018  4 30 11 53  7.9996979  0 18
G02  23445832.788    -3620281.7060        876.988          37.538  
G03  23948173.724     3859315.4021      -3490.434          20.396  
G06  21165802.020      193136.9790       -300.315          37.227  
G09  23653602.452    -1465565.8260       1591.510          35.542  
G17  21388532.527     -843344.2240        675.085          39.902  
G19  21432596.322    -1196236.0830       1067.837          36.189  
G23  24789273.243     -332417.2041        236.889          12.143  
G28  21079123.926     2052024.9930      -2488.625          25.353  
G30  25441690.284     1481396.9181      -2273.168           7.000  
R02  21206786.048     1452237.2010      -1723.975          29.675  
R18  21527170.650     -471614.7590        559.277          37.251  
R16  21626567.439      214346.7070       -586.256          25.558  
R15  22067707.244     3893342.2030      -3803.360          26.027  
R17  21703561.037      898325.6531       -796.175          24.924  
R03  20314076.358    -2074144.7930       2026.803          42.098  
R04  23193778.981    -2580133.3050       3977.384          36.790  
J01  37813919.968      830870.0230       -953.971          35.093  
E019586385709.930     1281341.3871      -1613.444          20.733  
> 2018  4 30 11 53  8.9996979  0 18
G02  23445661.906    -3621158.4380        876.683          37.367  
G03  23948853.654     3862806.7141      -3491.298          20.279  
G06  21165873.071      193437.4270       -300.781          37.187  
G09  23653289.768    -1467157.1980       1591.612          34.995  
G17  21388401.518     -844019.3190        674.977          39.251  
G19  21432400.858    -1197303.7750       1067.659          36.188  
G23  24789229.773     -332652.1301        234.783          11.903  
G28  21079598.797     2054513.8681      -2486.418          23.691  
G30  25442122.885     1483669.1191      -2273.168           7.000  
R02  21207105.326     1453961.6100      -1724.457          28.988  
R18  21527061.825     -472174.0450        559.334          36.405  
R16  21626653.779      214933.4461       -586.105          24.667  
R15  22068380.278     3897145.7121      -3803.291          24.573  
R17  21703696.843      899119.8991       -794.575          25.641  
R03  20313691.724    -2076171.2950       2026.132          41.720  
R04  23193051.085    -2584110.5680       3977.435          36.977  
J01  37814092.349      831824.0410       -954.025          34.650  
E019886178471.625     1282947.9151      -1601.065          18.271  
> 2018  4 30 11 53  9.9996979  0 18
G02  23445494.322    -3622035.0440        876.476          37.545  
G03  23949523.390     3866298.3641      -3490.750          18.390  
G06  21165919.539      193738.0110       -300.599          36.731  
G09  23652994.173    -1468748.4750       1591.162          35.111  
G17  21388266.911     -844694.3050        674.918          39.128  
G19  21432203.594    -1198371.3630       1067.497          36.309  
G23  24789185.704     -332887.4971        234.463          11.043  
G28  21080070.671     2057003.4151      -2493.190          22.177  
G30  25442557.284     1485942.9981      -2272.193           7.000  
R02  21207417.710     1455686.9360      -1725.519          27.847  
R18  21526970.389     -472733.4510        559.499          35.929  
R16  21626760.805      215520.8920       -587.425          24.153  
R15  22069155.542     3900949.4701      -3801.448          24.069  
R17  21703806.567      899914.0850       -794.123          27.205  
R03  20313311.887    -2078197.1630       2025.369          41.414  
R04  23192304.002    -2588087.8470       3977.185          36.965  
J01  37814283.316      832778.1100       -954.156          34.645  
E010185971249.805     1284557.9861      -1592.239          19.582  
> 2018  4 30 11 53 10.9996979  0 18
G02  23445331.535    -3622911.6830        876.575          37.201  
G03  23950213.212     3869789.9041      -3492.158          18.885  
G06  21165982.495      194038.6360       -300.736          36.647  
G09  23652691.682    -1470339.8950       1591.679          35.172  
G17  21388140.698     -845369.3350        674.887          38.420  
G19  21432007.830    -1199439.0510       1067.803          36.228  
G23  24789142.234     -333116.6601        233.469          10.665  
G28  21080532.651     2059493.0441      -2492.557          22.546  
G30  25442989.585     1488216.5921      -2274.144           7.000  
R02  21207716.603     1457412.7820      -1725.819          26.623  
R18  21526843.277     -473293.1130        559.484          35.789  
R16  21626871.428      216108.9211       -587.813          22.937  
R15  22069803.693     3904753.2640      -3803.538          24.777  
R17  21703948.069      900708.2841       -793.176          25.573  
R03  20312931.750    -2080222.6230       2025.205          41.702  
R04  23191559.917    -2592065.3850       3977.433          36.843  
J01  37814466.190      833732.0220       -953.898          34.480  
E010485764007.300     1286166.2961      -1587.178          19.675  
> 2018  4 30 11 53 11.9996979  0 18
G02  23445165.450    -3623788.3370        876.654          37.123  
G03  23950874.854     3873281.4181      -3492.898          19.999  
G06  21166030.462      194339.3180       -300.909          36.179  
G09  23652394.888    -1471931.3310       1591.493          35.029  
G17  21388011.188     -846044.4450        675.227          38.305  
G19  21431796.476    -1200506.7830       1067.570          36.065  
G23  24789097.565     -333347.9351        236.065          10.400  
G28  21080987.136     2061983.0011      -2491.085          22.857  
G30  25443422.485     1490489.9131      -2273.168           7.000  
R02  21208085.048     1459139.2321      -1727.050          25.834  
R18  21526745.844     -473853.1000        560.064          36.458  
R16  21626974.557      216697.4431       -590.954          23.259  
R15  22070512.402     3908557.0911      -3803.927          25.057  
R17  21704087.473      901502.1461       -796.150          24.139  
R03  20312557.909    -2082247.6590       2024.613          41.531  
R04  23190807.138    -2596043.1550       3977.774          36.610  
J01  37814651.162      834685.8020       -953.777          35.573  
E010785556782.480     1287767.9361      -1615.654          21.635  
> 2018  4 30 11 53 12.9996979  0 18
G02  23444999.065    -3624664.9590        876.546          36.782  
G03  23951529.301     3876773.2101      -3492.967          18.838  
G06  21166084.425      194639.9520       -300.480          35.302  
G09  23652095.395    -1473522.8040       1591.511          34.332  
G17  21387877.780     -846719.5340        675.103          37.719  
G19  21431594.116    -1201574.5610       1067.784          35.919  
G23  24789220.180     -333582.1481        231.256          10.213  
G28  21081450.016     2064473.2891      -2487.165          23.122  
G30  25443855.086     1492763.0761      -2273.168           7.000  
R02  21208340.771     1460866.4331      -1730.301          24.870  
R18  21526636.420     -474413.2480        560.403          36.506  
R16  21627098.971      217286.6361       -590.191          23.317  
R15  22071276.273     3912360.7801      -3803.579          25.637  
R17  21704244.264      902295.9001       -796.029          23.453  
R03  20312183.468    -2084272.0730       2024.205          42.092  
R04  23190074.446    -2600021.0640       3977.842          36.527  
J01  37814827.440      835639.4760       -953.214          35.643  
E011085349550.760     1289379.1391      -1623.550          20.890  
> 2018  4 30 11 53 13.9996979  0 18
G02  23444832.980    -3625541.6140        876.663          36.895  
G03  23952191.543     3880264.9901      -3492.852          19.280  
G06  21166147.081      194940.6610       -300.758          35.278  
G09  23651791.705    -1475114.3960       1591.681          33.889  
G17  21387754.266     -847394.6550        674.990          38.211  
G19  21431389.957    -1202642.3780       1067.603          36.279  
G23  24789134.439     -333817.1451        230.306          10.654  
G28  21081927.585     2066963.8451      -2492.156          22.936  
G30  25444286.487     1495035.6431      -2273.168           7.000  
R02  21208694.826     1462594.1350      -1728.652          25.358  
R18  21526543.784     -474973.6550        560.597          36.742  
R16  21627198.502      217876.4560       -590.317          24.226  
R15  22071955.004     3916164.6070      -3804.076          26.184  
R17  21704457.117      903089.5421       -793.248          21.756  
R03  20311816.822    -2086296.1010       2023.421          42.183  
R04  23189325.864    -2603999.2320       3978.001          37.067  
J01  37815008.514      836593.0670       -953.717          36.165  
E011385142320.840     1290992.1661      -1611.340          19.911  
> 2018  4 30 11 53 14.9996979  0 18
G02  23444657.901    -3626418.4040        876.815          36.801  
G03  23952850.187     3883756.6371      -3492.346          20.406  
G06  21166194.149      195241.6980       -302.191          34.806  
G09  23651471.827    -1476705.9900       1590.927          34.083  
G17  21387621.458     -848070.0050        675.517          37.470  
G19  21431183.400    -1203710.1800       1067.073          36.693  
G23  24789055.894     -334044.6591        230.834          10.824  
G28  21082419.245     2069454.9720      -2492.032          24.017  
G30  25444719.088     1497307.6221      -2272.193           7.000  
R02  21209022.499     1464322.0550      -1727.814          26.643  
R18  21526443.353     -475534.4110        560.938          36.914  
R16  21627317.220      218466.7451       -591.467          24.190  
R15  22072666.111     3919968.0860      -3803.304          26.846  
R17  21704520.373      903882.8981       -790.539          22.983  
R03  20311437.584    -2088319.5530       2022.626          42.199  
R04  23188599.766    -2607977.7760       3978.878          37.264  
J01  37815187.490      837546.5410       -954.321          36.002  
E011684935089.125     1292604.9121      -1595.197          18.989  
> 2018  4 30 11 53 15.9996979  0 18
G02  23444498.711    -3627297.9310        878.697          35.907  
G03  23953496.539     3887248.6721      -3492.153          18.630  
G06  21166252.009      195542.6030       -301.198          36.839  
G09  23651170.535    -1478298.5870       1592.358          37.977  
G17  21387504.838     -848748.2531        677.793          36.280  
G19  21430961.554    -1204779.5660       1068.738          37.580  
G23  24789015.122     -334279.2191        231.628          12.342  
G28  21082910.305     2071946.5871      -2489.823          20.947  
G30  25445151.688     1499579.2141      -2272.193           7.000  
R02  21209365.462     1466045.3081      -1726.283          27.000  
R18  21526323.736     -476097.3861        562.502          33.530  
R16  21627381.375      219061.3331       -589.514          21.502  
R15  22073393.408     3923767.2861      -3798.250          26.248  
R17  21704741.020      904678.5061       -794.827          24.325  
R03  20311055.349    -2090342.5320       2022.326          40.967  
R04  23187859.579    -2611959.3720       3981.363          37.249  
J01  37815367.066      838498.5561       -949.346          33.897  
E011984727831.630     1294205.0291      -1602.544          22.928  
> 2018  4 30 11 53 16.9996979  0 18
G02  23444323.932    -3628178.7590        879.839          37.569  
G03  23954161.479     3890736.9041      -3491.950          18.577  
G06  21166305.072      195843.7310       -302.004          40.153  
G09  23650870.443    -1479891.6001       1594.267          36.759  
G17  21387380.724     -849424.5751        679.122          36.796  
G19  21430768.787    -1205850.8421       1071.270          37.153  
G23  24788938.975     -334506.2381        230.077          13.943  
G28  21083385.476     2074436.5311      -2490.343          20.452  
G30  25445583.089     1501849.2551      -2271.217           7.000  
R02  21209697.632     1467767.6121      -1726.095          27.860  
R18  21526221.207     -476660.2311        560.709          34.145  
R16  21627508.188      219648.3181       -589.106          24.195  
R15  22074116.507     3927565.8581      -3795.661          24.585  
R17  21704829.459      905472.5421       -798.042          25.891  
R03  20310665.019    -2092365.1890       2021.180          40.706  
R04  23187090.012    -2615942.2550       3982.108          35.581  
J01  37815547.841      839451.9431       -949.871          33.894  
E012284520603.810     1295817.6101      -1604.617          19.934  
> 2018  4 30 11 53 17.9996979  0 18
G02  23444157.248    -3629059.4810        880.296          37.663  
G03  23954871.388     3894227.8011      -3492.845          17.443  
G06  21166365.630      196145.3591       -301.649          38.093  
G09  23650564.955    -1481484.3910       1592.695          37.221  
G17  21387256.610     -850097.1031        675.841          33.045  
G19  21430560.732    -1206918.7651       1066.280          33.327  
G23  24788892.507     -334748.2421        231.246          14.925  
G28  21083862.146     2076930.3891      -2490.810          19.626  
G30  25446015.690     1504118.8821      -2270.242           7.000  
R02  21210022.307     1469495.9401      -1726.409          28.184  
R18  21526113.881     -477225.5731        561.963          34.298  
R16  21627646.092      220235.5360       -586.994          28.802  
R15  22074791.640     3931363.4011      -3802.609          24.268  
R17  21705024.624      906271.5201       -790.789          23.657  
R03  20310295.675    -2094387.0531       2022.499          40.780  
R04  23186383.401    -2619925.2641       3983.296          33.314  
J01  37815736.111      840405.2821       -952.030          34.453  
E012584313393.690     1297422.1851      -1606.447          19.104  
> 2018  4 30 11 53 18.9996979  0 18
G02  23443987.865    -3629940.1980        880.488          37.452  
G03  23955538.426     3897716.8381      -3494.175          17.788  
G06  21166416.295      196447.2711       -299.781          36.486  
G09  23650272.057    -1483077.1211       1592.158          36.143  
G17  21387118.406     -850771.5271        676.936          33.444  
G19  21430359.871    -1207990.0681       1069.958          35.611  
G23  24788853.534     -334973.4111        231.909          15.000  
G28  21084343.912     2079420.5051      -2492.869          22.746  
G30  25446447.091     1506386.9721      -2269.266           7.000  
R02  21210311.307     1471223.3901      -1729.159          27.761  
R18  21526023.344     -477787.8081        561.302          31.509  
R16  21627759.714      220823.2521       -586.817          26.805  
R15  22075502.148     3935161.4411      -3800.082          22.560  
R17  21705187.411      907069.1391       -793.667          23.544  
R03  20309925.731    -2096408.3150       2021.442          40.896  
R04  23185661.501    -2623908.4051       3979.028          29.703  
J01  37815906.693      841356.0261       -952.197          32.509  
E012884106131.390     1299026.3821      -1608.809          20.057  
> 2018  4 30 11 53 19.9996979  0 18
G02  23443819.082    -3630820.0810        880.397          35.010  
G03  23956200.068     3901203.6421      -3494.701          18.628  
G06  21166483.149      196749.7250       -302.033          38.882  
G09  23649957.275    -1484669.5460       1592.962          34.636  
G17  21386995.191     -851449.3251        675.472          33.710  
G19  21430155.712    -1209059.5521       1067.725          36.250  
G23  24788825.653     -335205.0711        230.353          15.085  
G28  21084807.092     2081921.3491      -2494.563          22.517  
G30  25446878.493     1508655.4151      -2268.290           7.000  
R02  21210662.964     1472957.7411      -1732.528          26.726  
R18  21525923.513     -478349.7621        562.124          29.745  
R16  21627855.947      221412.6151       -590.697          24.045  
R15  22076238.438     3938965.7031      -3803.169          20.788  
R17  21705331.312      907859.4591       -793.691          25.136  
R03  20309535.101    -2098428.4930       2020.136          39.931  
R04  23184920.713    -2627889.1531       3975.959          27.267  
J01  37816089.866      842303.1251       -952.885          31.972  
E013183898880.190     1300637.0081      -1606.187          18.955  
> 2018  4 30 11 53 20.9996979  0 18
G02  23443652.997    -3631699.8070        880.630          35.929  
G03  23956906.679     3904697.0521      -3495.304          19.053  
G06  21166537.411      197052.9710       -303.925          37.618  
G09  23649658.982    -1486261.2001       1591.896          34.603  
G17  21386862.683     -852126.6881        676.548          32.650  
G19  21429959.348    -1210124.8741       1068.681          34.962  
G23  24788789.078     -335437.1871        230.388          18.387  
G28  21085269.971     2084417.4661      -2496.160          22.853  
G30  25447310.194     1510923.7001      -2268.290           7.000  
R02  21211006.826     1474692.5661      -1731.851          26.302  
R18  21525816.188     -478911.8611        565.477          33.022  
R16  21627962.673      222002.3011       -591.157          23.509  
R15  22076891.386     3942771.2871      -3804.060          21.397  
R17  21705480.908      908651.0931       -793.937          25.611  
R03  20309162.160    -2100447.9560       2020.019          39.591  
R04  23184181.125    -2631870.0061       3981.711          29.237  
J01  37816278.135      843253.3281       -951.995          29.992  
E013483691646.080     1302248.5811      -1618.352          19.347  
> 2018  4 30 11 53 21.9996979  0 18
G02  23443487.511    -3632579.2151        876.873          36.441  
G03  23957565.323     3908188.4201      -3494.899          16.806  
G06  21166599.468      197355.8531       -303.376          35.259  
G09  23649349.596    -1487853.0571       1591.027          33.922  
G17  21386728.676     -852810.0831        675.902          33.181  
G19  21429755.189    -1211189.6801       1067.789          36.556  
G23  24788724.623     -335662.3421        230.817          18.284  
G28  21085730.752     2086910.9911      -2496.894          24.699  
G30  25447741.595     1513192.1561      -2268.290           7.000  
R02  21211293.427     1476425.0681      -1729.518          28.244  
R18  21525706.464     -479471.6341        563.895          31.042  
R16  21628102.376      222593.7230       -590.688          33.462  
R15  22077636.670     3946572.3421      -3804.951          22.241  
R17  21705588.834      909449.1671       -795.673          25.246  
R03  20308797.612    -2102466.0951       2018.433          38.844  
R04  23183479.611    -2635848.5321       3981.779          26.097  
J01  37816457.711      844205.2311       -954.407          31.811  
E013783484431.450     1303860.9331      -1602.758          18.437  
> 2018  4 30 11 53 22.9996979  0 18
G02  23443316.030    -3633458.0891        880.776          37.284  
G03  23958161.310     3911678.0081      -3496.368          18.294  
G06  21166645.336      197659.7461       -303.806          35.349  
G09  23649049.803    -1489444.7180       1591.236          37.726  
G17  21386600.964     -853496.7131        679.402          35.677  
G19  21429543.236    -1212258.1841       1066.344          37.191  
G23  24788672.159     -335891.8391        229.737          19.340  
G28  21086213.418     2089406.2111      -2496.704          25.225  
G30  25448172.996     1515459.4791      -2268.290           7.000  
R02  21211636.989     1478152.5901      -1732.691          26.424  
R18  21525604.234     -480030.5611        556.199          30.634  
R16  21628187.817      223188.0711       -597.179          30.078  
R15  22078368.164     3950369.0871      -3803.314          19.048  
R17  21705788.495      910243.6151       -795.333          24.675  
R03  20308421.372    -2104484.0920       2018.146          40.519  
R04  23182666.874    -2639827.5431       3979.866          28.063  
J01  37816645.981      845156.9851       -954.293          33.396  
E014083277197.040     1305476.9831      -1597.285          16.570  
> 2018  4 30 11 53 23.9996979  0 18
G02  23443139.752    -3634334.5111        877.829          34.405  
G03  23958842.738     3915170.7731      -3496.509          16.839  
G06  21166706.194      197964.0110       -304.915          37.593  
G09  23648751.510    -1491035.4931       1589.104          36.474  
G17  21386472.653     -854172.5611        674.446          38.196  
G19  21429352.568    -1213322.3601       1067.867          36.284  
G23  24788608.603     -336120.4081        228.996          17.547  
G28  21086683.193     2091903.8771      -2499.081          29.467  
G30  25448604.398     1517726.1791      -2267.315           7.000  
R02  21211961.365     1479893.1981      -1736.918          29.265  
R18  21525484.018     -480587.0271        556.940          30.203  
R16  21628318.527      223792.5501       -595.738          25.826  
R15  22079044.196     3954167.5211      -3805.758          20.743  
R17  21705907.813      911032.3681       -790.724          26.902  
R03  20308037.338    -2106500.5850       2015.719          39.905  
R04  23181925.787    -2643808.7821       3977.388          27.881  
J01  37816822.559      846109.6631       -952.633          32.933  
E014383069968.320     1307079.8251      -1611.706          20.391  
> 2018  4 30 11 53 24.9996979  0 18
G02  23442970.669    -3635213.1981        877.431          35.227  
G03  23959547.251     3918670.8441      -3496.522          18.353  
G06  21166764.654      198263.3001       -306.114          34.330  
G09  23648447.820    -1492626.2471       1590.146          36.976  
G17  21386339.845     -854848.8130        675.686          41.052  
G19  21429136.118    -1214384.5391       1066.136          35.873  
G23  24788573.228     -336347.3381        231.383          21.670  
G28  21087162.261     2094406.7501      -2499.184          33.973  
G30  25449036.099     1519993.2661      -2266.339           7.000  
R02  21212277.946     1481629.7791      -1734.425          30.851  
R18  21525396.778     -481145.2361        561.139          29.751  
R16  21628395.873      224387.1261       -596.557          25.021  
R15  22079755.303     3957969.7791      -3801.115          22.206  
R17  21706084.091      911829.1081       -794.046          27.370  
R03  20307653.304    -2108516.4071       2014.864          39.683  
R04  23181209.583    -2647787.0881       3976.906          25.120  
J01  37817007.530      847064.3491       -952.023          30.615  
E014682862725.810     1308698.1421      -1613.184          18.877  
> 2018  4 30 11 53 25.9996979  0 18
G02  23442804.284    -3636091.2761        876.711          36.535  
G03  23960193.303     3922164.5621      -3495.695          20.794  
G06  21166820.715      198568.6161       -304.912          34.842  
G09  23648144.130    -1494216.9520       1592.858          37.889  
G17  21386217.530     -855524.5321        675.950          39.224  
G19  21428930.160    -1215452.7081       1065.644          36.837  
G23  24788550.444     -336582.4441        224.020          19.875  
G28  21087635.634     2096901.6671      -2500.550          38.703  
G30  25449467.500     1522259.9941      -2267.315           7.000  
R02  21212614.612     1483370.8731      -1738.101          29.439  
R18  21525296.347     -481702.2361        561.580          29.468  
R16  21628525.983      224982.1791       -592.983          26.365  
R15  22080495.791     3961776.9931      -3805.079          19.599  
R17  21706192.616      912623.9211       -794.732          26.362  
R03  20307277.964    -2110532.1711       2015.312          38.413  
R04  23180498.775    -2651760.8141       3976.767          24.227  
J01  37817186.207      848014.4661       -950.986          29.008  
E014982655502.790     1310310.7971      -1618.703          20.628  
> 2018  4 30 11 53 26.9996979  0 18
G02  23442636.700    -3636969.1381        878.052          35.932  
G03  23960824.966     3925665.4201      -3496.551          20.624  
G06  21166879.474      198873.6391       -302.824          36.416  
G09  23647839.841    -1495807.1901       1588.122          39.549  
G17  21386085.921     -856200.8851        674.907          39.105  
G19  21428734.696    -1216516.8691       1069.779          38.231  
G23  24788515.668     -336810.7481        223.846          19.849  
G28  21088112.004     2099403.1231      -2499.391          37.999  
G30  25449898.902     1524525.1571      -2266.339           7.000  
R02  21212935.390     1485109.3921      -1736.720          29.344  
R18  21525178.829     -482260.8911        561.007          29.410  
R16  21628633.309      225578.9921       -596.667          26.952  
R15  22081201.202     3965585.6681      -3805.828          18.405  
R17  21706327.822      913420.8691       -796.086          27.770  
R03  20306908.020    -2112545.7921       2015.288          36.531  
R04  23179707.622    -2655736.7651       3973.847          24.595  
J01  37817363.684      848967.5521       -952.734          33.700  
E015282448264.484     1311924.5481      -1616.309          18.978  
> 2018  4 30 11 53 27.9996979  0 18
G02  23442473.613    -3637846.5521        877.520          35.750  
G03  23961465.922     3929165.1331      -3492.619          19.752  
G06  21166938.234      199179.6131       -306.341          37.491  
G09  23647539.149    -1497397.9850       1590.615          37.349  
G17  21385958.509     -856876.5111        674.417          39.740  
G19  21428530.537    -1217584.1491       1065.545          38.297  
G23  24788448.814     -337031.7581        224.362          21.801  
G28  21088584.177     2101903.6901      -2500.403          37.635  
G30  25450330.603     1526791.4401      -2265.364           7.000  
R02  21213269.359     1486846.5911      -1737.176          31.827  
R18  21525059.811     -482819.6621        560.835          32.999  
R16  21628745.731      226179.3081       -599.468          29.927  
R15  22081953.082     3969398.7841      -3807.458          19.225  
R17  21706511.895      914215.5501       -792.293          25.021  
R03  20306528.483    -2114559.9250       2012.973          39.025  
R04  23178930.260    -2659716.3681       3979.266          25.615  
J01  37817543.260      849921.0551       -954.596          34.280  
E015582241016.280     1313537.5851      -1607.819          20.970  
> 2018  4 30 11 53 28.9996979  0 18
G02  23442309.627    -3638722.6930        873.021          34.733  
G03  23962146.151     3932658.9581      -3491.863          18.205  
G06  21166994.595      199492.0701       -307.640          36.681  
G09  23647232.162    -1498987.6391       1589.512          38.009  
G17  21385826.301     -857551.7731        674.571          37.246  
G19  21428321.582    -1218651.8251       1066.821          37.173  
G23  24788383.459     -337254.2151        222.108          22.106  
G28  21089063.245     2104405.2550      -2502.112          37.373  
G30  25450762.304     1529057.9821      -2266.339           7.000  
R02  21213565.254     1488586.4001      -1738.978          33.031  
R18  21524965.077     -483379.5081        562.804          31.440  
R16  21628876.440      226776.7331       -600.130          29.897  
R15  22082676.781     3973207.7081      -3808.186          18.886  
R17  21706639.606      915014.2501       -794.051          25.187  
R03  20306151.344    -2116573.0800       2012.992          40.969  
R04  23178187.974    -2663699.5831       3980.784          23.907  
J01  37817727.332      850872.0461       -956.177          33.146  
E015882033782.766     1315154.5411      -1615.974          23.082  
> 2018  4 30 11 53 29.9996979  0 18
G02  23442118.059    -3639598.3191        876.148          33.685  
G03  23962801.498     3936145.6591      -3493.800          15.865  
G06  21167059.949      199797.3101       -304.784          34.043  
G09  23646931.170    -1500577.5360       1591.171          37.063  
G17  21385700.987     -858226.6201        673.281          38.102  
G19  21428123.119    -1219718.9731       1066.092          37.217  
G23  24788369.969     -337476.7231        225.687          21.956  
G28  21089533.919     2106908.1331      -2501.769          37.611  
G30  25451193.705     1531323.7201      -2266.339           7.000  
R02  21213889.330     1490322.9491      -1735.563          33.687  
R18  21524840.063     -483933.8451        561.979          31.984  
R16  21629001.154      227376.6151       -601.857          25.920  
R15  22083315.938     3977021.7001      -3810.362          20.455  
R17  21706793.999      915814.5281       -798.763          27.095  
R03  20305771.807    -2118585.1410       2012.889          40.626  
R04  23177479.265    -2667672.1051       3973.910          25.511  
J01  37817906.008      851825.6841       -956.362          34.451  
E016181826532.766     1316773.6791      -1617.392          20.863  
> 2018  4 30 11 53 30.9996979  0 18
G02  23441963.366    -3640475.2331        876.963          35.234  
G03  23963523.398     3939637.2811      -3493.028          17.644  
G06  21167113.013      200105.0911       -306.864          34.904  
G09  23646625.082    -1502167.0331       1588.084          33.620  
G17  21385573.875     -858902.0151        673.678          39.179  
G19  21427913.564    -1220785.7501       1065.704          37.232  
G23  24788291.723     -337698.8731        222.360          23.074  
G28  21090011.489     2109410.8341      -2500.820          37.824  
G30  25451625.706     1533590.7941      -2265.364           7.000  
R02  21214252.678     1492063.8751      -1738.100          31.203  
R18  21524754.922     -484494.2701        562.053          30.126  
R16  21629069.207      227973.1931       -602.862          22.788  
R15  22084012.057     3980827.8911      -3811.357          23.168  
R17  21706919.013      916609.2271       -799.439          26.008  
R03  20305394.668    -2120596.3161       2010.406          37.604  
R04  23176743.275    -2671641.7201       3976.072          23.340  
J01  37818093.978      852779.2231       -954.139          34.499  
E016481619347.516     1318387.0661      -1607.376          21.417  
> 2018  4 30 11 53 31.9996979  0 18
G02  23441780.493    -3641350.6461        876.257          31.192  
G03  23964194.333     3943130.5221      -3496.095          17.427  
G06  21167177.768      200411.0121       -304.355          34.701  
G09  23646331.885    -1503756.9911       1590.729          35.936  
G17  21385440.168     -859577.1030        674.534          38.736  
G19  21427717.200    -1221852.8830       1067.650          36.424  
G23  24788297.719     -337926.5561        223.521          22.458  
G28  21090490.557     2111913.7131      -2503.393          39.235  
G30  25452057.108     1535857.5351      -2267.315           7.000  
R02  21214535.982     1493801.4671      -1739.560          31.207  
R18  21524636.204     -485057.5771        561.608          31.457  
R16  21629179.231      228580.1971       -612.081          20.723  
R15  22084776.827     3984634.8161      -3811.136          22.281  
R17  21707108.182      917407.6701       -799.932          26.954  
R03  20305019.328    -2122608.3841       2011.216          38.551  
R04  23176016.278    -2675619.2421       3975.461          23.294  
J01  37818268.158      853733.1790       -954.211          35.737  
E016781412114.900     1320001.5321      -1610.136          20.809  
> 2018  4 30 11 53 32.9996979  0 18
G02  23441630.597    -3642229.3861        873.134          32.802  
G03  23964843.684     3946631.5741      -3497.059          19.222  
G06  21167234.728      200716.4041       -305.672          33.765  
G09  23646029.095    -1505346.7791       1590.926          34.731  
G17  21385315.454     -860251.8800        674.258          39.409  
G19  21427514.241    -1222919.6011       1066.077          36.459  
G23  24788237.161     -338146.6861        222.199          22.623  
G28  21090961.231     2114416.9321      -2503.446          38.819  
G30  25452488.509     1538122.6981      -2266.339           7.000  
R02  21214874.748     1495539.0091      -1739.780          30.618  
R18  21524542.369     -485622.0321        562.536          32.238  
R16  21629300.947      229194.0031       -610.596          19.535  
R15  22085512.218     3988444.7621      -3807.317          19.237  
R17  21707195.421      918212.1401       -794.587          25.799  
R03  20304647.585    -2124619.1000       2011.181          39.965  
R04  23175339.047    -2679592.1211       3973.484          23.204  
J01  37818451.031      854686.5160       -953.054          35.137  
E017081204886.484     1321618.3871      -1614.998          19.435  
> 2018  4 30 11 53 33.9996979  0 18
G02  23441455.218    -3643106.0191        877.627          35.056  
G03  23965500.529     3950134.5131      -3498.023          18.196  
G06  21167294.687      201022.8291       -306.232          34.768  
G09  23645719.409    -1506936.6971       1589.942          34.720  
G17  21385188.042     -860927.4900        674.934          38.630  
G19  21427308.283    -1223986.5830       1066.962          37.343  
G23  24788164.911     -338367.3441        218.977          26.458  
G28  21091445.096     2116920.9051      -2504.526          40.314  
G30  25452919.610     1540387.4471      -2265.364           7.000  
R02  21215212.014     1497277.5341      -1739.865          29.079  
R18  21524423.951     -486179.7741        561.398          29.550  
R16  21629413.669      229816.2991       -618.043          17.284  
R15  22086227.223     3992250.8691      -3810.075          19.002  
R17  21707362.106      919007.2971       -790.200          29.241  
R03  20304276.742    -2126628.9270       2008.447          39.999  
R04  23174567.980    -2683567.1151       3982.493          21.614  
J01  37818636.303      855639.4601       -951.500          32.047  
E017380997646.670     1323239.1641      -1618.306          20.714  
> 2018  4 30 11 53 34.9996979  0 18
G02  23441278.041    -3643982.7061        874.954          32.644  
G03  23966126.196     3953629.8981      -3497.776          18.642  
G06  21167338.457      201334.0601       -307.318          34.855  
G09  23645434.606    -1508524.4921       1587.058          32.196  
G17  21385056.134     -861602.8140        674.326          37.553  
G19  21427107.722    -1225053.5650       1067.765          38.314  
G23  24788137.330     -338589.3571        219.503          26.211  
G28  21091915.771     2119424.9161      -2503.734          39.576  
G30  25453351.611     1542652.5831      -2264.388           7.000  
R02  21215530.694     1499018.2041      -1743.396          31.993  
R18  21524317.525     -486742.5391        562.184          29.489  
R16  21629514.399      230433.7981       -612.813          21.644  
R15  22086918.245     3996056.8261      -3811.257          21.060  
R17  21707517.099      919807.2461       -798.626          30.172  
R03  20303899.603    -2128638.5291       2008.395          37.857  
R04  23173724.065    -2687559.9691       3986.431          23.069  
J01  37818818.277      856592.4341       -953.494          32.224  
E017680790400.870     1324853.6381      -1625.608          21.154  
> 2018  4 30 11 53 35.9996979  0 18
G02  23441123.948    -3644859.3110        876.303          36.212  
G03  23966835.505     3957126.3371      -3501.801          21.198  
G06  21167411.006      201640.9801       -306.529          33.897  
G09  23645115.627    -1510107.5531       1589.707          33.957  
G17  21384933.519     -862277.7261        672.426          35.076  
G19  21426901.465    -1226120.5380       1067.464          37.538  
G23  24788079.769     -338816.8751        221.111          26.799  
G28  21092394.539     2121929.1631      -2504.057          35.736  
G30  25453783.312     1544919.6601      -2265.364           7.000  
R02  21215859.566     1500758.3581      -1744.783          30.396  
R18  21524230.585     -487306.2501        561.771          30.442  
R16  21629640.312      231039.3291       -599.658          22.718  
R15  22087598.174     3999865.4091      -3812.399          20.822  
R17  21707658.900      920609.2991       -799.674          29.633  
R03  20303541.950    -2130646.8421       2009.276          36.805  
R04  23173035.441    -2691547.0601       3979.876          24.127  
J01  37818996.653      857544.0581       -955.080          31.950  
E017980583180.840     1326472.1761      -1616.005          21.846  
> 2018  4 30 11 53 36.9996979  0 18
G02  23440947.670    -3645735.6570        875.936          38.375  
G03  23967495.348     3960618.2361      -3495.445          20.361  
G06  21167461.971      201948.2071       -307.364          36.170  
G09  23644816.734    -1511697.7421       1590.984          32.474  
G17  21384809.105     -862952.4661        673.836          37.049  
G19  21426703.302    -1227187.2401       1064.993          35.667  
G23  24788074.973     -339042.8041        226.508          24.717  
G28  21092873.907     2124433.9230      -2504.045          37.518  
G30  25454216.213     1547187.3861      -2267.315           7.000  
R02  21216184.241     1502505.1771      -1744.677          29.451  
R18  21524113.067     -487870.3301        562.359          31.207  
R16  21629738.044      231632.2021       -600.732          21.924  
R15  22088369.240     4003676.7791      -3810.826          22.228  
R17  21707855.265      921408.8731       -797.052          27.289  
R03  20303151.321    -2132654.9520       2006.505          40.201  
R04  23172315.939    -2695524.2581       3975.845          22.941  
J01  37819175.630      858495.9781       -953.668          34.357  
E018280375938.640     1328091.3601      -1617.868          24.980  
> 2018  4 30 11 53 37.9996979  0 18
G02  23440778.587    -3646612.2770        874.240          34.601  
G03  23968169.881     3964107.5001      -3494.722          19.419  
G06  21167528.825      202256.6331       -305.550          34.402  
G09  23644512.445    -1513287.7871       1589.339          31.159  
G17  21384670.900     -863627.0840        672.222          39.224  
G19  21426505.739    -1228254.2621       1065.884          34.847  
G23  24788013.815     -339273.6941        225.263          25.018  
G28  21093348.179     2126939.2151      -2504.751          36.872  
G30  25454647.614     1549454.1001      -2267.315           7.000  
R02  21216511.015     1504246.6291      -1744.046          28.012  
R18  21524015.634     -488432.4751        564.096          31.957  
R16  21629816.889      232235.5941       -602.923          19.974  
R15  22089053.367     4007484.6261      -3809.747          21.440  
R17  21707964.989      922205.3131       -791.502          28.814  
R03  20302781.077    -2134662.7040       2006.309          40.725  
R04  23171584.446    -2699499.9821       3976.439          21.042  
J01  37819360.002      859449.4451       -953.796          33.979  
E018580168698.830     1329713.7051      -1624.547          25.375  
> 2018  4 30 11 53 38.9996979  0 18
G02  23440613.401    -3647488.7021        875.540          37.454  
G03  23968853.408     3967602.4481      -3494.963          18.105  
G06  21167592.381      202563.9551       -306.068          33.310  
G09  23644209.354    -1514877.1601       1589.974          31.189  
G17  21384541.690     -864302.2861        672.934          38.477  
G19  21426295.584    -1229320.7251       1067.176          36.540  
G23  24787955.655     -339497.8961        216.546          30.202  
G28  21093826.947     2129445.0411      -2506.726          39.408  
G30  25455080.215     1551720.2251      -2266.339           7.000  
R02  21216853.978     1505982.8101      -1740.354          27.785  
R18  21523920.600     -488993.2451        563.321          30.467  
R16  21629998.564      232836.3241       -603.982          20.384  
R15  22089816.338     4011291.6651      -3807.908          20.090  
R17  21708109.189      922999.0071       -791.744          27.698  
R03  20302396.743    -2136669.7330       2005.147          41.837  
R04  23170866.143    -2703481.4661       3981.521          21.830  
J01  37819538.079      860402.8431       -953.987          30.871  
E018879961458.420     1331341.6501      -1623.444          25.320  
> 2018  4 30 11 53 39.9996979  0 18
G02  23440461.106    -3648363.8770        869.717          36.919  
G03  23969524.044     3971095.3991      -3495.646          18.961  
G06  21167639.448      202871.4211       -307.309          33.346  
G09  23643916.157    -1516465.3781       1589.525          29.578  
G17  21384411.880     -864975.8081        672.140          39.427  
G19  21426089.627    -1230387.0381       1064.837          37.059  
G23  24787917.882     -339708.5861        216.091          31.127  
G28  21094306.615     2131952.6231      -2507.873          38.799  
G30  25455511.916     1553986.7301      -2266.339           7.000  
R02  21217170.259     1507717.8181      -1745.004          29.814  
R18  21523791.089     -489557.3711        562.006          32.585  
R16  21630024.945      233440.5351       -605.393          21.195  
R15  22090570.017     4015101.6141      -3809.621          18.945  
R17  21708297.458      923787.2841       -795.526          27.988  
R03  20302025.900    -2138675.9830       2005.562          37.984  
R04  23170013.833    -2707462.0741       3977.702          21.760  
J01  37819717.055      861356.5331       -953.558          34.335  
E019179754238.695     1332975.2081      -1623.393          25.469  
> 2018  4 30 11 53 40.9996979  0 18
G02  23440273.436    -3649238.5041        870.570          32.174  
G03  23970190.782     3974595.4831      -3496.350          16.405  
G06  21167702.704      203181.7661       -310.933          32.248  
G09  23643613.067    -1518052.1431       1587.627          27.480  
G17  21384283.868     -865649.8930        672.664          42.739  
G19  21425891.764    -1231453.1640       1065.611          36.986  
G23  24787871.414     -339925.5460        214.766          34.171  
G28  21094780.587     2134460.6591      -2502.843          35.349  
G30  25455944.516     1556253.0641      -2266.339           7.000  
R02  21217493.435     1509461.8151      -1749.507          30.081  
R18  21523693.357     -490119.3471        560.843          33.407  
R16  21630191.630      234045.4931       -608.971          22.391  
R15  22091278.126     4018904.8021      -3808.731          18.976  
R17  21708418.275      924581.3841       -796.815          27.405  
R03  20301652.359    -2140681.4051       2006.018          38.488  
R04  23169253.260    -2711443.2851       3980.284          23.399  
J01  37819904.425      862310.4160       -954.083          34.730  
E019479546998.586     1334616.8911      -1621.758          25.851  
> 2018  4 30 11 53 41.9996979  0 18
G02  23440112.748    -3650112.8151        875.501          32.752  
G03  23970858.720     3978097.9091      -3498.069          15.462  
G06  21167755.768      203492.4781       -308.641          34.411  
G09  23643332.162    -1519637.7931       1584.009          24.875  
G17  21384153.159     -866323.9781        673.086          40.695  
G19  21425681.309    -1232519.4490       1066.423          36.161  
G23  24787832.441     -340140.0301        219.084          29.640  
G28  21095255.459     2136967.9951      -2508.248          40.404  
G30  25456375.918     1558518.8021      -2266.339           7.000  
R02  21217811.215     1511207.2461      -1749.758          28.877  
R18  21523636.097     -490682.1561        557.984          29.892  
R16  21630319.342      234657.1571       -613.231          23.885  
R15  22091912.487     4022710.8661      -3807.144          21.386  
R17  21708578.364      925376.2981       -795.505          27.727  
R03  20301277.018    -2142685.9410       2004.042          40.556  
R04  23168551.745    -2715421.3591       3979.991          23.093  
J01  37820083.701      863264.1630       -953.141          34.812  
E019779339772.870     1336242.3421      -1621.388          29.794  
> 2018  4 30 11 53 42.9996979  0 18
G02  23439940.967    -3650987.6070        875.422          33.231  
G03  23971522.760     3981601.5461      -3500.784          16.029  
G06  21167821.122      203801.1251       -309.886          33.978  
G09  23643006.887    -1521224.8351       1586.953          24.806  
G17  21384034.441     -866997.5841        674.977          36.020  
G19  21425488.843    -1233585.1191       1064.274          33.842  
G23  24787807.258     -340357.0611        219.741          27.063  
G28  21095738.724     2139476.0430      -2506.784          39.901  
G30  25456808.518     1560782.9901      -2265.364           7.000  
R02  21218129.295     1512957.7321      -1746.982          29.005  
R18  21523455.922     -491245.8531        562.534          27.087  
R16  21630384.097      235277.9551       -616.434          23.662  
R15  22092680.556     4026517.9431      -3812.357          20.710  
R17  21708725.562      926175.6421       -796.000          28.195  
R03  20300893.284    -2144689.8010       2003.709          40.443  
R04  23167857.726    -2719396.6831       3976.728          22.368  
J01  37820269.272      864218.4990       -953.165          34.132  
E010079132533.060     1337869.0211      -1623.960          30.909  
> 2018  4 30 11 53 43.9996979  0 18
G02  23439785.974    -3651859.5281        868.224          30.878  
G03  23972193.396     3985104.9291      -3500.311          18.246  
G06  21167877.483      204108.1771       -307.454          33.555  
G09  23642715.788    -1522814.6351       1588.321          25.143  
G17  21383897.736     -867671.1591        671.647          33.820  
G19  21425287.082    -1234651.0021       1065.480          32.822  
G23  24787757.792     -340573.8761        218.462          25.458  
G28  21096209.398     2141984.2010      -2507.006          39.423  
G30  25457239.920     1563047.5301      -2264.388           7.000  
R02  21218453.970     1514705.8761      -1749.238          26.132  
R18  21523461.917     -491807.1941        559.592          23.133  
R16  21630495.020      235888.5411       -615.522          26.226  
R15  22093381.770     4030333.8591      -3813.081          18.068  
R17  21708870.362      926972.7581       -797.297          25.988  
R03  20300527.537    -2146693.6910       2003.929          40.568  
R04  23167208.076    -2723365.8801       3973.911          20.104  
J01  37820446.450      865172.0921       -952.383          33.251  
E010378925294.750     1339493.4631      -1623.894          33.213  
> 2018  4 30 11 53 44.9996979  0 18
G02  23439627.683    -3652728.1821        869.071          29.108  
G03  23972849.642     3988606.9011      -3500.216          18.981  
G06  21167932.046      204416.5631       -306.349          35.533  
G09  23642392.013    -1524406.8431       1588.034          25.126  
G17  21383798.504     -868340.1371        670.612          30.961  
G19  21425076.628    -1235716.4601       1065.409          34.502  
G23  24787711.325     -340790.3291        216.839          29.311  
G28  21096692.064     2144492.7491      -2506.814          39.740  
G30  25457671.621     1565311.9131      -2264.388           7.000  
R02  21218795.434     1516457.9851      -1750.742          26.074  
R18  21523324.013     -492365.0151        558.798          23.367  
R16  21630616.136      236501.6731       -618.234          30.985  
R15  22094060.200     4034151.9761      -3812.641          18.847  
R17  21708982.184      927765.9131       -794.969          25.403  
R03  20300155.495    -2148697.1190       2003.248          39.640  
R04  23166333.581    -2727340.2261       3976.482          20.624  
J01  37820630.822      866125.6961       -954.242          33.843  
E010678718059.440     1341109.1291      -1626.601          34.415  
> 2018  4 30 11 53 45.9996979  0 18
G02  23439452.904    -3653598.2491        871.208          31.439  
G03  23973495.095     3992109.8391      -3499.814          18.947  
G06  21167989.306      204724.6250       -307.213          38.541  
G09  23642108.409    -1525989.6321       1584.685          24.698  
G17  21383664.197     -869009.1831        674.319          30.510  
G19  21424873.669    -1236781.6461       1062.686          32.535  
G23  24787668.154     -341011.0411        218.239          28.372  
G28  21097164.837     2147001.5790      -2508.222          41.420  
G30  25458104.221     1567576.4671      -2264.388           7.000  
R02  21219149.788     1518202.9021      -1751.332          27.333  
R18  21523225.081     -492919.3721        559.698          25.772  
R16  21630718.365      237119.6121       -618.152          32.161  
R15  22094778.203     4037969.5211      -3811.487          20.962  
R17  21709171.054      928566.0381       -794.218          24.923  
R03  20299784.652    -2150700.1000       2004.297          38.273  
R04  23165550.223    -2731322.1361       3983.381          23.550  
J01  37820814.895      867080.0821       -953.145          33.823  
E010978510818.730     1342720.6731      -1627.599          35.448  
> 2018  4 30 11 53 46.9996979  0 18
G02  23439273.329    -3654463.2241        870.416          29.393  
G03  23974195.110     3995615.6831      -3501.306          19.600  
G06  21168059.158      205032.9850       -308.693          35.152  
G09  23641812.214    -1527571.9291       1587.559          26.691  
G17  21383526.293     -869679.4921        674.426          28.313  
G19  21424683.300    -1237847.3681       1063.933          33.876  
G23  24787619.288     -341232.9971        217.650          32.890  
G28  21097648.102     2149510.7921      -2509.066          39.943  
G30  25458536.822     1569840.8491      -2264.388           7.000  
R02  21219447.482     1519951.9881      -1749.632          32.957  
R18  21523079.982     -493478.7121        561.699          22.726  
R16  21630843.079      237738.3411       -618.450          33.522  
R15  22095469.225     4041781.1671      -3809.889          23.514  
R17  21709302.363      929357.4281       -792.332          26.948  
R03  20299413.508    -2152700.1281       2002.185          39.692  
R04  23164814.533    -2735309.9561       3979.252          23.788  
J01  37820985.776      868033.6020       -951.845          35.494  
E011278303594.810     1344334.1661      -1626.892          35.249  
> 2018  4 30 11 53 47.9996979  0 18
G02  23439089.256    -3655336.8441        870.644          26.692  
G03  23974824.075     3999113.0491      -3501.519          21.880  
G06  21168102.328      205341.6381       -308.404          35.581  
G09  23641512.422    -1529154.0011       1588.219          24.648  
G17  21383415.669     -870352.2301        670.669          27.317  
G19  21424481.840    -1238913.3841       1067.292          31.989  
G23  24787603.699     -341444.7321        214.869          31.418  
G28  21098119.676     2152020.3300      -2506.016          40.940  
G30  25458969.722     1572105.4031      -2264.388           7.000  
R02  21219797.640     1521701.1601      -1748.167          31.151  
R18  21523067.690     -494036.6191        558.831          23.548  
R16  21630958.499      238357.9290       -621.046          35.914  
R15  22096192.624     4045587.4831      -3811.837          24.344  
R17  21709443.565      930151.7331       -796.071          29.039  
R03  20299027.975    -2154701.4380       2002.023          38.231  
R04  23164053.060    -2739292.1021       3982.539          27.202  
J01  37821175.545      868985.9951       -953.113          32.888  
E011578096354.100     1345957.7841      -1626.404          36.615  
> 2018  4 30 11 53 48.9996979  0 18
G02  23438974.436    -3656209.1651        870.305          25.182  
G03  23975464.731     4002610.2931      -3498.250          19.081  
G06  21168169.481      205649.7321       -310.667          32.427  
G09  23641222.222    -1530739.4331       1586.992          22.932  
G17  21383272.369     -871026.1851        671.325          27.017  
G19  21424283.677    -1239979.1661       1066.617          29.262  
G23  24787547.938     -341660.5881        218.066          28.818  
G28  21098598.144     2154525.1171      -2510.185          38.749  
G30  25459400.824     1574367.8621      -2264.388           7.000  
R02  21220096.833     1523453.9331      -1752.512          28.610  
R18  21522910.299     -494593.7091        557.357          23.289  
R16  21631076.018      238978.4770       -622.097          34.491  
R15  22096910.627     4049393.0571      -3811.088          22.690  
R17  21709613.247      930945.4021       -795.005          27.932  
R03  20298651.736    -2156702.9550       2002.929          37.597  
R04  23163358.740    -2743274.2281       3981.926          25.572  
J01  37821355.420      869939.2861       -957.940          30.886  
E011877889122.984     1347585.5171      -1627.146          37.343  
> 2018  4 30 11 53 49.9996979  0 18
G02  23438788.265    -3657074.7201        867.707          25.009  
G03  23976127.572     4006105.6451      -3500.216          18.688  
G06  21168228.540      205957.3101       -306.141          34.492  
G09  23640910.738    -1532324.3471       1581.660          24.725  
G17  21383202.217     -871699.1291        667.751          26.428  
G19  21424093.609    -1241044.1001       1061.032          26.765  
G23  24787489.478     -341876.2511        219.505          27.222  
G28  21099079.911     2157034.6011      -2507.935          36.073  
G30  25459831.026     1576629.6701      -2262.437           7.000  
R02  21220476.070     1525206.4141      -1757.245          28.463  
R18  21522718.432     -495147.8751        560.821          20.478  
R16  21631175.249      239599.2801       -620.627          34.253  
R15  22097673.299     4053204.2431      -3809.804          21.276  
R17  21709756.548      931737.7141       -797.741          26.895  
R03  20298284.490    -2158697.1941       1997.570          35.264  
R04  23162593.070    -2747257.3481       3976.029          24.585  
J01  37821535.896      870893.8171       -951.694          34.118  
E012177681888.875     1349206.6031      -1629.028          35.934  
> 2018  4 30 11 53 50.9996979  0 18
G02  23438637.169    -3657940.6031        866.570          25.756  
G03  23976891.743     4009603.5021      -3500.720          23.660  
G06  21168290.298      206265.5421       -305.583          30.718  
G09  23640658.613    -1533903.3151       1583.529          23.103  
G17  21383047.524     -872368.9561        668.900          26.585  
G19  21423885.253    -1242097.9971       1059.207          25.304  
G23  24787467.593     -342093.6021        219.736          30.802  
G28  21099562.277     2159543.9571      -2511.420          34.856  
G30  25460262.727     1578890.9171      -2261.461           7.000  
R02  21220774.364     1526965.0831      -1755.604          27.157  
R18  21522740.617     -495714.3591        558.449          25.024  
R16  21631310.455      240220.9571       -622.996          35.832  
R15  22098380.809     4057010.4671      -3812.094          19.401  
R17  21709913.340      932534.0341       -797.472          27.664  
R03  20297896.559    -2160696.9260       1999.000          39.309  
R04  23161826.801    -2751234.0851       3975.848          23.488  
J01  37821722.366      871848.2491       -954.127          33.093  
E012477474661.055     1350827.7191      -1628.456          36.540  
> 2018  4 30 11 53 51.9996979  0 18
G02  23438451.897    -3658813.1411        865.277          24.571  
G03  23977555.784     4013108.2571      -3501.609          24.910  
G06  21168345.759      206573.9301       -306.216          30.789  
G09  23640290.168    -1535497.9301       1589.848          20.661  
G17  21382943.196     -873046.6301        671.855          23.862  
G19  21423694.585    -1243155.3911       1064.187          24.967  
G23  24787435.515     -342315.9551        218.683          28.414  
G28  21100026.056     2162055.4151      -2513.376          38.120  
G30  25460693.229     1581152.5441      -2261.461           7.000  
R02  21221107.733     1528713.1821      -1751.459          28.549  
R18  21522659.973     -496278.1841        559.537          21.596  
R16  21631408.488      240843.0040       -623.617          33.771  
R15  22099023.864     4060821.4821      -3812.071          18.030  
R17  21710035.955      933334.1671       -797.504          27.740  
R03  20297545.202    -2162695.9901       1999.174          37.687  
R04  23161118.991    -2755206.7971       3976.646          24.723  
J01  37821908.538      872802.9371       -956.309          30.373  
E012777267429.340     1352456.9941      -1629.718          37.618  
> 2018  4 30 11 53 52.9996979  0 18
G02  23438296.005    -3659680.1331        862.083          22.725  
G03  23978188.346     4016604.8371      -3500.977          23.317  
G06  21168422.506      206882.6751       -310.049          32.158  
G09  23639997.570    -1537087.9741       1582.273          19.556  
G17  21382799.896     -873723.4641        671.708          25.785  
G19  21423484.730    -1244221.2211       1069.791          26.286  
G23  24787384.251     -342532.3451        214.056          27.859  
G28  21100514.118     2164566.5031      -2508.709          35.812  
G30  25461123.431     1583414.0001      -2261.461           7.000  
R02  21221437.804     1530462.7111      -1755.455          25.490  
R18  21522485.793     -496843.9311        560.428          20.952  
R16  21631556.285      241465.5031       -627.725          29.679  
R15  22099760.454     4064630.9841      -3813.520          19.969  
R17  21710172.061      934138.1351       -793.792          26.093  
R03  20297171.960    -2164694.2331       1996.804          35.231  
R04  23160372.508    -2759181.7301       3983.114          23.882  
J01  37822090.512      873752.9231       -955.326          30.122  
E013077060190.734     1354086.8731      -1630.760          36.365  
> 2018  4 30 11 53 53.9996979  0 18
G02  23438173.390    -3660538.5131        866.597          21.408  
G03  23978820.908     4020101.1711      -3500.368          22.207  
G06  21168482.764      207190.6421       -305.889          29.586  
G09  23639725.658    -1538670.6021       1581.753          23.027  
G17  21382647.901     -874403.9971        674.142          25.509  
G19  21423278.473    -1245288.1341       1068.281          27.927  
G23  24787327.890     -342751.1321        212.054          32.139  
G28  21100987.790     2167076.5691      -2510.880          39.592  
G30  25461553.633     1585674.8601      -2261.461           7.000  
R02  21221748.090     1532220.1371      -1760.909          26.168  
R18  21522382.964     -497402.2611        561.487          19.595  
R16  21631636.630      242087.0901       -623.448          25.963  
R15  22100509.336     4068443.6941      -3815.116          18.110  
R17  21710341.144      934934.8661       -792.321          25.245  
R03  20296782.230    -2166691.4461       1992.812          32.338  
R04  23159650.008    -2763159.3311       3978.302          24.807  
J01  37822261.693      874706.1761       -953.683          33.526  
E013376852965.610     1355717.3731      -1630.529          37.432  
> 2018  4 30 11 53 54.9996979  0 19
G02  23437983.622    -3661407.5161        870.310          22.521  
G03  23979469.659     4023608.1371      -3502.584          20.858  
G06  21168561.310      207491.5511       -306.404          27.203  
G09  23639436.659    -1540251.3721       1588.614          21.266  
G17  21382519.290     -875073.0871        669.771          23.752  
G19  21423082.109    -1246353.6021       1064.406          25.562  
G23  24787304.806     -342964.5011        217.270          31.306  
G28  21101471.056     2169586.7251      -2512.191          36.939  
G30  25461983.835     1587934.1691      -2260.485           7.000  
R02  21222064.371     1533983.4391      -1759.292          25.837  
R18  21522315.811     -497959.5361        562.445          19.348  
R16  21631852.180      242708.5091       -620.721          22.526  
R15  22101194.961     4072264.0431      -3815.409          18.575  
R17  21710512.625      935734.8271       -797.499          25.453  
R03  20296419.781    -2168688.2460       1997.255          36.798  
R04  23158843.566    -2767130.6411       3975.591          23.774  
J01  37822442.468      875659.2911       -954.458          33.471  
J023572541603.086         308.481        -883.902          35.143  
E013676645731.800     1357347.3611      -1629.214          36.501  
> 2018  4 30 11 53 55.9996979  0 19
G02  23437774.666    -3662284.4141        872.508          21.722  
G03  23980181.066     4027117.6361      -3499.830          20.402  
G06  21168615.273      207797.1001       -308.858          26.181  
G09  23639161.749    -1541843.4871       1588.460          20.129  
G17  21382414.962     -875748.3891        668.666          22.814  
G19  21422912.127    -1247421.4521       1061.158          23.052  
G23  24787249.344     -343177.9591        216.862          32.039  
G28  21101948.625     2172098.0161      -2512.180          33.405  
G30  25462413.138     1590193.8321      -2259.510           7.000  
R02  21222363.563     1535744.9811      -1755.556          26.411  
R18  21522203.988     -498523.9511        561.600          18.465  
R16  21631920.833      243326.2281       -620.740          20.966  
R15  22101913.564     4076083.8821      -3815.246          19.146  
R17  21710659.223      936533.4171       -800.811          25.810  
R03  20296038.445    -2170685.4840       1997.634          38.050  
R04  23158096.184    -2771101.9851       3975.762          25.526  
J01  37822635.834      876616.6261       -954.248          29.577  
J023973064499.950          14.0501       -879.324          35.213  
E013976438513.570     1358975.3961      -1628.131          32.755  
> 2018  4 30 11 53 56.9996979  0 19
G02  23437657.148    -3663165.0791        873.659          25.349  
G03  23980827.718     4030622.9831      -3506.261          21.259  
G06  21168647.350      208107.3011       -310.753          27.444  
G09  23638834.076    -1543431.0611       1581.508          21.526  
G17  21382257.271     -876416.3421        672.059          25.406  
G19  21422682.785    -1248490.0291       1061.755          23.061  
G23  24787219.065     -343396.9521        216.076          29.879  
G28  21102424.396     2174611.5251      -2515.542          35.915  
G30  25462842.441     1592453.3361      -2259.510           7.000  
R02  21222728.411     1537502.0351      -1754.806          27.771  
R18  21522087.369     -499091.7751        561.673          17.840  
R16  21631979.292      243951.9341       -620.188          21.009  
R15  22102695.123     4079901.9671      -3815.223          18.558  
R17  21710743.465      937327.6441       -795.841          25.057  
R03  20295678.394    -2172681.0911       1994.835          34.401  
R04  23157399.766    -2775081.2421       3975.646          24.065  
J01  37822811.512      877573.5241       -954.735          25.499  
J024272857139.630         894.1940       -881.886          33.423  
E014276231278.860     1360605.2001      -1631.521          30.466  
> 2018  4 30 11 53 57.9996979  0 19
G02  23437461.683    -3664039.7651        873.052          28.895  
G03  23981540.325     4034134.6011      -3511.157          20.003  
G06  21168730.992      208412.8261       -310.600          26.812  
G09  23638526.489    -1545003.2661       1577.044          18.541  
G17  21382143.950     -877082.5331        673.450          24.229  
G19  21422470.832    -1249556.5681       1063.441          22.391  
G23  24787169.300     -343610.0941        213.093          30.043  
G28  21102908.261     2177122.6281      -2516.114          33.562  
G30  25463272.943     1594713.0121      -2259.510           7.000  
R02  21223094.757     1539258.9371      -1760.231          27.504  
R18  21521948.565     -499660.4721        563.206          17.430  
R16  21632117.197      244572.5071       -623.220          23.224  
R15  22103427.216     4083721.0071      -3811.209          20.311  
R17  21710904.154      938118.0931       -791.882          25.421  
R03  20295323.440    -2174671.5681       1987.812          29.695  
R04  23156604.416    -2779056.2981       3975.342          25.501  
J01  37823010.874      878527.4421       -955.312          22.976  
J024572649759.516        1775.9701       -883.464          32.504  
E014576024062.734     1362239.3311      -1622.013          27.799  
> 2018  4 30 11 53 58.9996979  0 19
G02  23437311.487    -3664914.2901        872.005          27.934  
G03  23982161.795     4037640.6541      -3511.443          21.204  
G06  21168789.152      208723.3211       -309.309          24.620  
G09  23638228.495    -1546580.5271       1579.908          17.343  
G17  21382021.634     -877755.5841        671.655          24.818  
G19  21422263.376    -1250624.8751       1068.133          22.549  
G23  24787137.222     -343822.9851        214.498          31.811  
G28  21103397.222     2179637.9171      -2512.592          31.542  
G30  25463701.946     1596971.5551      -2259.510           7.000  
R02  21223386.755     1541021.4901      -1757.515          28.457  
R18  21521821.453     -500229.1881        564.506          19.676  
R16  21632247.607      245195.3441       -628.554          22.758  
R15  22104105.646     4087532.2811      -3809.929          19.613  
R17  21711042.658      938900.8531       -792.155          24.989  
R03  20294955.295    -2176664.3341       1989.556          25.759  
R04  23155871.724    -2783032.0001       3975.326          24.694  
J01  37823193.148      879482.8591       -955.739          22.505  
J024872442379.410        2656.8141       -879.166          34.093  
E014875816826.520     1363877.2811      -1623.583          26.938  
> 2018  4 30 11 53 59.9996979  0 19
G02  23437135.509    -3665786.3001        873.732          29.343  
G03  23982849.519     4041145.1231      -3509.509          20.717  
G06  21168845.513      209031.5651       -307.776          24.855  
G09  23637924.505    -1548163.2661       1580.860          19.195  
G17  21381883.130     -878427.5581        671.228          24.627  
G19  21422058.617    -1251689.6261       1064.964          32.723  
G23  24787085.957     -344039.0311        216.976          30.584  
G28  21103862.800     2182151.9731      -2516.092          33.482  
G30  25464131.549     1599231.0081      -2258.534           7.000  
R02  21223721.323     1542778.9721      -1758.078          36.019  
R18  21521786.377     -500796.5671        565.661          21.861  
R16  21632370.222      245822.7211       -626.269          24.753  
R15  22104760.393     4091339.4801      -3810.264          21.515  
R17  21711215.938      939700.5081       -795.817          25.913  
R03  20294543.080    -2178654.1021       1993.147          24.782  
R04  23155119.245    -2787007.4821       3976.799          30.199  
J01  37823364.929      880441.7371       -954.497          23.088  
J025172235015.780        3535.7961       -877.877          31.859  
E015175609597.210     1365515.0111      -1627.663          27.237  
> 2018  4 30 11 54  0.9996979  0 19
G02  23436983.814    -3666657.7231        872.361          29.082  
G03  23983509.062     4044647.9271      -3503.565          21.842  
G06  21168906.971      209336.1361       -310.280          27.005  
G09  23637633.707    -1549744.1591       1582.820          18.349  
G17  21381759.616     -879092.7591        671.136          24.270  
G19  21421847.564    -1252758.3231       1063.192          30.741  
G23  24787047.584     -344255.9261        212.860          32.593  
G28  21104350.862     2184672.1461      -2517.914          32.302  
G30  25464560.552     1601489.7591      -2259.510           7.000  
R02  21224058.290     1544536.9341      -1758.335          33.548  
R18  21521564.531     -501357.4951        565.983          20.316  
R16  21632512.323      246452.8861       -622.928          23.518  
R15  22105455.612     4095144.4891      -3808.436          22.472  
R17  21711387.119      940500.3281       -794.785          25.116  
R03  20294198.619    -2180645.1261       1994.821          29.103  
R04  23154381.455    -2790982.4131       3975.214          33.698  
J01  37823530.715      881396.8641       -953.031          27.638  
J025472027630.570        4414.0171       -879.462          28.314  
E015475402364.890     1367146.2321      -1628.195          27.919  
> 2018  4 30 11 54  1.9996979  0 19
G02  23436801.840    -3667524.1651        871.571          28.789  
G03  23984147.320     4048147.0551      -3505.194          20.535  
G06  21168964.531      209642.8681       -311.269          27.528  
G09  23637345.306    -1551326.7191       1582.343          17.580  
G17  21381614.216     -879763.2531        672.409          26.035  
G19  21421663.191    -1253822.6301       1064.075          29.399  
G23  24787014.907     -344467.5790        211.268          38.332  
G28  21104820.637     2187187.2271      -2514.466          30.381  
G30  25464989.854     1603748.4461      -2258.534           7.000  
R02  21224376.070     1546295.2141      -1759.589          35.282  
R18  21521540.847     -501925.5801        568.746          24.182  
R16  21632639.735      247079.9251       -625.059          24.037  
R15  22106159.224     4098957.6681      -3807.796          22.958  
R17  21711502.240      941294.3401       -790.587          25.695  
R03  20293821.480    -2182642.5171       1992.359          28.362  
R04  23153626.278    -2794956.8890       3974.827          35.541  
J01  37823725.280      882350.1841       -952.502          27.610  
J025771820264.850        5296.4341       -880.970          28.027  
E015775195128.080     1368776.1091      -1630.900          27.597  
> 2018  4 30 11 54  2.9996979  0 19
G02  23436624.363    -3668396.2361        867.778          25.856  
G03  23984816.157     4051653.2211      -3509.986          17.890  
G06  21169027.487      209952.7151       -310.189          26.170  
G09  23637041.916    -1552913.1251       1581.920          16.926  
G17  21381497.597     -880433.3821        666.445          23.986  
G19  21421456.035    -1254886.4321       1064.017          29.844  
G23  24786972.336     -344678.6280        210.632          38.417  
G28  21105290.112     2189703.3381      -2516.332          36.427  
G30  25465419.157     1606006.9751      -2258.534           7.000  
R02  21224704.343     1548055.1411      -1763.278          33.078  
R18  21521384.655     -502496.4781        569.881          21.637  
R16  21632729.073      247713.9371       -632.695          21.978  
R15  22106893.116     4102772.8231      -3811.006          21.858  
R17  21711672.222      942086.6371       -794.605          24.897  
R03  20293443.441    -2184630.4341       1983.962          25.384  
R04  23152887.889    -2798931.5770       3975.135          34.392  
J01  37823899.759      883304.8651       -954.146          29.251  
J026071612895.234        6172.8871       -879.104          24.357  
E016074987894.870     1370409.6921      -1634.723          27.358  
> 2018  4 30 11 54  3.9996979  0 19
G02  23436445.087    -3669262.4021        865.951          25.480  
G03  23985502.682     4055159.5231      -3508.933          18.068  
G06  21169075.754      210265.3111       -312.109          25.695  
G09  23636723.837    -1554490.8841       1584.737          18.585  
G17  21381375.881     -881110.3371        670.026          23.818  
G19  21421264.167    -1255951.7971       1062.235          29.117  
G23  24786933.063     -344889.7261        211.611          33.271  
G28  21105772.778     2192220.1121      -2517.371          37.538  
G30  25465848.460     1608265.6751      -2258.534           7.000  
R02  21225045.507     1549819.1091      -1759.926          32.194  
R18  21521331.892     -503061.6571        563.064          20.548  
R16  21632830.703      248341.0211       -630.514          22.207  
R15  22107676.174     4106587.4431      -3810.673          21.283  
R17  21711825.116      942880.0121       -795.375          24.483  
R03  20293069.900    -2186614.5251       1983.582          23.906  
R04  23152154.297    -2802906.7281       3980.519          31.990  
J01  37824076.037      884259.4581       -954.305          29.545  
J026371405531.305        7044.5981       -879.962          22.679  
E016374780669.445     1372049.3661      -1637.060          25.606  
> 2018  4 30 11 54  4.9996979  0 19
G02  23436311.379    -3670129.0491        869.248          25.926  
G03  23986126.850     4058671.7541      -3507.519          17.014  
G06  21169135.413      210580.2971       -310.955          28.807  
G09  23636411.753    -1556072.7181       1584.405          18.911  
G17  21381232.880     -881781.9111        672.523          27.529  
G19  21421039.923    -1257016.3881       1063.794          31.430  
G23  24786897.988     -345100.5161        211.992          35.258  
G28  21106255.144     2194736.9880      -2517.978          40.509  
G30  25466277.463     1610523.2421      -2258.534           7.000  
R02  21225374.379     1551580.2981      -1761.500          33.975  
R18  21521165.507     -503629.2401        566.025          21.527  
R16  21632932.632      248967.1061       -632.132          20.161  
R15  22108287.751     4110397.2441      -3812.825          21.268  
R17  21711918.052      943680.5701       -792.700          23.632  
R03  20292714.346    -2188599.5061       1991.953          22.661  
R04  23151403.017    -2806882.6981       3977.786          30.069  
J01  37824277.198      885210.8861       -955.796          26.706  
J026671198150.000        7924.6861       -881.834          21.960  
E016674573432.336     1373686.1891      -1634.340          29.290  
> 2018  4 30 11 54  5.9996979  0 19
G02  23436171.676    -3670997.3861        867.708          26.411  
G03  23986767.506     4062180.8351      -3507.606          18.437  
G06  21169202.566      210895.3091       -310.681          28.597  
G09  23636088.576    -1557656.9491       1583.782          18.152  
G17  21381100.972     -882453.6871        671.709          27.422  
G19  21420840.860    -1258081.8171       1065.801          36.728  
G23  24786849.121     -345310.6931        213.259          33.580  
G28  21106732.713     2197256.0571      -2517.509          39.318  
G30  25466705.567     1612780.9531      -2257.559           7.000  
R02  21225696.656     1553342.1301      -1764.246          36.420  
R18  21521098.054     -504197.1731        565.066          24.301  
R16  21633127.198      249593.2211       -627.800          22.653  
R15  22109092.694     4114209.3741      -3810.629          22.307  
R17  21712089.533      944474.1991       -791.562          24.504  
R03  20292374.981    -2190587.1221       1992.829          23.733  
R04  23150682.016    -2810857.7811       3973.750          30.670  
J01  37824440.884      886164.6721       -953.146          29.256  
J026970990786.670        8802.2621       -882.582          24.307  
E016974366190.130     1375320.4301      -1634.910          33.996  
> 2018  4 30 11 54  6.9996979  0 19
G02  23435973.813    -3671861.0011        863.464          26.042  
G03  23987461.226     4065692.4721      -3506.769          18.809  
G06  21169257.128      211208.9761       -310.926          28.141  
G09  23635798.077    -1559238.3841       1584.029          15.857  
G17  21380969.063     -883123.4031        669.825          26.831  
G19  21420639.400    -1259143.1971       1063.403          34.045  
G23  24786813.446     -345521.0701        211.492          32.202  
G28  21107205.785     2199773.9351      -2519.736          39.540  
G30  25467135.769     1615037.5441      -2257.559           7.000  
R02  21226014.736     1555104.9781      -1762.862          34.018  
R18  21520982.034     -504765.2441        565.556          23.801  
R16  21633263.603      250217.1971       -628.249          22.764  
R15  22109783.116     4118024.0661      -3812.852          20.404  
R17  21712192.662      945261.6961       -789.593          23.991  
R03  20291962.167    -2192571.8001       1989.814          24.753  
R04  23149945.426    -2814833.2841       3973.887          27.669  
J01  37824628.255      887123.1941       -953.284          29.846  
J027270783389.170        9691.2731       -882.369          21.261  
E017274158960.516     1376953.9011      -1629.877          32.765  
> 2018  4 30 11 54  7.9996979  0 19
G02  23435852.697    -3672733.1951        869.042          25.769  
G03  23988126.166     4069203.7571      -3505.925          17.646  
G06  21169313.489      211520.5371       -311.799          31.014  
G09  23635497.685    -1560822.0161       1583.273          16.623  
G17  21380861.737     -883798.3981        668.456          25.345  
G19  21420443.635    -1260207.9591       1062.026          33.680  
G23  24786774.173     -345739.1781        216.493          30.870  
G28  21107691.149     2202291.6921      -2519.151          37.629  
G30  25467564.772     1617292.7461      -2256.583           7.000  
R02  21226353.801     1556868.2541      -1764.314          32.706  
R18  21520854.922     -505327.4141        567.851          22.005  
R16  21633348.145      250841.6721       -628.937          23.339  
R15  22110473.238     4121833.0771      -3811.336          21.139  
R17  21712365.942      946051.9061       -794.697          24.661  
R03  20291636.293    -2194561.1381       1990.005          22.899  
R04  23149230.121    -2818807.6631       3976.048          25.622  
J01  37824800.635      888079.9461       -954.558          32.635  
J027570576016.555       10573.8831       -881.738          23.897  
E017573951725.500     1378582.1981      -1632.398          30.206  
> 2018  4 30 11 54  8.9996979  0 19
G02  23435663.828    -3673603.1231        872.240          24.782  
G03  23988792.604     4072713.6291      -3507.157          18.707  
G06  21169386.039      211834.5841       -308.954          29.946  
G09  23635227.273    -1562407.5331       1585.316          16.365  
G17  21380720.535     -884469.8851        669.460          25.361  
G19  21420238.877    -1261270.6941       1064.761          32.909  
G23  24786723.508     -345953.3051        212.992          27.833  
G28  21108175.314     2204810.4431      -2518.471          36.888  
G30  25467994.374     1619547.9171      -2254.632           7.000  
R02  21226685.371     1558632.5280      -1764.774          34.786  
R18  21520787.769     -505896.0331        569.439          24.777  
R16  21633486.949      251470.3041       -630.596          24.614  
R15  22111145.373     4125645.8331      -3811.720          23.407  
R17  21712507.144      946845.3001       -794.439          25.133  
R03  20291248.361    -2196543.4671       1985.566          22.000  
R04  23148443.466    -2822783.9511       3977.371          26.469  
J01  37824981.710      889033.1530       -954.593          35.964  
J027870368631.945       11458.2991       -880.201          24.287  
E017873744510.580     1380203.9681      -1636.870          28.844  
> 2018  4 30 11 54  9.9996979  0 19
G02  23435483.952    -3674475.4161        864.550          26.216  
G03  23989462.341     4076219.4611      -3505.857          16.630  
G06  21169432.207      212146.1861       -309.185          33.666  
G09  23634919.686    -1563988.7591       1586.847          12.303  
G17  21380588.327     -885137.9501        672.201          27.498  
G19  21420040.415    -1262331.6041       1061.552          32.648  
G23  24786675.542     -346168.9941        208.480          29.181  
G28  21108651.385     2207329.6171      -2518.390          40.030  
G30  25468424.277     1621802.1701      -2255.608           7.000  
R02  21227027.734     1560397.3390      -1765.729          36.374  
R18  21520647.166     -506461.9891        566.919          27.043  
R16  21633542.410      252105.8521       -633.737          22.905  
R15  22111908.644     4129464.0161      -3812.444          25.968  
R17  21712682.822      947631.6661       -790.843          24.820  
R03  20290893.407    -2198529.7561       1986.825          23.811  
R04  23147747.648    -2826768.3511       3977.898          25.544  
J01  37825178.374      889985.3831       -953.106          34.310  
J028170161274.920       12339.6891       -878.824          26.451  
E018173537266.870     1381822.8391      -1635.702          29.178  
> 2018  4 30 11 54 10.9996979  0 19
G02  23435313.670    -3675341.1781        859.769          24.571  
G03  23990132.677     4079720.4691      -3505.098          15.619  
G06  21169491.566      212458.2580       -312.290          36.541  
G09  23634624.690    -1565571.6951       1583.657          16.283  
G17  21380497.490     -885813.9411        668.454          24.691  
G19  21419845.549    -1263385.6191       1055.469          29.591  
G23  24786634.770     -346375.0861        214.212          27.450  
G28  21109128.355     2209849.9091      -2523.348          36.836  
G30  25468852.680     1624057.3281      -2253.656           7.000  
R02  21227342.517     1562167.0131      -1767.978          36.365  
R18  21520519.754     -507025.9651        566.961          29.448  
R16  21633647.937      252739.5411       -633.752          22.250  
R15  22112634.442     4133274.7821      -3810.348          26.733  
R17  21712800.641      948420.1491       -789.192          26.261  
R03  20290481.792    -2200520.6731       1988.848          23.262  
R04  23146992.171    -2830749.1161       3975.096          23.389  
J01  37825348.056      890937.5251       -953.571          30.924  
J028469953887.016       13220.9861       -880.115          26.044  
E018473330036.660     1383442.4921      -1635.340          30.395  
> 2018  4 30 11 54 11.9996979  0 19
G02  23435163.474    -3676205.4221        863.873          23.228  
G03  23990794.019     4083224.8221      -3507.909          15.179  
G06  21169562.617      212769.9101       -308.302          33.236  
G09  23634318.302    -1567160.8531       1585.455          16.818  
G17  21380324.509     -886481.1271        667.174          27.778  
G19  21419647.986    -1264433.8821       1057.400          27.107  
G23  24786605.390     -346589.7521        212.947          29.644  
G28  21109616.716     2212370.6651      -2520.815          33.251  
G30  25469280.484     1626311.5941      -2255.608           7.000  
R02  21227678.884     1563933.6840      -1767.693          35.500  
R18  21520446.605     -507591.3541        569.482          27.794  
R16  21633827.513      253371.5091       -635.331          24.069  
R15  22113323.665     4137088.4951      -3812.943          25.449  
R17  21712956.833      949214.9771       -796.396          25.502  
R03  20290195.190    -2202515.6831       1989.378          21.496  
R04  23146228.000    -2834723.5861       3976.045          24.730  
J01  37825528.831      891890.4631       -954.293          29.147  
J028769746517.090       14101.6181       -880.979          25.985  
E018773122813.630     1385068.6201      -1635.172          28.885  
> 2018  4 30 11 54 12.9996979  0 19
G02  23434994.391    -3677069.1181        870.530          21.556  
G03  23991464.355     4086736.9821      -3506.673          16.938  
G06  21169618.978      213082.1691       -310.144          32.233  
G09  23634018.809    -1568747.9491       1584.192          15.519  
G17  21380214.486     -887146.3311        669.314          27.731  
G19  21419427.939    -1265500.9861       1066.114          29.811  
G23  24786564.019     -346797.8751        206.996          30.844  
G28  21110100.282     2214891.7401      -2519.767          32.916  
G30  25469709.787     1628564.8281      -2253.656           7.000  
R02  21228009.555     1565701.4150      -1769.136          40.233  
R18  21520305.403     -508159.7981        567.049          26.067  
R16  21633965.118      254000.4731       -632.115          27.791  
R15  22114082.140     4140910.5271      -3818.882          23.205  
R17  21713118.421      950013.7651       -793.491          26.229  
R03  20289773.682    -2204510.7381       1985.599          21.193  
R04  23145504.601    -2838698.7711       3978.107          25.114  
J01  37825710.805      892843.4401       -953.939          26.911  
J029069539141.180       14982.7501       -881.465          26.495  
E019072915582.810     1386702.9171      -1635.591          27.080  
> 2018  4 30 11 54 13.9996979  0 19
G02  23434863.681    -3677939.7581        865.912          23.808  
G03  23992130.194     4090242.8411      -3506.554          18.185  
G06  21169679.236      213395.1991       -313.672          30.890  
G09  23633720.516    -1570330.7311       1584.350          18.215  
G17  21380095.768     -887814.6441        670.583          26.935  
G19  21419225.279    -1266562.5571       1063.603          30.773  
G23  24786523.547     -347005.8721        210.557          30.165  
G28  21110576.052     2217414.4941      -2520.509          30.426  
G30  25470137.890     1630817.8831      -2253.656           7.000  
R02  21228350.419     1567469.8271      -1768.344          37.963  
R18  21520209.169     -508722.6791        565.008          28.727  
R16  21634061.351      254634.2401       -633.509          28.010  
R15  22114800.142     4144724.0991      -3810.861          28.724  
R17  21713239.837      950808.6791       -791.663          25.456  
R03  20289374.958    -2206494.9831       1987.633          21.958  
R04  23144758.417    -2842679.8981       3976.535          24.306  
J01  37825887.683      893797.6621       -956.031          27.188  
J029369331795.540       15864.5861       -881.883          24.875  
E019372708353.200     1388339.9821      -1635.534          28.666  
> 2018  4 30 11 54 14.9996979  0 19
G02  23434648.131    -3678810.3121        862.071          24.989  
G03  23992795.433     4093755.0881      -3506.759          14.928  
G06  21169743.092      213706.7601       -317.454          30.623  
G09  23633421.922    -1571911.9751       1585.542          18.973  
G17  21379972.553     -888484.8081        667.705          27.185  
G19  21419016.623    -1267629.0741       1059.708          32.075  
G23  24786457.892     -347213.8371        214.630          26.760  
G28  21111071.309     2219939.6671      -2523.034          28.462  
G30  25470565.694     1633069.3881      -2252.681           7.000  
R02  21228668.798     1569239.3110      -1770.604          36.390  
R18  21520124.628     -509288.5901        567.433          29.112  
R16  21634157.584      255272.5251       -640.140          25.447  
R15  22115502.256     4148527.0771      -3806.835          26.411  
R17  21713448.792      951599.3541       -798.269          24.190  
R03  20289020.004    -2208485.2191       1984.604          19.846  
R04  23143991.248    -2846651.9601       3975.231          25.541  
J01  37826077.451      894752.2651       -955.082          27.971  
J029669124396.240       16746.6261       -879.245          23.065  
E019672501125.380     1389972.1601      -1636.419          27.962  
> 2018  4 30 11 54 15.9996979  0 19
G02  23434503.331    -3679675.8941        864.279          26.515  
G03  23993478.061     4097267.5071      -3507.638          15.417  
G06  21169792.857      214027.5421       -314.578          30.603  
G09  23633116.734    -1573500.3331       1585.270          18.160  
G17  21379822.957     -889153.1671        666.838          28.040  
G19  21418822.957    -1268689.5401       1060.094          32.284  
G23  24786449.798     -347420.0291        209.272          26.231  
G28  21111541.684     2222462.7341      -2525.613          27.139  
G30  25470994.997     1635321.2451      -2251.705           7.000  
R02  21229009.063     1571009.9061      -1772.778          34.653  
R18  21520007.709     -509856.5861        567.766          27.221  
R16  21634276.002      255913.0101       -643.210          25.980  
R15  22116206.769     4152337.6671      -3814.449          25.592  
R17  21713537.231      952399.1661       -796.847          23.117  
R03  20288600.594    -2210466.0751       1981.998          20.717  
R04  23143261.553    -2850629.5381       3978.360          23.781  
J01  37826267.520      895707.4461       -956.251          26.137  
J029968917020.625       17628.5381       -880.088          23.961  
E019972293895.164     1391601.1441      -1637.438          28.042  
> 2018  4 30 11 54 16.9996979  0 19
G02  23434322.256    -3680538.4031        863.192          27.282  
G03  23994135.206     4100781.0791      -3506.331          14.055  
G06  21169856.713      214341.2751       -313.630          32.122  
G09  23632830.732    -1575091.6701       1582.893          16.999  
G17  21379715.031     -889816.7911        665.068          26.592  
G19  21418615.801    -1269749.8741       1061.292          32.835  
G23  24786376.349     -347629.4031        209.030          25.201  
G28  21112048.333     2224986.1301      -2521.772          25.179  
G30  25471424.600     1637574.8691      -2251.705           7.000  
R02  21229355.323     1572783.2691      -1777.025          31.510  
R18  21519906.379     -510420.7131        566.311          27.190  
R16  21634455.278      256554.6601       -641.792          24.818  
R15  22116913.379     4156155.9981      -3819.395          25.961  
R17  21713683.230      953193.4191       -789.818          24.504  
R03  20288309.196    -2212445.6771       1980.693          20.682  
R04  23142485.990    -2854608.3691       3982.167          24.898  
J01  37826438.701      896662.5521       -956.369          28.965  
J020268709665.100       18510.8050       -881.499          25.365  
E010272086668.850     1393230.2591      -1637.942          29.484  
> 2018  4 30 11 54 17.9996979  0 19
G02  23434169.362    -3681406.4821        865.319          25.417  
G03  23994827.726     4104296.3551      -3510.060          14.342  
G06  21169915.472      214657.5541       -318.171          33.746  
G09  23632537.535    -1576669.4201       1582.067          16.680  
G17  21379586.420     -890483.4481        665.124          27.414  
G19  21418413.741    -1270809.8691       1061.502          31.268  
G23  24786365.556     -347839.6151        209.105          24.090  
G28  21112527.102     2227501.8151      -2521.734          23.978  
G30  25471853.603     1639827.9511      -2253.656           7.000  
R02  21229668.007     1574555.0201      -1769.412          32.495  
R18  21519830.531     -510981.4251        567.560          24.601  
R16  21634536.522      257193.6331       -638.599          23.838  
R15  22117639.777     4159972.8971      -3816.888          25.250  
R17  21713829.229      953985.2351       -793.316          22.846  
R03  20287951.843    -2214425.5781       1982.502          21.816  
R04  23141780.579    -2858588.4001       3973.785          27.228  
J01  37826615.279      897616.7861       -955.127          30.256  
J020568502305.070       19390.7951       -880.374          21.246  
E010571879448.520     1394862.5991      -1638.128          26.722  
> 2018  4 30 11 54 18.9996979  0 19
G02  23434020.665    -3682266.4621        865.568          23.993  
G03  23995444.400     4107811.0371      -3509.317          15.917  
G06  21169966.737      214972.0491       -313.986          31.761  
G09  23632215.857    -1578250.3141       1583.009          17.123  
G17  21379447.916     -891147.5131        661.297          26.418  
G19  21418211.081    -1271870.0771       1059.051          30.801  
G23  24786290.008     -348045.1061        207.466          25.150  
G28  21112978.589     2230026.8481      -2524.355          24.256  
G30  25472282.905     1642079.4561      -2252.681           7.000  
R02  21229995.380     1576329.1911      -1772.689          30.275  
R18  21519658.450     -511553.5121        569.352          22.990  
R16  21634639.950      257827.0731       -640.419          25.700  
R15  22118366.174     4163789.5601      -3812.368          26.842  
R17  21713939.552      954781.0051       -795.240          24.887  
R03  20287528.536    -2216416.9531       1984.513          24.778  
R04  23141040.391    -2862558.5551       3972.765          25.876  
J01  37826801.450      898571.6091       -955.120          32.255  
J020868294930.055       20266.6691       -879.669          18.431  
E010871672210.516     1396504.9551      -1637.425          26.525  
> 2018  4 30 11 54 19.9996979  0 19
G02  23433821.603    -3683128.5601        859.921          29.276  
G03  23996101.545     4111317.4151      -3512.883          17.499  
G06  21170034.790      215286.6331       -313.158          31.205  
G09  23631929.556    -1579833.8681       1583.960          15.896  
G17  21379337.892     -891809.2911        664.639          26.415  
G19  21418018.314    -1272927.8151       1056.560          34.147  
G23  24786218.958     -348253.3501        211.291          22.835  
G28  21113490.934     2232549.3541      -2522.807          24.897  
G30  25472713.108     1644330.5461      -2251.705           7.000  
R02  21230339.242     1578111.5091      -1778.847          31.174  
R18  21519612.882     -512125.8561        564.842          22.269  
R16  21634760.167      258467.1551       -646.863          25.584  
R15  22119096.768     4167601.0801      -3812.045          28.125  
R17  21714159.900      955581.4201       -796.793          24.322  
R03  20287162.190    -2218401.3491       1981.318          23.302  
R04  23140270.224    -2866532.1800       3973.638          27.921  
J01  37826984.024      899526.6871       -954.963          35.523  
J021168087542.750       21142.0861       -881.264          18.410  
E011171464980.600     1398155.4021      -1641.613          25.490  
> 2018  4 30 11 54 20.9996979  0 19
G02  23433657.916    -3683989.4601        858.734          30.278  
G03  23996789.568     4114824.6301      -3510.892          17.957  
G06  21170095.348      215600.5051       -312.950          33.588  
G09  23631578.499    -1581414.3441       1585.360          16.759  
G17  21379185.898     -892471.1161        670.200          26.711  
G19  21417809.059    -1273988.0701       1062.919          31.593  
G23  24786152.104     -348465.1201        215.060          21.603  
G28  21113956.212     2235070.8071      -2524.380          25.301  
G30  25473142.410     1646581.0621      -2250.729           7.000  
R02  21230669.913     1579893.2711      -1774.351          33.151  
R18  21519515.749     -512685.8311        565.548          22.682  
R16  21634933.447      259111.6411       -649.345          24.504  
R15  22119721.835     4171410.3891      -3817.373          26.425  
R17  21714241.743      956373.3891       -793.711          25.811  
R03  20286811.133    -2220383.5531       1977.197          22.598  
R04  23139551.922    -2870507.6771       3974.739          25.696  
J01  37827166.597      900481.6651       -954.463          35.251  
J021467880193.516       22021.7811       -880.472          15.624  
E011471257753.080     1399811.0941      -1644.811          26.262  
> 2018  4 30 11 54 21.9996979  0 19
G02  23433499.926    -3684849.2651        861.274          30.544  
G03  23997456.906     4118329.8891      -3509.638          16.952  
G06  21170155.906      215916.5721       -315.264          33.075  
G09  23631264.616    -1582997.6761       1583.644          17.510  
G17  21379055.788     -893144.6871        670.271          26.853  
G19  21417609.098    -1275050.2971       1062.671          32.053  
G23  24786183.582     -348671.0711        211.115          23.280  
G28  21114464.960     2237595.9781      -2523.913          24.228  
G30  25473572.613     1648831.9571      -2250.729           7.000  
R02  21231014.075     1581665.9541      -1773.316          31.529  
R18  21519367.052     -513246.0811        564.921          21.836  
R16  21635002.699      259756.8381       -647.116          26.754  
R15  22120490.203     4175225.3091      -3820.471          26.296  
R17  21714400.333      957168.7161       -789.253          26.087  
R03  20286460.076    -2222358.3231       1978.080          22.908  
R04  23138823.426    -2874486.6191       3975.339          24.020  
J01  37827337.779      901437.4051       -956.894          32.799  
J021767672814.600       22896.8511       -881.085          14.111  
E011771050528.860     1401470.5931      -1651.718          25.669  
> 2018  4 30 11 54 22.9996979  0 19
G02  23433340.436    -3685708.9801        861.554          29.110  
G03  23998144.031     4121835.8331      -3509.490          16.346  
G06  21170210.468      216232.5221       -318.316          30.694  
G09  23630973.817    -1584580.0681       1585.806          21.745  
G17  21378927.476     -893809.8571        662.792          27.100  
G19  21417406.138    -1276113.1971       1055.281          31.183  
G23  24786076.556     -348877.6601        212.288          23.235  
G28  21114925.141     2240124.9071      -2525.016          24.938  
G30  25474003.115     1651082.6811      -2250.729           7.000  
R02  21231327.958     1583433.7711      -1777.987          31.892  
R18  21519319.385     -513807.8781        561.137          20.138  
R16  21635124.415      260404.5161       -644.448          26.310  
R15  22121147.948     4179043.2561      -3818.430          27.297  
R17  21714571.515      957955.9901       -788.985          26.525  
R03  20286030.174    -2224337.8081       1979.834          20.976  
R04  23138067.349    -2878460.6121       3976.266          25.525  
J01  37827533.843      902392.8971       -955.263          32.012  
J022067465450.984       23772.4291       -881.191          15.999  
E012070843298.650     1403131.6771      -1643.554          24.577  
> 2018  4 30 11 54 23.9996979  0 19
G02  23433162.059    -3686567.3101        861.100          28.546  
G03  23998756.806     4125338.5391      -3508.362          17.449  
G06  21170274.324      216548.0631       -317.556          30.323  
G09  23630699.207    -1586167.1151       1589.466          20.740  
G17  21378792.270     -894468.0091        664.623          26.044  
G19  21417211.873    -1277176.5691       1057.985          28.366  
G23  24786111.332     -349090.4071        206.826          20.692  
G28  21115407.208     2242650.7501      -2524.321          24.799  
G30  25474433.317     1653332.8091      -2250.729           7.000  
R02  21231677.516     1585211.3031      -1780.718          32.657  
R18  21519147.005     -514373.2111        563.722          20.566  
R16  21635250.328      261058.9551       -648.400          29.673  
R15  22121922.312     4182860.3291      -3817.525          28.506  
R17  21714702.524      958742.8531       -790.249          25.345  
R03  20285672.821    -2226317.7271       1979.898          20.397  
R04  23137310.973    -2882432.3941       3975.474          24.160  
J01  37827703.826      903348.2641       -955.099          33.411  
J022367258084.060       24651.3511       -880.991          13.366  
E012370636057.640     1404793.3841      -1649.499          24.991  
> 2018  4 30 11 54 24.9996979  0 19
G02  23432999.872    -3687426.5031        858.765          34.409  
G03  23999420.847     4128848.2991      -3509.357          17.630  
G06  21170337.580      216858.2501       -314.505          30.471  
G09  23630410.807    -1587753.5991       1586.055          21.018  
G17  21378693.638     -895136.7561        662.602          25.094  
G19  21416999.919    -1278233.2361       1058.854          31.255  
G23  24786021.994     -349302.5561        208.688          19.961  
G28  21115909.960     2245175.4551      -2526.018          24.765  
G30  25474861.121     1655580.4251      -2249.754           7.000  
R02  21232003.390     1586989.8071      -1779.508          33.735  
R18  21519034.882     -514941.8841        563.975          20.145  
R16  21635359.153      261709.1811       -650.705          29.694  
R15  22122580.656     4186679.4931      -3822.073          29.038  
R17  21714872.207      959546.0501       -801.283          24.183  
R03  20285309.173    -2228289.9601       1978.588          19.896  
R04  23136587.274    -2886412.2301       3979.930          21.465  
J01  37827884.600      904303.9110       -956.878          34.001  
J022667050688.660       25532.5921       -881.159          17.599  
E012670428829.220     1406453.2071      -1636.185          24.881  
> 2018  4 30 11 54 25.9996979  0 19
G02  23432843.680    -3688285.2111        857.160          33.061  
G03  24000112.768     4132363.3491      -3511.274          18.062  
G06  21170387.046      217177.8701       -317.303          30.045  
G09  23630108.017    -1589336.1501       1585.707          19.421  
G17  21378550.937     -895805.0511        663.321          23.682  
G19  21416810.151    -1279290.0321       1056.785          28.622  
G23  24786007.904     -349516.3791        208.361          19.652  
G28  21116368.942     2247700.8451      -2526.360          25.114  
G30  25475289.224     1657828.3671      -2247.803           7.000  
R02  21232340.956     1588773.6411      -1781.873          30.596  
R18  21518992.611     -515511.3521        563.943          22.199  
R16  21635518.342      262358.2611       -647.335          27.871  
R15  22123298.959     4190504.0551      -3819.133          28.971  
R17  21715037.093      960347.8581       -793.927          25.387  
R03  20284946.724    -2230265.3451       1977.385          22.014  
R04  23135906.745    -2890389.5161       3982.972          21.350  
J01  37828075.868      905259.7991       -954.859          33.691  
J022966843334.930       26415.0041       -881.397          18.265  
E012970221604.700     1408108.8981      -1644.450          25.788  
> 2018  4 30 11 54 26.9996979  0 19
G02  23432686.289    -3689143.7450        858.558          35.047  
G03  24000761.818     4135869.2391      -3510.770          17.229  
G06  21170447.304      217494.4981       -317.663          32.851  
G09  23629779.444    -1590921.1051       1585.797          20.223  
G17  21378430.720     -896474.5031        663.706          26.851  
G19  21416599.097    -1280345.8481       1055.884          29.175  
G23  24785941.650     -349728.7151        211.165          21.042  
G28  21116836.019     2250222.1071      -2523.401          28.762  
G30  25475717.628     1660077.1261      -2247.803           7.000  
R02  21232659.935     1590554.1481      -1782.411          33.821  
R18  21518872.694     -516079.3801        567.274          20.898  
R16  21635639.159      263008.8351       -646.433          25.307  
R15  22124045.142     4194324.3241      -3815.528          30.289  
R17  21715163.305      961134.4251       -791.843          25.979  
R03  20284588.771    -2232244.0901       1974.864          22.313  
R04  23135102.102    -2894362.8011       3975.515          22.767  
J01  37828256.643      906215.7580       -957.157          33.540  
J023266635957.210       27295.9461       -881.798          17.703  
E013270014378.080     1409759.9181      -1639.635          25.094  
> 2018  4 30 11 54 27.9996979  0 19
G02  23432514.208    -3690002.6111        857.789          36.510  
G03  24001440.848     4139373.6231      -3508.858          16.779  
G06  21170513.858      217809.8301       -315.072          32.021  
G09  23629495.541    -1592507.5311       1584.479          18.450  
G17  21378300.311     -897138.9171        661.927          27.555  
G19  21416404.232    -1281401.0331       1055.526          29.424  
G23  24785878.094     -349939.4991        208.374          21.608  
G28  21117320.183     2252744.6841      -2521.895          29.915  
G30  25476146.631     1662325.3171      -2248.778           7.000  
R02  21233022.984     1592335.2391      -1785.290          32.166  
R18  21518703.012     -516642.6021        565.272          21.195  
R16  21635712.608      263659.5671       -651.298          25.151  
R15  22124775.137     4198142.0271      -3814.806          32.912  
R17  21715319.497      961921.6531       -795.189          27.103  
R03  20284175.358    -2234214.6761       1977.142          24.181  
R04  23134435.963    -2898336.3231       3974.711          22.242  
J01  37828433.221      907173.0111       -958.570          31.766  
J023566428592.690       28173.5751       -882.635          16.220  
E013569807135.875     1411403.9621      -1650.189          24.450  
> 2018  4 30 11 54 28.9996979  0 19
G02  23432354.119    -3690861.5460        858.602          36.973  
G03  24002126.174     4142876.3621      -3508.128          17.404  
G06  21170566.022      218120.3391       -316.484          34.287  
G09  23629218.532    -1594094.0941       1583.709          19.379  
G17  21378169.601     -897803.2301        665.618          28.651  
G19  21416208.467    -1282458.3811       1057.363          28.029  
G23  24785880.192     -350150.6091        208.823          23.057  
G28  21117806.147     2255270.1751      -2524.238          29.400  
G30  25476574.734     1664572.9051      -2247.803           7.000  
R02  21233325.475     1594120.4631      -1785.295          30.337  
R18  21518674.532     -517207.9611        564.516          20.913  
R16  21635870.598      264307.7051       -652.087          23.243  
R15  22125485.945     4201965.6681      -3817.398          34.677  
R17  21715446.609      962715.9651       -796.275          27.217  
R03  20283797.619    -2236190.3731       1977.282          22.800  
R04  23133588.750    -2902311.3701       3978.482          20.683  
J01  37828622.090      908128.5541       -956.350          34.458  
J023866221225.170       29060.1641       -881.510          16.899  
E013869599908.360     1413044.2891      -1643.224          27.339  
> 2018  4 30 11 54 29.9996979  0 19
G02  23432189.833    -3691719.5791        863.230          33.826  
G03  24002782.120     4146387.8541      -3507.436          17.841  
G06  21170626.580      218440.9091       -322.407          35.017  
G09  23628890.859    -1595679.9411       1583.825          19.244  
G17  21378054.181     -898464.7781        662.948          27.538  
G19  21415997.114    -1283517.2591       1057.814          28.106  
G23  24785798.948     -350353.0821        205.670          21.278  
G28  21118275.922     2257794.3901      -2528.524          30.596  
G30  25477002.838     1666820.1071      -2247.803           7.000  
R02  21233680.129     1595911.6761      -1784.877          31.671  
R18  21518521.637     -517776.9321        564.782          22.189  
R16  21636011.501      264955.6671       -647.487          24.006  
R15  22126222.235     4205786.6351      -3822.680          30.765  
R17  21715581.216      963511.6341       -793.085          25.872  
R03  20283503.223    -2238162.9171       1977.379          21.146  
R04  23132892.632    -2906286.4071       3975.963          19.228  
J01  37828796.869      909085.1071       -957.239          33.539  
J024166013867.540       29947.2811       -881.551          17.288  
E014169392691.930     1414683.5991      -1645.383          25.109  
> 2018  4 30 11 54 30.9996979  0 19
G02  23432029.444    -3692577.3710        857.964          37.456  
G03  24003431.770     4149895.6211      -3508.495          19.411  
G06  21170688.038      218760.2901       -313.387          34.690  
G09  23628564.085    -1597265.2101       1584.650          19.920  
G17  21377934.564     -899129.8281        661.030          27.605  
G19  21415791.756    -1284568.9251       1055.690          28.205  
G23  24785791.154     -350555.9511        208.233          20.721  
G28  21118763.085     2260319.7541      -2528.555          29.381  
G30  25477432.141     1669066.7201      -2246.827           7.000  
R02  21234005.704     1597695.9251      -1785.247          32.020  
R18  21518430.501     -518346.1751        562.753          20.944  
R16  21636102.938      265600.4951       -650.878          23.769  
R15  22126893.470     4209608.9501      -3824.600          29.460  
R17  21715735.309      964301.8391       -794.352          26.628  
R03  20283105.998    -2240134.8801       1977.915          20.218  
R04  23132179.725    -2910259.1671       3975.030          20.194  
J01  37828979.143      910044.5241       -954.768          31.652  
J024465806476.336       30834.8761       -882.802          19.694  
E014469185464.414     1416323.9181      -1641.991          26.496  
> 2018  4 30 11 54 31.9996979  0 19
G02  23431860.660    -3693435.2531        859.219          35.297  
G03  24004116.796     4153400.0951      -3510.115          18.047  
G06  21170724.612      219077.9960       -318.399          39.209  
G09  23628290.075    -1598851.4411       1586.675          22.533  
G17  21377798.758     -899794.7871        661.469          26.565  
G19  21415580.102    -1285627.8361       1055.125          27.252  
G23  24785708.111     -350759.9511        210.348          20.598  
G28  21119249.648     2262852.6231      -2527.873          28.105  
G30  25477860.244     1671313.7131      -2246.827           7.000  
R02  21234354.362     1599488.0031      -1787.148          30.079  
R18  21518291.996     -518913.9911        566.355          24.479  
R16  21636256.731      266251.1591       -652.427          24.097  
R15  22127602.480     4213432.7081      -3822.687          27.725  
R17  21715869.916      965099.1441       -790.421          26.861  
R03  20282723.163    -2242111.2111       1974.954          21.788  
R04  23131462.622    -2914236.7711       3974.499          21.742  
J01  37829158.718      911000.4781       -955.284          32.358  
J024765599107.016       31718.5921       -883.794          17.591  
E014768978226.410     1417969.1191      -1646.635          25.821  
> 2018  4 30 11 54 32.9996979  0 19
G02  23431694.575    -3694293.2591        860.813          38.183  
G03  24004788.631     4156908.6041      -3511.608          18.090  
G06  21170791.766      219392.6461       -318.683          35.576  
G09  23627995.679    -1600438.4851       1583.003          22.476  
G17  21377673.445     -900457.1501        662.879          29.337  
G19  21415398.728    -1286686.2531       1058.334          30.033  
G23  24785688.925     -350972.7001        210.706          21.190  
G28  21119726.018     2265383.0961      -2529.552          26.640  
G30  25478288.048     1673559.5721      -2246.827           7.000  
R02  21234673.342     1601273.0171      -1786.271          32.948  
R18  21518178.975     -519478.2001        567.675          25.952  
R16  21636359.560      266910.1171       -654.369          23.570  
R15  22128307.292     4217258.9601      -3822.677          29.365  
R17  21716047.693      965889.6751       -791.745          28.309  
R03  20282384.397    -2244087.9981       1968.848          24.458  
R04  23130752.114    -2918217.0701       3972.554          19.567  
J01  37829350.586      911956.7271       -957.112          35.966  
J025065391745.490       32600.1351       -883.342          19.233  
E015068770994.390     1419615.7131      -1642.916          25.063  
> 2018  4 30 11 54 33.9996979  0 19
G02  23431518.297    -3695150.9521        860.006          36.329  
G03  24005445.176     4160417.2311      -3512.538          18.586  
G06  21170864.615      219711.3191       -319.998          35.902  
G09  23627688.092    -1602016.8261       1582.612          22.881  
G17  21377547.832     -901118.4221        662.271          29.591  
G19  21415178.381    -1287740.3771       1062.571          31.346  
G23  24785677.832     -351177.8911        209.246          20.364  
G28  21120193.694     2267914.2161      -2532.990          26.747  
G30  25478715.852     1675804.0421      -2245.852           7.000  
R02  21235011.507     1603062.7771      -1784.963          33.173  
R18  21518063.555     -520041.8021        562.436          29.013  
R16  21636480.376      267557.6541       -647.043          23.404  
R15  22129029.791     4221082.3521      -3823.912          28.399  
R17  21716191.593      966689.6941       -796.463          26.079  
R03  20282012.655    -2246055.4721       1966.383          25.176  
R04  23129990.940    -2922194.7821       3976.384          22.768  
J01  37829528.362      912913.7681       -956.088          33.798  
J025365184357.890       33481.0331       -882.201          18.448  
E015368563781.560     1421258.3671      -1638.258          26.132  
> 2018  4 30 11 54 34.9996979  0 19
G02  23431399.879    -3696006.6401        861.294          35.511  
G03  24006108.917     4163923.1551      -3510.887          20.172  
G06  21170898.492      220030.0700       -322.513          41.845  
G09  23627397.593    -1603606.3621       1582.807          21.188  
G17  21377420.420     -901783.2031        663.076          28.018  
G19  21414979.318    -1288797.0221       1060.595          29.405  
G23  24785643.356     -351382.3421        211.494          19.776  
G28  21120693.748     2270448.0921      -2533.542          27.185  
G30  25479142.757     1678047.5191      -2243.900           7.000  
R02  21235337.981     1604848.7901      -1787.067          39.616  
R18  21517984.409     -520610.4001        559.517          25.899  
R16  21636615.883      268199.3611       -647.702          24.367  
R15  22129760.086     4224902.6401      -3824.500          27.845  
R17  21716330.997      967480.8311       -794.452          25.691  
R03  20281599.841    -2248025.3621       1969.484          27.142  
R04  23129277.734    -2926176.4401       3983.172          21.210  
J01  37829704.640      913870.3611       -958.847          33.181  
J025664976988.870       34365.3251       -881.656          17.480  
E015668356547.150     1422901.6791      -1647.008          26.552  
> 2018  4 30 11 54 35.9996979  0 19
G02  23431226.300    -3696861.6711        860.509          35.040  
G03  24006790.045     4167429.7561      -3512.117          19.195  
G06  21170960.549      220348.1421       -318.392          41.741  
G09  23627062.425    -1605183.4031       1583.379          22.864  
G17  21377283.415     -902443.3581        662.928          29.674  
G19  21414796.145    -1289848.2861       1053.055          30.154  
G23  24785560.014     -351594.9991        209.069          20.209  
G28  21121178.213     2272981.2301      -2531.116          24.785  
G30  25479570.860     1680291.5861      -2243.900           7.000  
R02  21235671.051     1606636.0220      -1788.548          41.746  
R18  21517843.207     -521172.5511        562.305          26.732  
R16  21636759.783      268849.7971       -651.639          22.591  
R15  22130496.076     4228721.2011      -3823.491          27.792  
R17  21716456.010      968272.0251       -792.211          28.712  
R03  20281225.100    -2249994.0860       1968.054          35.130  
R04  23128431.720    -2930156.8881       3973.676          23.398  
J01  37829897.707      914826.8631       -954.717          37.387  
J025964769616.850       35249.5521       -881.135          16.225  
E015968149320.230     1424550.7171      -1650.526          24.336  
> 2018  4 30 11 54 36.9996979  0 19
G02  23431058.716    -3697715.6451        858.414          31.246  
G03  24007474.171     4170941.3061      -3512.807          18.383  
G06  21171050.787      220667.1491       -320.161          37.082  
G09  23626783.018    -1606761.0171       1582.243          26.099  
G17  21377149.407     -903107.9101        663.105          29.301  
G19  21414576.997    -1290903.3211       1054.127          32.776  
G23  24785498.856     -351805.4471        205.799          20.772  
G28  21121676.468     2275510.5831      -2533.468          23.570  
G30  25479999.264     1682536.4421      -2243.900           7.000  
R02  21236010.116     1608424.2780      -1789.496          43.028  
R18  21517777.852     -521743.8151        564.358          25.555  
R16  21636902.484      269504.6571       -654.961          23.772  
R15  22131173.008     4232549.4061      -3825.522          29.295  
R17  21716609.204      969065.9081       -793.477          28.562  
R03  20280865.349    -2251961.5040       1967.402          40.142  
R04  23127747.294    -2934120.3201       3966.727          21.874  
J01  37830073.985      915784.0190       -957.732          38.578  
J026264562255.920       36135.6471       -880.365          16.231  
E016267942090.914     1426201.6071      -1648.311          25.594  
> 2018  4 30 11 54 37.9996979  0 19
G02  23430924.708    -3698570.9521        862.959          29.963  
G03  24008133.415     4174452.7621      -3511.326          20.406  
G06  21171106.848      220986.8311       -320.806          37.149  
G09  23626476.031    -1608347.7481       1584.995          23.943  
G17  21377025.593     -903768.3561        660.622          29.641  
G19  21414387.228    -1291966.2541       1061.386          31.175  
G23  24785519.542     -352006.0131        203.162          20.197  
G28  21122168.427     2278041.0311      -2534.005          22.197  
G30  25480428.267     1684780.7311      -2244.876           7.000  
R02  21236349.781     1610213.1650      -1790.044          40.962  
R18  21517646.243     -522308.1961        562.214          27.866  
R16  21637045.485      270161.9401       -658.470          22.501  
R15  22131880.518     4236376.4741      -3827.273          30.258  
R17  21716791.478      969852.6631       -794.094          27.789  
R03  20280508.596    -2253926.4751       1966.760          34.562  
R04  23127005.307    -2938086.1791       3968.434          20.308  
J01  37830253.560      916741.3711       -957.816          35.934  
J026564354863.820       37016.3051       -881.221          16.159  
E016567734857.100     1427845.9921      -1642.900          26.630  
> 2018  4 30 11 54 38.9996979  0 19
G02  23430768.217    -3699429.1201        865.032          31.395  
G03  24008829.233     4177961.7081      -3512.569          18.694  
G06  21171178.798      221309.3251       -320.482          34.362  
G09  23626151.356    -1609929.2151       1584.305          24.050  
G17  21376920.966     -904429.6811        663.052          29.209  
G19  21414182.770    -1293023.9261       1053.051          31.059  
G23  24785463.780     -352207.0791        204.304          19.808  
G28  21122640.600     2280569.7231      -2531.996          22.237  
G30  25480856.370     1687024.4171      -2243.900           7.000  
R02  21236683.750     1612002.9660      -1789.752          36.778  
R18  21517549.111     -522874.8081        565.009          26.883  
R16  21637138.421      270817.3521       -653.756          22.729  
R15  22132610.213     4240200.3721      -3820.636          31.315  
R17  21716905.999      970646.6311       -795.589          28.568  
R03  20280128.459    -2255891.9421       1963.432          33.566  
R04  23126212.956    -2942052.8391       3970.316          22.056  
J01  37830435.534      917699.3051       -962.687          34.165  
J026864147497.800       37892.1991       -879.408          16.159  
E016867527626.280     1429482.9771      -1648.434          27.969  
> 2018  4 30 11 54 39.9996979  0 19
G02  23430602.731    -3700289.1841        860.280          28.937  
G03  24009508.263     4181469.2821      -3514.256          16.598  
G06  21171243.253      221624.9591       -320.740          32.974  
G09  23625838.972    -1611508.5831       1583.404          25.613  
G17  21376786.659     -905095.5861        659.944          29.535  
G19  21413986.106    -1294076.7851       1049.706          30.324  
G23  24785435.000     -352409.7771        202.163          21.729  
G28  21123119.669     2283097.3641      -2535.646          22.140  
G30  25481283.574     1689269.2501      -2243.900           7.000  
R02  21237021.916     1613793.4901      -1791.527          33.488  
R18  21517458.573     -523438.0711        562.565          24.663  
R16  21637249.044      271472.2101       -650.442          23.089  
R15  22133312.926     4244023.0341      -3815.528          30.170  
R17  21717079.279      971441.6341       -799.533          27.670  
R03  20279764.511    -2257856.7931       1961.896          31.129  
R04  23125528.830    -2946023.9441       3976.968          23.169  
J01  37830613.611      918657.1760       -958.027          35.562  
J027163940133.270       38768.5221       -878.436          12.690  
E017167320405.960     1431116.1781      -1644.169          25.754  
> 2018  4 30 11 54 40.9996979  0 19
G02  23430420.158    -3701150.4481        856.846          27.824  
G03  24010225.067     4184977.6001      -3513.847          16.908  
G06  21171293.918      221939.0431       -320.609          31.252  
G09  23625577.853    -1613093.0161       1581.059          24.586  
G17  21376656.249     -905759.1091        660.400          28.929  
G19  21413774.153    -1295124.5241       1053.980          28.972  
G23  24785384.635     -352616.8461        202.689          20.601  
G28  21123584.347     2285629.6841      -2539.539          21.317  
G30  25481711.678     1691514.3291      -2244.876           7.000  
R02  21237356.184     1615584.8491      -1792.705          32.777  
R18  21517390.521     -524002.9911        558.964          24.486  
R16  21637391.146      272118.4181       -654.618          21.370  
R15  22134045.919     4247847.0501      -3822.636          28.918  
R17  21717227.376      972237.5651       -794.148          27.111  
R03  20279388.571    -2259818.2281       1960.565          27.778  
R04  23124713.994    -2949997.0891       3976.803          21.586  
J01  37830806.378      919613.6920       -953.727          34.665  
J027463732712.990       39652.8431       -879.357          14.388  
E017467113172.445     1432746.9731      -1644.134          26.536  
> 2018  4 30 11 54 41.9996979  0 19
G02  23430244.779    -3702010.8101        857.846          27.216  
G03  24010844.738     4188489.8651      -3513.499          17.047  
G06  21171364.369      222265.4021       -320.198          29.898  
G09  23625253.178    -1614667.2471       1579.096          22.364  
G17  21376531.535     -906417.6241        658.917          29.954  
G19  21413589.480    -1296170.8101       1054.598          29.991  
G23  24785348.061     -352819.9661        210.787          19.400  
G28  21124081.103     2288175.3501      -2539.653          17.930  
G30  25482139.782     1693758.6041      -2244.876           7.000  
R02  21237691.352     1617378.9941      -1789.536          34.121  
R18  21517268.805     -524563.8571        561.284          22.476  
R16  21637502.369      272779.3201       -662.942          19.977  
R15  22134801.696     4251674.5891      -3826.463          27.679  
R17  21717400.057      973026.9821       -793.443          26.470  
R03  20279039.913    -2261778.7061       1960.689          26.319  
R04  23123991.794    -2953970.9621       3968.882          24.643  
J01  37830983.255      920570.6521       -958.522          33.122  
J027763525306.195       40536.7831       -879.564          13.937  
E017766905942.234     1434377.5081      -1648.317          28.837  
> 2018  4 30 11 54 42.9996979  0 19
G02  23430077.795    -3702867.2061        857.919          28.532  
G03  24011502.183     4192007.4351      -3510.704          16.994  
G06  21171419.231      222587.5561       -320.017          27.874  
G09  23624954.884    -1616252.8161       1587.311          23.775  
G17  21376406.222     -907077.2141        661.785          29.137  
G19  21413386.521    -1297224.6531       1054.134          29.295  
G23  24785302.492     -353023.0431        209.647          18.201  
G28  21124575.461     2290722.4511      -2537.824          18.972  
G30  25482566.686     1696002.2901      -2243.900           7.000  
R02  21238019.325     1619166.0701      -1796.371          32.270  
R18  21517141.693     -525126.7821        566.413          20.034  
R16  21637586.011      273443.4271       -655.877          21.344  
R15  22135506.808     4255501.0251      -3822.586          27.099  
R17  21717558.347      973819.6431       -793.691          25.590  
R03  20278687.357    -2263744.1021       1962.318          25.401  
R04  23123298.074    -2957938.2311       3970.143          21.770  
J01  37831160.133      921526.8130       -955.235          34.750  
J028063317949.766       41417.2201       -880.635          13.273  
E018066698714.414     1436014.6911      -1647.339          28.158  
> 2018  4 30 11 54 43.9996979  0 19
G02  23429929.098    -3703726.1411        856.974          26.026  
G03  24012166.223     4195519.2051      -3512.074          15.915  
G06  21171473.494      222907.4051       -320.338          30.800  
G09  23624624.213    -1617840.1731       1590.865          26.506  
G17  21376271.615     -907741.0731        663.607          29.234  
G19  21413192.555    -1298280.8001       1055.407          27.072  
G23  24785250.328     -353227.5741        208.404          18.566  
G28  21125045.236     2293259.4101      -2538.031          18.784  
G30  25482994.790     1698246.3561      -2243.900           7.000  
R02  21238356.891     1620958.9521      -1794.887          34.098  
R18  21517050.556     -525699.7721        565.224          21.809  
R16  21637762.589      274100.0951       -655.786          21.321  
R15  22136169.649     4259327.1511      -3819.724          26.376  
R17  21717642.289      974603.3321       -788.163          24.997  
R03  20278296.727    -2265704.2621       1965.589          25.648  
R04  23122565.081    -2961911.8581       3984.033          21.765  
J01  37831350.801      922482.8400       -956.716          35.185  
J028363110575.950       42293.7841       -879.709          13.703  
E018366491494.390     1437663.0801      -1641.874          25.570  
> 2018  4 30 11 54 44.9996979  0 19
G02  23429766.011    -3704586.8051        859.729          25.804  
G03  24012854.247     4199037.7181      -3511.550          15.911  
G06  21171546.044      223225.8401       -320.163          33.799  
G09  23624330.416    -1619427.8271       1587.927          25.865  
G17  21376148.700     -908401.4611        667.056          28.999  
G19  21412984.799    -1299333.0581       1056.708          26.389  
G23  24785204.760     -353435.0891        207.157          19.352  
G28  21125539.593     2295793.3931      -2537.057          19.308  
G30  25483421.394     1700488.3271      -2243.900           7.000  
R02  21238691.160     1622752.7871      -1793.517          34.409  
R18  21516895.263     -526265.0071        562.706          21.562  
R16  21637886.403      274759.5731       -657.372          19.609  
R15  22136936.818     4263151.6121      -3822.545          28.113  
R17  21717825.762      975393.0141       -788.885          26.126  
R03  20277934.578    -2267666.8541       1966.553          26.044  
R04  23121770.931    -2965897.5961       3975.133          22.230  
J01  37831527.379      923438.3371       -955.053          35.848  
J028662903222.220       43172.8521       -880.478          13.649  
E018666284262.375     1439323.1391      -1645.437          25.966  
> 2018  4 30 11 54 45.9996979  0 19
G02  23429633.502    -3705443.7781        858.749          24.910  
G03  24013534.776     4202550.8941      -3511.746          17.698  
G06  21171594.010      223543.8631       -318.796          33.008  
G09  23624065.700    -1621009.0751       1583.551          24.654  
G17  21376012.594     -909065.1921        664.776          28.817  
G19  21412774.645    -1300386.6691       1056.019          28.321  
G23  24785173.881     -353644.6111        206.986          18.975  
G28  21126006.070     2298325.5521      -2536.166          20.212  
G30  25483846.800     1702728.8801      -2241.949           7.000  
R02  21239029.326     1624549.5411      -1796.031          35.919  
R18  21516889.567     -526831.8481        568.177          21.833  
R16  21638023.708      275422.0751       -659.149          20.907  
R15  22137602.357     4266972.0651      -3825.899          30.187  
R17  21718015.531      976188.1721       -795.912          26.268  
R03  20277616.798    -2269631.7631       1962.436          25.440  
R04  23121058.025    -2969873.7091       3977.131          20.294  
J01  37831708.753      924393.1641       -960.160          33.665  
J028962695864.300       44047.6871       -878.289          13.895  
E018966077039.360     1440992.1351      -1649.192          27.134  
> 2018  4 30 11 54 46.9996979  0 19
G02  23429474.612    -3706307.2451        860.220          24.193  
G03  24014155.646     4206059.9031      -3513.375          18.973  
G06  21171663.263      223861.7761       -317.457          33.446  
G09  23623762.609    -1622591.7131       1582.934          23.619  
G17  21375894.776     -909733.6491        663.785          28.634  
G19  21412575.882    -1301442.4221       1056.155          26.701  
G23  24785135.808     -353851.0661        204.542          19.607  
G28  21126459.057     2300863.8051      -2535.935          20.939  
G30  25484273.704     1704967.4931      -2239.998           7.000  
R02  21239369.291     1626344.1421      -1794.308          38.157  
R18  21516714.189     -527402.2491        564.496          21.317  
R16  21638113.346      276075.5321       -659.625          21.875  
R15  22138355.136     4270796.1501      -3823.567          28.870  
R17  21718106.068      976980.8001       -795.490          26.818  
R03  20277251.651    -2271598.7441       1961.593          25.790  
R04  23120305.246    -2973850.4481       3977.404          24.907  
J01  37831889.528      925348.1371       -954.414          34.674  
J029262488487.780       44924.2161       -873.617          13.716  
E019265869808.540     1442650.3081      -1645.289          28.515  
> 2018  4 30 11 54 47.9996979  0 19
G02  23429325.915    -3707167.0811        866.489          24.029  
G03  24014825.682     4209569.0931      -3514.528          18.765  
G06  21171722.322      224183.0691       -316.915          31.400  
G09  23623446.628    -1624171.4671       1582.353          22.458  
G17  21375792.247     -910393.7661        660.860          27.074  
G19  21412361.531    -1302498.0431       1055.082          26.408  
G23  24785095.036     -354058.3031        203.819          19.976  
G28  21126953.414     2303403.9341      -2537.267          23.392  
G30  25484700.609     1707206.6681      -2239.022           7.000  
R02  21239708.656     1628140.3340      -1797.975          35.649  
R18  21516627.249     -527964.3811        567.337          21.042  
R16  21638264.741      276739.1151       -658.932          20.885  
R15  22139072.239     4274615.9861      -3823.024          28.362  
R17  21718259.262      977770.9541       -788.458          29.632  
R03  20276888.902    -2273556.3051       1958.922          25.933  
R04  23119574.352    -2977833.2981       3977.880          24.197  
J01  37832065.806      926303.1971       -956.585          32.998  
J029562281126.850       45793.2841       -874.433          12.856  
E019565662583.420     1444298.1751      -1644.481          27.211  
> 2018  4 30 11 54 48.9996979  0 19
G02  23429099.572    -3708032.4411        863.658          22.702  
G03  24015472.035     4213085.2561      -3516.926          18.406  
G06  21171788.876      224503.3601       -319.274          32.134  
G09  23623161.526    -1625752.6721       1578.064          24.071  
G17  21375651.045     -911054.6691        662.296          27.066  
G19  21412183.454    -1303554.4331       1055.157          25.995  
G23  24785072.551     -354264.6431        202.653          19.393  
G28  21127453.768     2305938.7011      -2534.261          23.172  
G30  25485127.813     1709445.6841      -2239.022           7.000  
R02  21240022.538     1629940.9171      -1798.602          31.522  
R18  21516535.512     -528534.2021        567.192          20.577  
R16  21638385.258      277401.1331       -661.934          22.075  
R15  22139791.741     4278436.1381      -3824.838          28.249  
R17  21718422.349      978558.6561       -787.797          30.239  
R03  20276490.178    -2275518.1221       1962.870          27.143  
R04  23118844.057    -2981808.9541       3980.542          21.631  
J01  37832261.570      927258.3401       -956.092          34.178  
J029862073737.450       46672.7081       -878.740          12.980  
E019865455350.805     1445949.2101      -1645.570          27.695  
> 2018  4 30 11 54 49.9996979  0 19
G02  23428966.164    -3708888.8781        857.341          23.372  
G03  24016152.564     4216606.2501      -3518.109          20.209  
G06  21171852.132      224823.6481       -320.873          31.453  
G09  23622869.228    -1627336.6321       1581.696          24.567  
G17  21375525.132     -911717.4371        661.804          27.940  
G19  21411980.195    -1304611.0011       1057.254          25.935  
G23  24785037.476     -354466.1741        202.071          22.220  
G28  21127949.025     2308474.1761      -2534.815          22.836  
G30  25485553.518     1711684.1061      -2239.022           7.000  
R02  21240376.893     1631735.9351      -1799.451          31.557  
R18  21516443.776     -529101.9941        566.231          24.471  
R16  21638483.590      278062.1401       -662.662          22.085  
R15  22140533.128     4282259.6151      -3822.664          28.405  
R17  21718556.656      979347.2161       -790.897          33.341  
R03  20276109.442    -2277482.8081       1963.892          28.218  
R04  23118104.769    -2985794.0931       3979.507          22.032  
J01  37832429.454      928213.6190       -954.271          34.971  
J020161866370.830       47544.8881       -876.113          12.702  
E010165248130.780     1447596.8321      -1645.392          27.019  
> 2018  4 30 11 54 50.9996979  0 19
G02  23428890.317    -3709749.9641        857.084          21.677  
G03  24016767.138     4220119.5071      -3516.188          20.304  
G06  21171904.895      225145.5351       -321.791          31.162  
G09  23622545.152    -1628922.2501       1583.637          23.115  
G17  21375389.626     -912375.1221        661.856          26.899  
G19  21411761.346    -1305662.5431       1056.335          26.021  
G23  24785030.281     -354666.1851        202.977          21.252  
G28  21128437.387     2311011.8171      -2537.106          22.962  
G30  25485980.423     1713921.9381      -2238.047           7.000  
R02  21240741.141     1633529.5901      -1802.660          28.447  
R18  21516325.358     -529668.1951        567.110          23.497  
R16  21638649.075      278716.7751       -661.428          22.863  
R15  22141257.726     4286086.3891      -3820.477          27.102  
R17  21718705.653      980139.3821       -792.621          32.446  
R03  20275753.888    -2279444.0321       1962.269          29.553  
R04  23117355.588    -2989776.3881       3977.688          21.578  
J01  37832626.118      929171.9071       -957.934          33.404  
J020461658989.220       48423.7481       -877.492          12.513  
E010465040891.875     1449239.8141      -1649.675          27.301  
> 2018  4 30 11 54 51.9996979  0 19
G02  23428650.183    -3710607.6861        855.501          23.935  
G03  24017450.665     4223628.5231      -3510.643          21.801  
G06  21171962.455      225465.9181       -320.502          31.140  
G09  23622259.750    -1630503.3221       1585.104          22.720  
G17  21375268.210     -913041.8681        663.332          28.198  
G19  21411562.883    -1306710.9811       1054.468          26.310  
G23  24784943.641     -354871.3431        202.859          20.946  
G28  21128887.376     2313546.6831      -2538.973          22.982  
G30  25486407.028     1716159.3841      -2238.047           7.000  
R02  21241064.617     1635334.0031      -1800.981          28.882  
R18  21516221.930     -530242.7001        570.313          24.676  
R16  21638719.526      279383.0121       -666.741          24.307  
R15  22141947.848     4289910.7791      -3824.682          27.879  
R17  21718856.449      980929.4811       -792.556          32.982  
R03  20275369.554    -2281403.1631       1959.747          32.579  
R04  23116655.572    -2993753.9811       3979.166          21.217  
J01  37832801.197      930131.7001       -955.463          34.207  
J020761451624.390       49296.1531       -875.329          12.552  
E010764833669.160     1450880.2081      -1653.850          27.314  
> 2018  4 30 11 54 52.9996979  0 19
G02  23428477.802    -3711469.5201        858.409          25.524  
G03  24018123.099     4227141.1011      -3505.903          21.749  
G06  21172023.913      225785.7051       -320.312          31.716  
G09  23621970.750    -1632094.3661       1580.549          22.609  
G17  21375136.001     -913708.5351        663.334          27.918  
G19  21411359.924    -1307764.5491       1054.014          28.186  
G23  24784887.579     -355067.1441        199.570          20.231  
G28  21129395.524     2316086.2391      -2539.398          24.649  
G30  25486833.932     1718395.2781      -2237.071           7.000  
R02  21241395.888     1637135.3281      -1800.948          28.604  
R18  21516110.107     -530805.5901        566.648          27.004  
R16  21638881.114      280056.9241       -669.160          23.067  
R15  22142646.365     4293732.8551      -3825.380          28.249  
R17  21719024.033      981719.9321       -793.894          31.868  
R03  20275002.608    -2283361.9761       1957.762          33.214  
R04  23115853.328    -2997734.4281       3974.834          21.947  
J01  37832987.668      931088.1141       -958.481          32.481  
J021061244258.375       50172.0261       -876.656          12.255  
E011064626428.740     1452522.2151      -1653.259          25.939  
> 2018  4 30 11 54 53.9996979  0 19
G02  23428379.171    -3712331.8141        857.970          25.465  
G03  24018808.125     4230645.6941      -3504.812          18.944  
G06  21172102.758      226103.4251       -323.132          29.413  
G09  23621666.461    -1633678.6001       1575.311          24.127  
G17  21374996.598     -914368.6631        664.082          26.931  
G19  21411175.552    -1308816.5891       1052.700          27.824  
G23  24784869.592     -355271.4651        199.102          22.797  
G28  21129882.087     2318625.9781      -2535.240          24.941  
G30  25487259.937     1720631.5261      -2236.095           7.000  
R02  21241738.251     1638934.0541      -1804.665          29.239  
R18  21515981.496     -531369.7471        563.738          26.956  
R16  21638973.750      280724.1621       -663.183          21.650  
R15  22143381.756     4297561.0511      -3825.877          27.230  
R17  21719136.155      982511.0391       -789.783          30.254  
R03  20274626.068    -2285319.6041       1958.158          32.488  
R04  23115141.920    -3001709.0751       3973.613          23.773  
J01  37833170.241      932044.8931       -957.261          31.803  
J021361036874.060       51044.9541       -877.508          11.863  
E011364419201.520     1454170.9351      -1651.940          24.491  
> 2018  4 30 11 54 54.9996979  0 19
G02  23428192.700    -3713190.2031        860.012          26.453  
G03  24019489.553     4234146.7041      -3506.529          17.984  
G06  21172175.908      226420.2871       -323.590          26.538  
G09  23621347.781    -1635257.3781       1578.522          23.528  
G17  21374883.276     -915030.0581        663.392          28.178  
G19  21410981.586    -1309869.1301       1052.516          25.699  
G23  24784778.455     -355477.1661        204.353          24.934  
G28  21130361.755     2321157.0921      -2535.881          25.151  
G30  25487686.842     1722867.6161      -2236.095           7.000  
R02  21242073.119     1640733.1311      -1805.434          27.921  
R18  21515887.361     -531936.5351        565.911          24.901  
R16  21639107.458      281387.4211       -670.066          23.847  
R15  22144124.941     4301389.9171      -3823.794          27.887  
R17  21719302.840      983302.5601       -789.116          27.916  
R03  20274257.324    -2287276.4140       1956.482          36.877  
R04  23114398.435    -3005685.0011       3975.232          22.100  
J01  37833351.915      933001.7371       -956.349          31.527  
J021660829496.945       51919.8811       -878.107          12.072  
E011664211990.500     1455823.3381      -1651.851          24.245  
> 2018  4 30 11 54 55.9996979  0 19
G02  23428000.233    -3714046.7391        858.836          27.173  
G03  24020174.879     4237654.0371      -3510.520          18.579  
G06  21172209.784      226743.6251       -322.162          28.375  
G09  23621057.282    -1636838.3051       1584.641          23.810  
G17  21374750.768     -915698.0201        664.201          27.572  
G19  21410760.939    -1310921.9711       1054.147          25.715  
G23  24784736.484     -355676.3221        203.062          24.027  
G28  21130825.534     2323698.6201      -2542.442          26.091  
G30  25488112.547     1725103.8771      -2236.095           7.000  
R02  21242442.463     1642536.5111      -1805.099          26.311  
R18  21515727.872     -532511.7941        570.983          23.061  
R16  21639220.479      282052.2621       -671.074          24.722  
R15  22144813.565     4305214.3501      -3822.499          28.225  
R17  21719435.048      984091.9541       -793.003          26.448  
R03  20273880.485    -2289232.8851       1957.030          37.589  
R04  23113797.651    -3009663.7131       3981.996          20.010  
J01  37833529.093      933959.5121       -954.919          29.371  
J021960622123.130       52795.8451       -871.355          11.492  
E011964004759.680     1457472.6061      -1651.552          26.236  
> 2018  4 30 11 54 56.9996979  0 19
G02  23427853.634    -3714904.4731        857.913          27.427  
G03  24020852.710     4241164.7861      -3513.605          17.959  
G06  21172287.131      227067.0171       -323.711          31.245  
G09  23620759.888    -1638417.8151       1582.001          23.860  
G17  21374631.750     -916358.0841        661.955          27.927  
G19  21410553.182    -1311973.8461       1053.261          27.527  
G23  24784712.201     -355871.1321        202.618          24.740  
G28  21131323.189     2326241.6571      -2544.495          28.109  
G30  25488540.650     1727339.0051      -2236.095           7.000  
R02  21242758.145     1644342.3351      -1804.068          27.753  
R18  21515696.094     -533083.8151        566.793          23.251  
R16  21639329.004      282723.3001       -671.065          26.158  
R15  22145561.247     4309036.0491      -3826.825          28.204  
R17  21719577.749      984884.1751       -792.311          27.497  
R03  20273530.327    -2291188.6320       1956.707          38.963  
R04  23113035.578    -3013649.3521       3985.184          20.721  
J01  37833707.469      934916.2391       -955.399          32.105  
J022260414770.000       53666.6951       -873.488          10.889  
E012263797530.664     1459123.5421      -1648.444          23.378  
> 2018  4 30 11 54 57.9996979  0 19
G02  23427697.742    -3715761.7721        857.146          27.099  
G03  24021504.459     4244682.6391      -3516.028          18.843  
G06  21172346.789      227390.9461       -323.327          31.734  
G09  23620479.582    -1639999.9111       1575.288          23.353  
G17  21374498.343     -917020.1921        660.733          27.829  
G19  21410372.408    -1313032.9231       1057.023          25.854  
G23  24784680.423     -356073.8691        201.862          27.671  
G28  21131822.644     2328787.4501      -2543.202          26.393  
G30  25488967.555     1729574.2771      -2235.120           7.000  
R02  21243100.508     1646146.6081      -1807.037          26.455  
R18  21515587.269     -533647.7631        562.899          24.900  
R16  21639486.395      283392.2171       -671.273          27.325  
R15  22146313.726     4312867.1611      -3823.059          26.396  
R17  21719738.738      985674.2131       -794.821          26.414  
R03  20273163.381    -2293143.5120       1956.071          40.411  
R04  23112218.344    -3017643.3901       3986.561          19.218  
J01  37833893.341      935873.4241       -958.343          31.899  
J022560207410.270       54545.4441       -875.791          10.389  
E012563590309.140     1460773.4231      -1650.196          25.567  
> 2018  4 30 11 54 58.9996979  0 19
G02  23427519.666    -3716620.7221        855.202          26.536  
G03  24022165.201     4248205.6001      -3517.767          18.227  
G06  21172409.446      227714.4881       -323.556          30.388  
G09  23620156.706    -1641578.7311       1574.577          25.258  
G17  21374376.327     -917681.7441        660.395          28.632  
G19  21410163.152    -1314087.4771       1056.308          27.401  
G23  24784619.565     -356278.0641        202.357          26.601  
G28  21132297.815     2331332.1691      -2538.405          26.551  
G30  25489394.459     1731809.3911      -2235.120           7.000  
R02  21243416.189     1647952.0301      -1805.602          28.534  
R18  21515447.266     -534216.0121        566.420          22.845  
R16  21639588.325      284062.9821       -675.199          30.024  
R15  22146947.787     4316682.0261      -3819.409          25.438  
R17  21719891.932      986468.1521       -796.056          26.981  
R03  20272812.024    -2295096.9551       1951.957          38.504  
R04  23111429.290    -3021631.7671       3984.814          18.397  
J01  37834083.409      936830.6621       -959.892          31.679  
J022860000041.260       55415.8501       -878.625          10.570  
E012863383082.230     1462423.4811      -1657.600          24.346  
> 2018  4 30 11 54 59.9996979  0 19
G02  23427351.482    -3717470.8611        854.967          26.126  
G03  24022852.625     4251723.6971      -3520.746          19.358  
G06  21172462.809      228041.1431       -325.824          29.478  
G09  23619878.498    -1643155.8691       1578.367          24.548  
G17  21374258.209     -918347.4151        658.486          28.198  
G19  21409980.579    -1315140.0171       1053.006          26.009  
G23  24784636.053     -356478.1091        199.901          25.309  
G28  21132787.676     2333879.0521      -2542.046          29.100  
G30  25489821.664     1734044.6771      -2235.120           7.000  
R02  21243778.938     1649760.8921      -1807.349          27.564  
R18  21515397.200     -534779.1801        569.730          22.022  
R16  21639701.646      284737.2470       -675.536          31.381  
R15  22147748.233     4320497.1781      -3821.778          26.262  
R17  21720036.432      987269.6441       -797.073          24.599  
R03  20272436.085    -2297050.0840       1952.993          40.832  
R04  23110720.281    -3025622.2521       3982.793          19.546  
J01  37834267.482      937788.2641       -959.001          33.822  
J023159792657.550       56288.3841       -875.153          11.235  
E013163175866.400     1464075.3511      -1653.304          23.216  
> 2018  4 30 11 55  0.9996979  0 19
G02  23427171.007    -3718330.3491        857.050          25.748  
G03  24023488.485     4255241.4981      -3518.558          20.607  
G06  21172518.271      228365.1151       -325.613          30.692  
G09  23619581.704    -1644734.8201       1581.598          22.282  
G17  21374127.499     -919001.8421        658.211          27.408  
G19  21409755.435    -1316192.1791       1051.959          28.177  
G23  24784573.996     -356682.0661        196.406          24.356  
G28  21133261.048     2336424.9391      -2545.529          28.101  
G30  25490247.669     1736280.7531      -2235.120           7.000  
R02  21244125.198     1651575.0031      -1813.583          24.590  
R18  21515307.263     -535347.2841        574.008          21.491  
R16  21639835.953      285412.6561       -674.338          31.102  
R15  22148462.039     4324315.1821      -3821.994          28.819  
R17  21720211.211      988062.0311       -795.439          24.279  
R03  20272082.629    -2299002.5851       1952.856          36.936  
R04  23110009.473    -3029612.2011       3981.175          20.178  
J01  37834448.856      938745.8401       -957.832          34.418  
J023459585270.836       57164.1091       -876.697          11.141  
E013462968640.680     1465724.4441      -1654.188          23.236  
> 2018  4 30 11 55  1.9996979  0 19
G02  23426995.329    -3719194.1201        855.364          27.876  
G03  24024177.108     4258753.7491      -3517.382          18.236  
G06  21172582.726      228690.5651       -323.637          28.856  
G09  23619249.234    -1646319.8981       1580.617          25.428  
G17  21374004.884     -919664.9761        658.961          25.737  
G19  21409547.379    -1317248.6281       1055.580          32.109  
G23  24784562.005     -356880.4831        193.824          26.143  
G28  21133745.213     2338965.9421      -2544.454          28.405  
G30  25490673.374     1738517.0281      -2236.095           7.000  
R02  21244478.054     1653393.5811      -1820.735          22.960  
R18  21515135.781     -535921.3071        564.720          22.798  
R16  21639972.359      286088.8691       -673.211          28.406  
R15  22149197.430     4328133.7541      -3822.496          29.172  
R17  21720353.312      988853.4851       -796.029          24.953  
R03  20271713.885    -2300954.2980       1952.551          38.167  
R04  23109283.076    -3033601.3831       3979.711          19.648  
J01  37834628.432      939703.5301       -955.809          35.965  
J023759377896.125       58046.1311       -877.983          11.493  
E013762761414.664     1467374.8431      -1651.732          25.113  
> 2018  4 30 11 55  2.9996979  0 19
G02  23426882.607    -3720047.8291        854.265          26.758  
G03  24024856.438     4262266.6091      -3518.369          19.851  
G06  21172655.875      229016.4201       -322.068          27.425  
G09  23618954.538    -1647896.3941       1575.337          26.516  
G17  21373874.175     -920328.8551        658.619          28.062  
G19  21409348.317    -1318304.6491       1055.034          36.696  
G23  24784500.248     -357082.8491        198.778          27.050  
G28  21134229.078     2341510.6061      -2543.826          29.393  
G30  25491101.478     1740752.1561      -2236.095           7.000  
R02  21244833.308     1655205.9611      -1815.748          23.431  
R18  21515016.764     -536482.0511        567.622          21.253  
R16  21640081.783      286763.3321       -676.115          28.387  
R15  22149895.347     4331948.7191      -3820.604          27.958  
R17  21720476.227      989652.9911       -794.819          26.323  
R03  20271332.548    -2302905.1231       1950.146          39.314  
R04  23108465.242    -3037580.2301       3979.507          20.158  
J01  37834804.410      940661.2640       -959.004          39.071  
J024059170511.810       58926.0331       -877.919          12.715  
E014062554164.360     1469030.0651      -1658.119          24.708  
> 2018  4 30 11 55  3.9996979  0 19
G02  23426727.014    -3720902.7751        854.416          25.588  
G03  24025528.573     4265792.2121      -3520.057          19.289  
G06  21172715.234      229341.6081       -325.227          27.489  
G09  23618670.934    -1649474.8701       1577.062          24.755  
G17  21373733.272     -920986.0261        661.517          29.066  
G19  21409139.061    -1319360.4011       1051.826          33.151  
G23  24784487.656     -357281.0351        195.348          27.108  
G28  21134699.152     2344054.2541      -2543.850          31.407  
G30  25491527.183     1742987.4281      -2235.120           7.000  
R02  21245174.172     1657017.1851      -1812.326          24.349  
R18  21514894.149     -537052.4521        570.325          21.064  
R16  21640286.541      287435.9741       -674.987          26.773  
R15  22150609.452     4335765.6651      -3820.444          28.826  
R17  21720649.807      990441.4791       -792.416          26.172  
R03  20270974.896    -2304855.3601       1950.287          39.845  
R04  23107730.151    -3041553.7751       3977.730          20.375  
J01  37834984.585      941618.9981       -957.159          39.135  
J024358963144.300       59797.9211       -877.762          12.534  
E014362346935.340     1470687.0691      -1657.022          23.919  
> 2018  4 30 11 55  4.9996979  0 19
G02  23426536.047    -3721755.6551        857.644          26.670  
G03  24026186.018     4269314.2091      -3519.293          19.547  
G06  21172772.495      229666.7351       -327.780          30.503  
G09  23618372.041    -1651049.4301       1576.420          25.460  
G17  21373627.745     -921643.7311        657.327          28.243  
G19  21408943.897    -1320416.3651       1054.874          37.516  
G23  24784398.618     -357473.6161        195.474          29.292  
G28  21135175.522     2346598.4511      -2544.645          35.690  
G30  25491954.087     1745222.5421      -2235.120           7.000  
R02  21245469.168     1658826.5631      -1813.829          23.731  
R18  21514807.509     -537618.0211        568.102          23.151  
R16  21640340.204      288114.9161       -675.377          27.772  
R15  22151347.841     4339582.0221      -3823.129          27.554  
R17  21720784.714      991240.8671       -793.541          25.858  
R03  20270607.051    -2306804.9781       1949.880          41.397  
R04  23107065.212    -3045525.6881       3977.066          20.280  
J01  37835172.255      942576.9380       -958.891          40.514  
J024658755774.375       60677.5351       -877.338          14.272  
E014662139709.625     1472344.8021      -1657.104          29.260  
> 2018  4 30 11 55  5.9996979  0 19
G02  23426380.754    -3722613.1451        858.159          24.752  
G03  24026817.680     4272837.5211      -3518.063          18.219  
G06  21172834.252      229988.0521       -326.593          27.664  
G09  23618056.959    -1652627.5911       1577.242          27.208  
G17  21373496.436     -922303.9521        656.212          28.734  
G19  21408739.438    -1321471.9521       1054.381          37.886  
G23  24784366.240     -357675.7461        195.631          27.536  
G28  21135686.968     2349140.2841      -2548.385          32.533  
G30  25492382.191     1747457.0611      -2235.120           7.000  
R02  21245853.202     1660641.8141      -1822.934          23.483  
R18  21514722.368     -538186.6061        569.639          26.275  
R16  21640467.916      288792.6671       -680.693          28.013  
R15  22152091.626     4343404.5911      -3827.489          24.834  
R17  21720926.815      992036.7791       -797.777          28.079  
R03  20270247.300    -2308753.9340       1947.970          42.849  
R04  23106283.353    -3049499.1691       3976.122          21.775  
J01  37835350.332      943534.7500       -958.324          42.076  
J024958548395.460       61554.3941       -878.006          15.161  
E014961932482.410     1474002.8081      -1655.897          30.202  
> 2018  4 30 11 55  6.9996979  0 19
G02  23426219.466    -3723473.9201        852.912          24.868  
G03  24027488.616     4276360.8921      -3517.311          17.007  
G06  21172901.106      230316.2541       -326.243          28.997  
G09  23617750.572    -1654205.4291       1579.854          28.129  
G17  21373379.517     -922958.3731        662.398          25.221  
G19  21408547.871    -1322520.3611       1052.847          35.501  
G23  24784305.382     -357875.7871        194.936          30.086  
G28  21136155.244     2351682.8801      -2543.405          31.254  
G30  25492810.295     1749690.9911      -2234.144           7.000  
R02  21246161.089     1662456.4031      -1820.340          25.374  
R18  21514582.964     -538749.4161        568.752          24.125  
R16  21640669.676      289473.9821       -678.806          25.566  
R15  22152704.702     4347231.5641      -3827.423          26.170  
R17  21721056.026      992826.7181       -795.127          26.947  
R03  20269885.750    -2310701.8360       1946.554          42.319  
R04  23105417.552    -3053473.1761       3971.846          20.804  
J01  37835538.302      944492.9260       -958.564          38.304  
J025258341026.140       62426.9891       -877.184          15.303  
E015261725258.790     1475661.4011      -1658.314          30.705  
> 2018  4 30 11 55  7.9996979  0 19
G02  23426072.567    -3724334.2821        855.341          23.176  
G03  24028156.553     4279880.0721      -3518.751          17.105  
G06  21172953.869      230642.7711       -327.574          29.879  
G09  23617439.087    -1655781.9401       1580.760          25.938  
G17  21373257.802     -923618.9391        657.656          28.210  
G19  21408339.515    -1323571.6431       1053.524          33.715  
G23  24784288.894     -358076.1821        194.802          30.620  
G28  21136641.508     2354223.7481      -2545.357          31.697  
G30  25493236.899     1751924.5341      -2234.144           7.000  
R02  21246494.458     1664273.6641      -1820.130          25.579  
R18  21514502.920     -539316.2821        565.847          25.261  
R16  21640726.337      290146.0371       -677.338          25.727  
R15  22153560.309     4351061.5521      -3822.305          26.739  
R17  21721195.429      993615.5971       -788.019          28.506  
R03  20269516.706    -2312649.3851       1944.589          37.175  
R04  23104819.766    -3057451.4781       3981.499          23.309  
J01  37835719.077      945451.1401       -958.140          34.012  
J025558133634.336       63306.2241       -877.937          18.740  
E015561518033.370     1477319.9911      -1658.103          29.495  
> 2018  4 30 11 55  8.9996979  0 19
G02  23425899.887    -3725195.8371        857.928          24.659  
G03  24028826.590     4283398.6681      -3520.382          16.211  
G06  21173023.721      230970.2881       -327.119          29.266  
G09  23617153.085    -1657351.7401       1572.868          23.997  
G17  21373130.690     -924272.2881        655.792          29.079  
G19  21408143.451    -1324625.3881       1051.430          36.050  
G23  24784198.057     -358276.4141        200.291          36.838  
G28  21137112.182     2356771.7291      -2548.763          33.477  
G30  25493662.904     1754157.4881      -2233.169           7.000  
R02  21246850.312     1666095.7051      -1819.523          25.260  
R18  21514363.216     -539877.4851        567.209          25.125  
R16  21640851.051      290826.4651       -681.921          27.659  
R15  22154173.685     4354880.7691      -3823.432          27.153  
R17  21721345.026      994404.2471       -789.587          29.253  
R03  20269154.856    -2314593.7131       1944.252          32.705  
R04  23104057.094    -3061433.8191       3978.828          24.377  
J01  37835896.854      946409.5071       -961.217          36.878  
J025857926274.016       64186.8831       -877.284          17.532  
E015861310797.450     1478978.0401      -1657.681          28.493  
> 2018  4 30 11 55  9.9996979  0 19
G02  23425727.506    -3726059.8421        860.467          27.287  
G03  24029530.802     4286919.6331      -3521.432          17.571  
G06  21173098.669      231290.6931       -325.756          25.762  
G09  23616828.110    -1658927.7331       1579.161          24.735  
G17  21372990.686     -924929.7721        658.687          27.142  
G19  21407955.181    -1325675.0091       1048.125          34.619  
G23  24784175.272     -358475.9080        199.247          37.441  
G28  21137596.646     2359321.3300      -2550.426          38.421  
G30  25494088.610     1756390.8231      -2233.169           7.000  
R02  21247228.350     1667919.9621      -1821.097          25.181  
R18  21514260.088     -540445.3721        566.713          27.964  
R16  21640979.062      291509.8541       -684.170          29.694  
R15  22154896.784     4358700.3051      -3825.409          26.463  
R17  21721516.207      995197.5261       -794.688          29.865  
R03  20268790.908    -2316538.0001       1944.885          31.831  
R04  23103308.512    -3065409.1701       3976.086          24.712  
J01  37836095.016      947370.5451       -961.579          33.143  
J026157718922.380       65065.7981       -877.721          12.474  
E016161103571.734     1480637.0171      -1658.866          31.111  
> 2018  4 30 11 55 10.9996979  0 19
G02  23425556.325    -3726915.4361        856.255          26.570  
G03  24030216.128     4290443.9101      -3520.812          17.463  
G06  21173154.130      231615.9801       -325.173          24.377  
G09  23616570.888    -1660513.1021       1579.762          23.577  
G17  21372870.769     -925590.8251        664.953          26.483  
G19  21407746.825    -1326726.8531       1048.324          32.178  
G23  24784139.897     -358674.8750        198.669          36.543  
G28  21138077.214     2361871.8441      -2550.133          38.231  
G30  25494514.615     1758624.9481      -2233.169           7.000  
R02  21247522.147     1669744.0421      -1824.289          25.167  
R18  21514177.645     -541008.6631        567.844          28.125  
R16  21641121.463      292194.0671       -682.438          29.020  
R15  22155604.894     4362524.6271      -3825.230          26.336  
R17  21721681.393      995991.5031       -796.432          28.564  
R03  20268467.732    -2318484.5831       1945.021          29.199  
R04  23102651.967    -3069381.0841       3977.046          23.286  
J01  37836273.393      948332.7601       -960.510          30.649  
J026457511574.340       65941.2921       -878.357          17.875  
E016460896351.710     1482296.7281      -1659.287          30.658  
> 2018  4 30 11 55 11.9996979  0 19
G02  23425414.823    -3727774.7821        851.246          25.733  
G03  24030859.782     4293967.0911      -3519.513          19.680  
G06  21173235.674      231948.2541       -326.933          24.373  
G09  23616220.731    -1662090.8991       1578.820          25.376  
G17  21372770.339     -926248.5981        659.461          25.684  
G19  21407548.662    -1327779.7411       1052.903          29.498  
G23  24784091.331     -358873.6130        198.411          39.708  
G28  21138563.177     2364422.7291      -2551.347          35.886  
G30  25494941.519     1760858.5051      -2234.144           7.000  
R02  21247896.587     1671568.8451      -1827.575          25.646  
R18  21514051.432     -541578.4151        570.817          29.165  
R16  21641270.160      292878.7971       -680.005          27.730  
R15  22156275.530     4366355.7101      -3828.280          25.674  
R17  21721796.513      996790.1281       -791.492          27.675  
R03  20268096.888    -2320429.3221       1942.605          26.036  
R04  23101822.741    -3073362.2001       3982.960          23.147  
J01  37836434.382      949290.8721       -956.388          33.792  
J026757304201.430       66812.3561       -878.730          19.089  
E016760689125.090     1483956.8741      -1660.619          31.601  
> 2018  4 30 11 55 12.9996979  0 19
G02  23425222.356    -3728625.7731        854.156          27.805  
G03  24031570.890     4297484.9281      -3520.354          20.284  
G06  21173274.647      232277.6211       -324.509          24.547  
G09  23615920.039    -1663665.8101       1575.476          29.469  
G17  21372612.648     -926905.2311        653.717          26.309  
G19  21407351.099    -1328835.1561       1054.237          31.176  
G23  24784063.450     -359072.2771        198.731          39.958  
G28  21139056.036     2366972.6171      -2555.673          34.281  
G30  25495367.225     1763090.4971      -2233.169           7.000  
R02  21248252.741     1673399.4861      -1826.159          22.806  
R18  21513962.993     -542146.5871        567.994          29.180  
R16  21641413.161      293561.2881       -680.378          25.542  
R15  22157057.388     4370177.6631      -3824.311          24.660  
R17  21721957.202      997585.6161       -790.708          27.762  
R03  20267732.940    -2322369.7301       1941.030          25.359  
R04  23101131.420    -3077349.1241       3981.128          23.810  
J01  37836624.750      950249.4390       -957.863          34.650  
J027057096836.910       67688.3161       -877.081          16.062  
E017060481898.180     1485617.9481      -1660.747          30.898  
> 2018  4 30 11 55 13.9996979  0 19
G02  23425079.655    -3729479.7901        853.357          27.119  
G03  24032247.521     4301001.0421      -3521.025          17.471  
G06  21173325.312      232606.8651       -322.658          24.037  
G09  23615616.049    -1665245.8691       1577.206          29.329  
G17  21372475.343     -927566.4221        659.275          28.025  
G19  21407129.852    -1329891.2651       1055.521          33.853  
G23  24784006.489     -359270.8261        197.224          40.641  
G28  21139539.601     2369525.3771      -2550.919          34.302  
G30  25495792.930     1765322.8421      -2232.193           7.000  
R02  21248601.399     1675220.6391      -1822.799          24.757  
R18  21513847.573     -542716.9071        568.343          31.399  
R16  21641579.846      294239.2411       -684.017          21.948  
R15  22157711.835     4374003.2841      -3824.791          26.192  
R17  21722077.719      998372.0491       -790.133          29.363  
R03  20267385.781    -2324313.9521       1940.673          25.361  
R04  23100412.517    -3081327.9921       3980.759          23.474  
J01  37836812.120      951208.1181       -958.513          36.538  
J027356889448.700       68562.4211       -876.230          18.090  
E017360274680.850     1487279.5101      -1658.747          29.688  
> 2018  4 30 11 55 14.9996979  0 19
G02  23424917.167    -3730330.7611        853.128          28.793  
G03  24032905.266     4304516.2721      -3521.459          16.988  
G06  21173389.467      232929.3451       -328.407          27.819  
G09  23615324.951    -1666820.0931       1578.225          27.036  
G17  21372354.827     -928222.5081        663.005          26.840  
G19  21406940.983    -1330946.4931       1051.793          31.225  
G23  24783979.508     -359468.5380        197.834          42.205  
G28  21140018.370     2372078.0141      -2552.197          38.331  
G30  25496220.134     1767555.9921      -2232.193           7.000  
R02  21248951.857     1677047.8131      -1823.164          24.295  
R18  21513716.564     -543289.2941        569.294          30.032  
R16  21641647.299      294924.0971       -682.668          24.139  
R15  22158422.943     4377831.0651      -3832.875          28.580  
R17  21722225.516      999160.6131       -790.502          30.174  
R03  20267039.520    -2326246.9591       1938.616          24.822  
R04  23099619.866    -3085310.0601       3976.650          22.886  
J01  37836996.492      952166.9220       -958.289          37.103  
J027656682074.880       69446.2621       -877.396          19.450  
E017660067446.140     1488941.5261      -1660.448          27.899  
> 2018  4 30 11 55 15.9996979  0 19
G02  23424746.286    -3731182.4981        852.984          28.237  
G03  24033565.709     4308030.6511      -3521.769          16.264  
G06  21173440.732      233255.5351       -328.954          33.021  
G09  23615008.370    -1668401.8511       1576.108          28.586  
G17  21372231.312     -928880.7631        655.461          26.598  
G19  21406729.330    -1332000.7371       1052.768          31.865  
G23  24783952.826     -359666.0800        197.333          38.179  
G28  21140507.331     2374631.6360      -2553.420          41.059  
G30  25496646.139     1769789.3401      -2233.169           7.000  
R02  21249207.580     1678874.0861      -1828.395          22.392  
R18  21513610.138     -543861.7251        570.641          28.951  
R16  21641778.009      295602.6191       -684.401          23.759  
R15  22159131.353     4381665.4531      -3833.954          28.038  
R17  21722397.297      999949.2811       -791.369          28.580  
R03  20266631.803    -2328184.8941       1939.212          27.242  
R04  23098853.596    -3089290.8491       3977.803          22.816  
J01  37837177.567      953125.7550       -958.357          37.478  
J027956474700.470       70327.7641       -876.118          18.747  
E017959860231.516     1490604.0381      -1661.727          30.245  
> 2018  4 30 11 55 16.9996979  0 19
G02  23424602.985    -3732035.6031        853.129          26.698  
G03  24034242.340     4311553.8731      -3523.451          17.436  
G06  21173515.980      233582.4871       -326.855          30.441  
G09  23614721.169    -1669982.0311       1574.632          30.784  
G17  21372094.607     -929532.8491        653.946          26.165  
G19  21406538.062    -1333052.4691       1053.287          31.683  
G23  24783908.757     -359863.1860        195.418          38.870  
G28  21140992.396     2377185.6560      -2553.651          43.234  
G30  25497073.343     1772023.4651      -2233.169           7.000  
R02  21249582.020     1680697.7631      -1828.512          24.958  
R18  21513518.401     -544432.6761        566.379          28.322  
R16  21641928.205      296284.6221       -688.091          22.434  
R15  22159934.796     4385493.6371      -3827.350          25.996  
R17  21722534.302     1000738.1141       -790.158          30.522  
R03  20266275.649    -2330121.4881       1940.301          26.760  
R04  23098130.497    -3093267.3981       3974.881          23.556  
J01  37837365.537      954084.5451       -959.922          33.569  
J028256267376.120       71207.1151       -875.680          18.283  
E018259652997.100     1492266.6181      -1662.424          28.466  
> 2018  4 30 11 55 17.9996979  0 19
G02  23424412.916    -3732885.6241        852.430          27.940  
G03  24034862.011     4315077.3931      -3521.785          20.044  
G06  21173566.645      233909.8791       -324.929          30.481  
G09  23614408.785    -1671559.5481       1576.355          33.014  
G17  21371982.185     -930181.7941        657.382          27.081  
G19  21406351.891    -1334101.4801       1052.560          28.183  
G23  24783872.782     -360057.0621        191.007          36.948  
G28  21141475.661     2379739.6721      -2554.999          40.981  
G30  25497499.948     1774257.0221      -2234.144           7.000  
R02  21249947.767     1682525.2311      -1826.966          24.942  
R18  21513408.977     -545002.1201        566.310          27.262  
R16  21642048.122      296969.6301       -684.024          24.204  
R15  22160638.409     4389324.0361      -3826.920          27.606  
R17  21722668.310     1001527.0951       -788.337          31.314  
R03  20265897.011    -2332065.3971       1940.083          26.454  
R04  23097415.192    -3097239.7291       3977.001          23.220  
J01  37837534.320      955042.5511       -962.243          32.591  
J028556060010.090       72079.0051       -876.080          17.823  
E018559445771.680     1493929.5431      -1663.427          30.524  
> 2018  4 30 11 55 18.9996979  0 19
G02  23424257.324    -3733735.7971        849.778          26.764  
G03  24035522.154     4318599.5951      -3521.486          18.419  
G06  21173632.299      234238.1751       -326.213          30.033  
G09  23614117.686    -1673138.6071       1574.132          29.985  
G17  21371847.578     -930838.0621        659.865          26.547  
G19  21406168.118    -1335154.6921       1050.132          25.697  
G23  24783834.109     -360247.4311        198.020          39.571  
G28  21141962.824     2382294.8910      -2555.447          40.253  
G30  25497926.853     1776489.0141      -2233.169           7.000  
R02  21250284.434     1684355.4361      -1828.010          25.368  
R18  21513315.442     -545569.3771        565.900          26.408  
R16  21642168.339      297657.6051       -686.438          22.792  
R15  22161377.398     4393150.9211      -3832.246          24.599  
R17  21722832.296     1002316.1081       -790.807          32.266  
R03  20265588.825    -2334011.1921       1936.882          27.200  
R04  23096629.136    -3101218.0031       3978.819          21.955  
J01  37837730.384      955999.7221       -959.851          33.979  
J028855852606.900       72948.1391       -876.615          16.252  
E018859238543.860     1495593.4101      -1662.625          30.684  
> 2018  4 30 11 55 19.9996979  0 19
G02  23424108.627    -3734584.3691        851.022          27.757  
G03  24036215.574     4322122.8121      -3521.480          19.365  
G06  21173697.654      234564.0321       -329.316          30.453  
G09  23613821.791    -1674716.8241       1576.056          27.562  
G17  21371743.850     -931498.2571        660.649          26.469  
G19  21405979.249    -1336199.2781       1046.284          22.004  
G23  24783793.637     -360443.1490        195.838          36.813  
G28  21142452.385     2384850.4291      -2557.073          40.536  
G30  25498353.757     1778721.3591      -2232.193           7.000  
R02  21250626.198     1686189.2651      -1830.860          25.691  
R18  21513214.112     -546136.4621        565.153          26.520  
R16  21642326.329      298350.0521       -690.254          21.806  
R15  22162009.660     4396984.3631      -3831.548          24.721  
R17  21722971.100     1003107.8781       -793.505          31.394  
R03  20265198.195    -2335946.6661       1939.146          25.885  
R04  23095903.639    -3105196.5841       3981.909          21.811  
J01  37837907.562      956958.3991       -955.205          32.307  
J029155645185.710       73819.8071       -876.663          17.476  
E019159031328.940     1497257.4271      -1662.114          29.658  
> 2018  4 30 11 55 20.9996979  0 19
G02  23423976.119    -3735432.1531        855.535          24.396  
G03  24036891.606     4325650.9381      -3521.798          18.569  
G06  21173762.110      234891.2031       -327.901          31.254  
G09  23613495.617    -1676291.3721       1577.881          26.575  
G17  21371598.150     -932149.3261        657.107          29.243  
G19  21405786.782    -1337240.0711       1046.651          20.465  
G23  24783770.553     -360638.8311        190.573          34.208  
G28  21142944.044     2387406.1981      -2555.034          37.753  
G30  25498780.661     1780953.5461      -2232.193           7.000  
R02  21250970.359     1688024.7321      -1834.151          28.090  
R18  21513061.517     -546708.4291        564.649          24.847  
R16  21642385.089      299045.4901       -690.199          23.035  
R15  22162764.537     4400817.0401      -3826.749          25.195  
R17  21723128.491     1003896.9271       -792.531          31.180  
R03  20264850.136    -2337887.9361       1936.116          26.103  
R04  23095179.940    -3109176.1921       3984.589          22.787  
J01  37838083.240      957917.7121       -958.535          31.934  
J029455437843.080       74696.2411       -874.888          16.549  
E019458824094.230     1498921.8391      -1666.098          27.882  
> 2018  4 30 11 55 21.9996979  0 19
G02  23423760.868    -3736291.1361        852.213          26.559  
G03  24037525.068     4329168.8631      -3518.177          24.017  
G06  21173844.552      235214.4131       -325.831          29.916  
G09  23613186.231    -1677871.2951       1575.693          26.423  
G17  21371460.546     -932798.6131        658.800          32.953  
G19  21405557.141    -1338283.2861       1046.742          20.093  
G23  24783756.462     -360834.2381        190.577          31.708  
G28  21143429.109     2389961.9931      -2558.456          34.145  
G30  25499206.667     1783185.9051      -2232.193           7.000  
R02  21251367.584     1689856.9301      -1831.268          25.536  
R18  21513001.859     -547272.1951        567.303          26.099  
R16  21642558.968      299737.7791       -689.969          25.396  
R15  22163507.123     4404639.1701      -3822.883          25.357  
R17  21723264.897     1004685.7450       -789.722          33.542  
R03  20264483.190    -2339821.1031       1937.671          27.240  
R04  23094417.268    -3113163.5411       3980.411          23.177  
J01  37838277.206      958880.7251       -961.336          31.636  
J029755230464.460       75576.8811       -874.858          15.585  
E019758616899.984     1500588.6461      -1659.779          24.106  
> 2018  4 30 11 55 22.9996979  0 19
G02  23423623.563    -3737136.8701        851.086          23.954  
G03  24038218.787     4332692.0921      -3519.742          24.334  
G06  21173882.326      235539.3391       -326.852          31.956  
G09  23612872.049    -1679447.9140       1575.068          31.747  
G17  21371334.033     -933458.2791        659.025          32.871  
G19  21405346.387    -1339322.8501       1047.550          21.345  
G23  24783721.986     -361029.4601        192.721          30.559  
G28  21143938.156     2392518.2611      -2558.743          31.060  
G30  25499634.770     1785418.0931      -2232.193           7.000  
R02  21251666.777     1691687.8401      -1828.456          24.422  
R18  21512880.443     -547834.3931        566.937          26.525  
R16  21642693.575      300433.0041       -689.651          23.879  
R15  22164175.960     4408473.9261      -3833.562          24.233  
R17  21723434.579     1005474.5791       -788.865          32.012  
R03  20264099.756    -2341763.4331       1939.419          27.281  
R04  23093667.187    -3117140.7641       3981.359          21.926  
J01  37838443.890      959840.4031       -961.030          33.243  
J020055023101.440       76449.6281       -875.555          15.513  
E010058409664.970     1502256.5601      -1663.554          22.672  
> 2018  4 30 11 55 23.9996979  0 19
G02  23423458.077    -3737995.0921        856.173          23.067  
G03  24038882.228     4336208.8571      -3524.569          22.743  
G06  21173943.484      235867.8621       -329.122          35.250  
G09  23612570.458    -1681025.2190       1575.167          36.204  
G17  21371202.424     -934115.1151        658.545          36.504  
G19  21405156.618    -1340364.9181       1053.114          20.262  
G23  24783686.311     -361221.5701        194.017          30.416  
G28  21144430.116     2395072.8171      -2556.213          29.321  
G30  25500061.675     1787649.6851      -2232.193           7.000  
R02  21251987.855     1693514.3181      -1829.093          23.780  
R18  21512766.222     -548398.3091        567.342          26.887  
R16  21642838.974      301122.7791       -690.959          23.336  
R15  22164909.253     4412299.9221      -3828.768          25.926  
R17  21723566.788     1006262.7891       -791.950          31.011  
R03  20263768.485    -2343706.8741       1938.013          26.350  
R04  23092965.673    -3121127.5721       3980.997          21.156  
J01  37838636.357      960799.6971       -958.980          35.716  
J020354815698.240       77320.5821       -877.583          16.133  
E010358202442.250     1503926.5191      -1660.559          23.662  
> 2018  4 30 11 55 24.9996979  0 19
G02  23423286.896    -3738853.0471        856.807          27.343  
G03  24039557.061     4339729.2861      -3521.418          24.651  
G06  21174014.535      236200.1331       -330.894          33.633  
G09  23612267.367    -1682602.2981       1575.697          37.931  
G17  21371090.002     -934774.0121        658.060          36.722  
G19  21404978.242    -1341425.0561       1058.080          21.478  
G23  24783647.938     -361408.7331        190.971          28.845  
G28  21144901.090     2397630.7631      -2556.087          26.579  
G30  25500488.579     1789880.6881      -2231.217           7.000  
R02  21252343.109     1695351.9871      -1834.654          24.472  
R18  21512661.594     -548962.1911        571.460          25.081  
R16  21642899.532      301820.8961       -690.839          20.554  
R15  22165616.763     4416124.7241      -3822.724          27.887  
R17  21723685.206     1007052.6141       -791.953          30.460  
R03  20263358.669    -2345650.5831       1934.891          27.490  
R04  23092251.867    -3125105.2471       3981.489          22.112  
J01  37838818.031      961759.3731       -958.678          34.155  
J020654608266.266       78199.8411       -876.659          17.096  
E010657995212.030     1505596.7971      -1662.109          24.480  
> 2018  4 30 11 55 25.9996979  0 19
G02  23423114.515    -3739708.7761        853.230          28.705  
G03  24040208.210     4343250.6091      -3519.073          26.372  
G06  21174073.294      236528.9231       -329.360          35.372  
G09  23611971.173    -1684178.7341       1576.040          35.359  
G17  21370952.697     -935431.5131        654.985          33.913  
G19  21404734.810    -1342476.2661       1051.589          21.693  
G23  24783639.543     -361601.1601        189.581          29.644  
G28  21145401.743     2400189.7931      -2557.594          25.762  
G30  25500913.085     1792111.3041      -2231.217           7.000  
R02  21252679.476     1697191.2481      -1835.350          25.526  
R18  21512552.170     -549529.4341        567.943          25.848  
R16  21643089.301      302515.8781       -692.983          23.393  
R15  22166350.955     4419945.9451      -3824.570          28.864  
R17  21723859.685     1007842.2681       -790.372          30.751  
R03  20262998.618    -2347585.4001       1933.831          34.902  
R04  23091490.394    -3129087.7081       3975.541          22.564  
J01  37838998.207      962718.5821       -960.632          36.406  
J020954400924.230       79080.3731       -877.038          17.038  
E010957787991.110     1507266.1761      -1664.586          23.984  
> 2018  4 30 11 55 26.9996979  0 19
G02  23422950.229    -3740562.6831        854.694          29.643  
G03  24040896.234     4346770.9481      -3519.577          26.450  
G06  21174124.858      236856.3511       -327.854          35.545  
G09  23611666.583    -1685755.2821       1575.148          36.862  
G17  21370821.388     -936089.9251        657.651          37.604  
G19  21404557.933    -1343530.0971       1053.469          21.033  
G23  24783574.189     -361794.0721        190.240          30.744  
G28  21145891.004     2402750.2661      -2560.067          27.135  
G30  25501340.889     1794340.3701      -2230.242           7.000  
R02  21253031.133     1699029.0941      -1835.547          25.569  
R18  21512410.668     -550101.8331        570.426          27.263  
R16  21643172.643      303215.0471       -694.634          22.718  
R15  22167090.543     4423776.0541      -3827.636          28.224  
R17  21723982.300     1008631.9861       -789.164          31.022  
R03  20262637.368    -2349519.9091       1934.804          39.438  
R04  23090666.264    -3133063.0631       3976.478          23.905  
J01  37839178.682      963678.5790       -959.833          36.883  
J021254193568.700       79963.2221       -876.388          18.680  
E011257580774.380     1508930.6771      -1662.315          24.852  
> 2018  4 30 11 55 27.9996979  0 19
G02  23422810.526    -3741416.9881        856.764          26.517  
G03  24041554.278     4350291.7051      -3523.746          24.120  
G06  21174192.312      237185.5491       -328.653          35.492  
G09  23611369.789    -1687331.0580       1574.915          37.801  
G17  21370702.371     -936747.2651        658.455          38.039  
G19  21404363.068    -1344581.3581       1050.374          21.577  
G23  24783541.211     -361978.9531        189.899          29.673  
G28  21146385.062     2405308.5851      -2558.760          29.466  
G30  25501766.894     1796569.7881      -2229.266           7.000  
R02  21253318.933     1700859.7381      -1833.587          26.678  
R18  21512306.340     -550670.4271        570.566          30.708  
R16  21643342.626      303903.8701       -693.877          24.700  
R15  22167779.466     4427607.3641      -3832.133          26.635  
R17  21724152.582     1009420.2661       -792.295          29.285  
R03  20262278.816    -2351452.8431       1933.670          39.725  
R04  23089914.984    -3137040.3761       3979.372          24.885  
J01  37839375.046      964638.7831       -961.022          34.062  
J021553986194.586       80840.4161       -876.244          18.310  
E011557373536.980     1510588.0541      -1661.663          25.671  
