     3.03           OBSERVATION DATA    M: Mixed            RINEX VERSION / TYPE
Geo++ RINEX Logger  Geo++               20180430 115542 UTC PGM / RUN BY / DATE
************************************************************COMMENT
This file was generated by the Geo++ RINEX Logger App       COMMENT
for Android devices (Version 1.2.4). If you encounter       COMMENT
any issues, please send an email to android@geopp.de        COMMENT
Note: Tracking signals and phase shifts by best knowledge   COMMENT
************************************************************COMMENT
Geo++                                                       MARKER NAME
GEODETIC                                                    MARKER TYPE
RINEX Logger user   Geo++                                   OBSERVER / AGENCY
7EX0217A17003237    HUAWEI              VTR-L29             REC # / TYPE / VERS
7EX0217A17003237    VTR-L29                                 ANT # / TYPE
 -2418298.0710  5386009.3115  2405177.6526                  APPROX POSITION XYZ
        0.0000        0.0000        0.0000                  ANTENNA: DELTA H/E/N
G    4 C1C L1C D1C S1C                                      SYS / # / OBS TYPES
R    4 C1C L1C D1C S1C                                      SYS / # / OBS TYPES
E    4 C1B L1B D1B S1B                                      SYS / # / OBS TYPES
C    4 C2I L2I D2I S2I                                      SYS / # / OBS TYPES
J    4 C1C L1C D1C S1C                                      SYS / # / OBS TYPES
  2018     4    30    11    56    0.9996636     GPS         TIME OF FIRST OBS
G                                                           SYS / PHASE SHIFTS
R                                                           SYS / PHASE SHIFTS
E                                                           SYS / PHASE SHIFTS
C                                                           SYS / PHASE SHIFTS
J                                                           SYS / PHASE SHIFTS
                                                            END OF HEADER
> 2018  4 30 11 56  0.9996636  0 19
G02  23407156.263    -3769521.2210        847.525          30.421  
G03  24053435.053     4466622.4900      -3532.170          23.659  
G06  21166018.770      248140.1960       -335.708          35.741  
G09  23591247.719    -1739204.0611       1571.325          26.081  
G17  21356339.614     -958283.5860        649.621          37.497  
G19  21387471.262    -1379156.1801       1044.286          17.974  
G23  24772142.203     -367972.8941        176.008          20.361  
G28  21152287.976     2489925.4561      -2572.347          18.607  
G30  25505438.452     1869851.3011      -2215.608           7.000  
R02  21254495.019     1761842.9371      -1861.758          17.475  
R18  21498488.906     -569515.0850        571.810          36.226  
R16  21637404.636      327171.4740       -718.101          32.991  
R15  22181125.027     4554084.9860      -3834.957          28.367  
R17  21718848.354     1035668.0660       -796.553          26.655  
R03  20240194.005    -2414858.8370       1909.777          36.938  
R04  23055184.628    -3268366.1890       3978.568          32.050  
J01  37835153.968      996407.3621       -963.817          24.451  
J02  36944131.510      109771.1371       -876.781          13.555  
E011450524851.234     1565588.1801      -1642.746          17.215  
> 2018  4 30 11 56  1.9996636  0 19
G02  23407023.755    -3770368.9970        847.482          31.792  
G03  24054042.733     4470154.9721      -3532.572          22.044  
G06  21166089.221      248475.6730       -335.320          33.225  
G09  23590956.920    -1740773.3450       1569.367          35.754  
G17  21356202.009     -958933.4160        649.921          33.667  
G19  21387265.005    -1380195.9851       1043.807          19.254  
G23  24772060.659     -368148.8641        177.103          23.126  
G28  21152809.315     2492499.3511      -2575.106          13.614  
G30  25505860.560     1872066.3081      -2215.608           7.000  
R02  21254842.479     1763702.4911      -1864.124          16.505  
R18  21498401.366     -570087.3320        572.522          34.925  
R16  21637537.445      327889.7480       -718.691          33.871  
R15  22181891.896     4557920.2900      -3835.366          29.084  
R17  21718991.055     1036464.1431       -796.441          25.103  
R03  20239852.242    -2416768.2810       1909.508          35.155  
R04  23054373.689    -3272345.2610       3978.975          32.245  
J01  37835356.028      997371.2790       -963.946          33.513  
J02  36944301.792      110648.1571       -877.059          16.697  
E011750317629.120     1567228.1131      -1641.026          19.790  
> 2018  4 30 11 56  2.9996636  0 19
G02  23406856.470    -3771216.6770        847.563          32.961  
G03  24054691.184     4473687.2551      -3531.013          20.505  
G06  21166150.679      248811.5270       -336.067          31.748  
G09  23590648.134    -1742342.6200       1569.038          38.373  
G17  21356072.499     -959583.0870        649.493          32.264  
G19  21387052.751    -1381242.3701       1043.841          21.499  
G23  24772050.766     -368324.3791        174.495          22.962  
G28  21153291.681     2495078.7011      -2575.789          14.635  
G30  25506281.769     1874280.7261      -2214.632           7.000  
R02  21255183.942     1765564.9011      -1864.516          21.186  
R18  21498281.449     -570659.5000        572.141          35.457  
R16  21637671.752      328608.6230       -719.293          35.028  
R15  22182638.979     4561756.0260      -3835.608          29.546  
R17  21719210.503     1037260.0341       -793.671          22.541  
R03  20239471.206    -2418677.0330       1908.239          32.379  
R04  23053623.908    -3276324.4070       3979.268          33.209  
J01  37835523.612      998335.2800       -964.122          35.756  
J02  36944450.189      111524.1971       -875.920          13.847  
E012050110397.400     1568858.9891      -1646.116          22.145  
> 2018  4 30 11 56  3.9996636  0 19
G02  23406682.291    -3772064.2490        847.385          31.858  
G03  24055408.587     4477219.6271      -3530.245          20.825  
G06  21166212.136      249147.4080       -336.213          30.327  
G09  23590348.342    -1743911.8930       1569.063          38.372  
G17  21355959.177     -960232.7880        649.398          33.677  
G19  21386895.960    -1382286.7441       1047.663          20.572  
G23  24772060.359     -368499.8050        175.321          25.644  
G28  21153747.965     2497652.2241      -2572.803          16.284  
G30  25506702.977     1876495.5241      -2214.632           7.000  
R02  21255574.272     1767427.7970      -1863.838          25.072  
R18  21498166.329     -571231.9220        572.249          34.753  
R16  21637814.453      329328.1110       -720.141          35.031  
R15  22183306.916     4565591.7860      -3836.141          28.474  
R17  21719279.756     1038055.6931       -793.178          22.214  
R03  20239078.178    -2420585.2700       1907.795          29.496  
R04  23052869.331    -3280303.6490       3979.246          33.582  
J01  37835713.680      999299.1220       -963.788          35.073  
J02  36944536.530      112400.5501       -876.203          13.668  
E012349903172.280     1570518.7701      -1665.447          21.664  
> 2018  4 30 11 56  4.9996636  0 19
G02  23406535.992    -3772911.6180        846.997          30.867  
G03  24056111.900     4480752.3941      -3535.667          21.764  
G06  21166272.694      249483.5080       -336.215          29.469  
G09  23590033.560    -1745480.9740       1569.079          37.822  
G17  21355838.661     -960882.2980        649.451          35.809  
G19  21386710.688    -1383332.2801       1048.069          19.798  
G23  24772022.885     -368674.5860        174.615          26.427  
G28  21154225.534     2500221.6461      -2575.088          15.876  
G30  25507125.385     1878709.1881      -2214.632           7.000  
R02  21255887.855     1769291.4150      -1863.961          25.543  
R18  21498063.800     -571804.3720        572.216          34.707  
R16  21637943.963      330048.4700       -720.815          35.116  
R15  22184021.322     4569427.6500      -3835.874          28.843  
R17  21719423.956     1038851.6361       -796.118          22.119  
R03  20238731.018    -2422492.7810       1907.023          30.372  
R04  23052120.149    -3284282.7950       3978.970          32.953  
J01  37835887.860     1000263.1430       -964.169          34.338  
J02  36944704.713      113314.9521       -876.616          13.157  
E012649695965.150     1572180.0441      -1672.687          23.069  
> 2018  4 30 11 56  5.9996636  0 19
G02  23406364.511    -3773758.9050        847.293          30.202  
G03  24056773.842     4484285.2700      -3532.779          23.902  
G06  21166326.657      249819.7800       -336.340          28.937  
G09  23589731.369    -1747049.9250       1568.693          37.474  
G17  21355715.446     -961531.5900        649.241          36.544  
G19  21386515.523    -1384384.5071       1047.103          17.191  
G23  24771990.208     -368849.3020        174.603          25.914  
G28  21154704.903     2502796.5611      -2574.245          18.180  
G30  25507546.593     1880922.9971      -2213.656           7.000  
R02  21256253.602     1771155.9620      -1864.957          25.378  
R18  21497966.368     -572376.8220        572.297          34.999  
R16  21638075.872      330769.5320       -721.514          34.829  
R15  22184758.811     4573263.6910      -3836.075          29.097  
R17  21719545.671     1039647.4811       -792.580          20.789  
R03  20238389.554    -2424399.6340       1906.572          32.476  
R04  23051384.159    -3288261.9930       3979.026          32.666  
J01  37836066.536     1001227.1880       -964.142          33.602  
J02  36944871.997      114187.8961       -876.880          12.375  
E012949488755.020     1573844.8711      -1670.639          24.318  
> 2018  4 30 11 56  6.9996636  0 19
G02  23406212.216    -3774605.9360        846.664          29.238  
G03  24057449.574     4487818.4571      -3531.952          24.331  
G06  21166388.414      250156.3120       -336.829          28.651  
G09  23589424.681    -1748618.7410       1568.596          37.104  
G17  21355597.627     -962180.7820        649.169          37.495  
G19  21386321.258    -1385435.7761       1047.088          12.182  
G23  24771955.132     -369023.5570        174.168          26.286  
G28  21155289.198     2505371.9191      -2575.058          20.447  
G30  25507967.801     1883136.6481      -2213.656           7.000  
R02  21256568.384     1773021.1521      -1865.157          24.592  
R18  21497869.834     -572949.4680        572.451          34.989  
R16  21638217.973      331491.3790       -722.556          34.141  
R15  22185495.101     4577099.9010      -3836.694          30.045  
R17  21719705.761     1040443.3331       -796.239          20.413  
R03  20238038.797    -2426305.7770       1905.809          34.279  
R04  23050631.080    -3292241.1440       3978.888          32.727  
J01  37836254.206     1002191.2610       -964.334          33.518  
J02  36945038.982      115066.5121       -876.480          11.961  
E013249281527.805     1575518.8511      -1673.915          25.595  
> 2018  4 30 11 56  7.9996636  0 19
G02  23406053.626    -3775452.5740        846.280          28.901  
G03  24058115.113     4491352.1391      -3533.998          23.944  
G06  21166452.270      250493.1950       -336.711          27.525  
G09  23589128.486    -1750187.1940       1568.224          37.489  
G17  21355478.910     -962829.5820        648.744          37.655  
G19  21386066.434    -1386486.0201       1045.174          10.058  
G23  24771875.388     -369197.2710        173.912          26.408  
G28  21155753.277     2507947.9681      -2578.560          22.488  
G30  25508389.010     1885349.7031      -2213.656           7.000  
R02  21256869.076     1774887.6051      -1865.446          23.817  
R18  21497767.905     -573522.0160        572.645          35.296  
R16  21638346.584      332214.1180       -722.978          33.790  
R15  22186230.192     4580936.5140      -3836.799          30.837  
R17  21719903.324     1041239.4601       -795.741          21.699  
R03  20237696.135    -2428211.1170       1905.002          35.930  
R04  23049907.381    -3296220.1560       3978.981          32.956  
J01  37836434.981     1003155.6550       -964.470          33.457  
J02  36945206.266      115940.6361       -874.116          11.101  
E013549074307.180     1577196.4651      -1674.665          25.947  
> 2018  4 30 11 56  8.9996636  0 19
G02  23405889.940    -3776299.0310        846.067          27.583  
G03  24058781.552     4494886.1230      -3534.088          24.314  
G06  21166538.011      250830.4400       -337.429          28.186  
G09  23588826.595    -1751755.4560       1568.130          37.375  
G17  21355346.102     -963478.1590        648.387          36.802  
G19  21385864.974    -1387534.0491       1043.691          11.385  
G23  24771845.708     -369370.5270        173.032          26.722  
G28  21156223.052     2510524.5811      -2578.150          24.173  
G30  25508810.218     1887562.1691      -2212.681           7.000  
R02  21257210.240     1776754.5971      -1867.108          23.097  
R18  21497653.084     -574094.4280        572.191          35.364  
R16  21638463.204      332937.7430       -724.111          32.799  
R15  22186926.311     4584773.3020      -3837.031          31.262  
R17  21720065.512     1042035.5461       -792.496          19.826  
R03  20237348.675    -2430115.6270       1904.023          36.372  
R04  23049151.305    -3300199.0790       3978.782          33.057  
J01  37836616.356     1004120.1420       -964.587          33.611  
J02  36945373.250      116822.1261       -874.397          10.669  
E013848867082.360     1578873.4881      -1677.787          26.310  
> 2018  4 30 11 56  9.9996636  0 19
G02  23405716.959    -3777145.2950        845.934          26.226  
G03  24059462.081     4498420.3250      -3534.313          24.495  
G06  21166608.162      251167.8540       -337.858          27.310  
G09  23588526.803    -1753323.5360       1568.004          37.185  
G17  21355220.788     -964126.5580        648.143          36.520  
G19  21385673.107    -1388525.7591       1044.544          12.938  
G23  24771811.232     -369543.5080        172.675          26.590  
G28  21156708.416     2513101.7410      -2577.440          24.894  
G30  25509231.427     1889775.0161      -2212.681           7.000  
R02  21257593.075     1778622.5960      -1868.302          24.301  
R18  21497545.459     -574667.0120        572.298          34.780  
R16  21638619.695      333662.1660       -724.910          32.877  
R15  22187637.118     4588610.3470      -3837.308          31.182  
R17  21720221.703     1042831.7701       -793.330          19.319  
R03  20237003.614    -2432019.3980       1903.117          34.942  
R04  23048423.109    -3304177.9240       3978.485          32.820  
J01  37836807.323     1005084.7030       -964.709          35.101  
J02  36945540.535      117696.8381       -875.498          10.522  
E014148659857.540     1580550.9871      -1677.166          26.660  
> 2018  4 30 11 56 10.9996636  0 19
G02  23405586.250    -3777991.3410        846.097          24.498  
G03  24060130.618     4501954.8630      -3534.714          25.545  
G06  21166673.817      251505.5790       -337.879          27.801  
G09  23588233.905    -1754891.3720       1567.842          37.068  
G17  21355102.970     -964774.6910        648.011          37.041  
G19  21385494.430    -1389571.1571       1043.751          13.228  
G23  24771785.150     -369716.0190        172.600          26.283  
G28  21157213.866     2515679.5191      -2576.177          25.161  
G30  25509652.635     1891986.7291      -2212.681           7.000  
R02  21257957.922     1780491.4100      -1869.414          24.024  
R18  21497435.435     -575239.4650        572.874          34.662  
R16  21638761.197      334387.4660       -725.677          33.045  
R15  22188338.333     4592447.6370      -3837.287          30.661  
R17  21720307.144     1043628.1851       -793.568          17.356  
R03  20236622.278    -2433922.3160       1902.533          33.854  
R04  23047693.414    -3308156.6610       3978.409          32.757  
J01  37836981.203     1006049.4810       -964.854          34.168  
J02  36945707.519      118576.1461       -877.397          10.584  
E014448452636.320     1582229.0491      -1679.214          26.468  
> 2018  4 30 11 56 11.9996636  0 19
G02  23405441.450    -3778837.2420        845.982          24.130  
G03  24060811.447     4505489.4990      -3534.600          26.137  
G06  21166728.978      251843.4120       -337.855          27.240  
G09  23587935.612    -1756459.1630       1567.537          37.170  
G17  21354976.158     -965422.7980        647.965          36.850  
G19  21385284.576    -1390613.9741       1043.100          14.692  
G23  24771751.573     -369888.2640        172.158          26.045  
G28  21157699.529     2518257.5820      -2578.198          26.235  
G30  25510073.843     1894198.5871      -2211.705           7.000  
R02  21258336.560     1782361.0081      -1870.060          24.805  
R18  21497323.013     -575812.0800        572.556          34.668  
R16  21638883.213      335113.3660       -726.184          32.548  
R15  22189081.219     4596284.9340      -3837.491          30.524  
R17  21720476.527     1044426.3721       -794.629          14.496  
R03  20236233.447    -2435824.6740       1901.893          31.799  
R04  23046945.432    -3312135.5490       3978.890          32.695  
J01  37837167.974     1007014.1440       -964.704          34.144  
J02  36945874.803      119449.2391       -873.994           9.724  
E014748245414.195     1583907.1731      -1671.776          25.627  
> 2018  4 30 11 56 12.9996636  0 19
G02  23405309.242    -3779682.9961        847.171          24.276  
G03  24061478.785     4509024.4850      -3535.313          26.544  
G06  21166787.738      252181.4670       -337.944          28.269  
G09  23587642.715    -1758026.7530       1567.444          37.060  
G17  21354851.744     -966070.6720        647.779          36.498  
G19  21385086.113    -1391656.3391       1046.404          18.295  
G23  24771693.713     -370060.0940        171.548          26.467  
G28  21158169.004     2520836.3000      -2579.170          26.694  
G30  25510493.853     1896410.2861      -2211.705           7.000  
R02  21258676.824     1784231.5180      -1871.145          24.848  
R18  21497215.687     -576384.6690        572.413          34.675  
R16  21639028.312      335840.1970       -727.539          32.764  
R15  22189813.911     4600122.5620      -3837.795          30.791  
R17  21720594.345     1045227.9011       -795.520          15.017  
R03  20235867.700    -2437726.2240       1901.202          30.743  
R04  23046212.739    -3316114.2560       3978.485          32.687  
J01  37837353.845     1007978.9990       -964.939          34.289  
J02  36946040.588      120324.7191       -875.559           9.588  
E015048038182.780     1585586.0081      -1665.495          24.838  
> 2018  4 30 11 56 13.9996636  0 19
G02  23405181.530    -3780527.4351        846.364          21.866  
G03  24062159.314     4512559.7670      -3535.447          26.304  
G06  21166859.988      252519.7630       -338.260          28.677  
G09  23587347.719    -1759594.0460       1567.132          36.717  
G17  21354724.032     -966718.3660        647.676          39.085  
G19  21384869.663    -1392700.2331       1043.496          16.063  
G23  24771670.329     -370231.4130        170.802          27.016  
G28  21158660.064     2523415.4360      -2579.524          27.684  
G30  25510915.061     1898621.3911      -2211.705           7.000  
R02  21259026.082     1786102.8010      -1871.602          24.538  
R18  21497108.362     -576957.3800        572.724          34.638  
R16  21639135.938      336567.7050       -727.516          32.839  
R15  22190536.711     4603960.3910      -3837.720          32.019  
R17  21720767.026     1046024.5641       -795.975          15.524  
R03  20235483.366    -2439627.0800       1900.269          29.182  
R04  23045443.172    -3320092.9080       3978.527          32.167  
J01  37837539.716     1008943.9630       -965.076          34.584  
J02  36946207.873      121201.8581       -876.644          12.214  
E015347830958.560     1587265.4401      -1669.530          21.522  
> 2018  4 30 11 56 14.9996636  0 19
G02  23404949.191    -3781372.6631        844.363          22.572  
G03  24062829.350     4516095.2820      -3535.519          27.280  
G06  21166927.441      252858.3950       -339.053          31.229  
G09  23587053.623    -1761161.1960       1567.024          37.811  
G17  21354613.709     -967365.7660        647.297          39.482  
G19  21384729.060    -1393745.1051       1041.201          14.265  
G23  24771643.648     -370402.4911        172.295          24.566  
G28  21159131.038     2525995.2160      -2580.059          27.819  
G30  25511336.269     1900831.9061      -2210.730           7.000  
R02  21259351.058     1787975.0341      -1873.104          23.728  
R18  21497002.535     -577529.9930        572.352          36.314  
R16  21639298.725      337296.1610       -728.758          33.316  
R15  22191270.303     4607798.5720      -3838.490          31.296  
R17  21720930.113     1046814.8771       -793.604          15.370  
R03  20235166.186    -2441527.2170       1900.008          30.515  
R04  23044728.766    -3324071.4970       3978.314          31.979  
J01  37837721.091     1009909.0830       -965.244          36.568  
J02  36946374.857      122076.1091       -875.890          18.018  
E015647623732.540     1588944.8241      -1664.313          20.459  
> 2018  4 30 11 56 15.9996636  0 19
G02  23404775.911    -3782217.6911        841.565          22.115  
G03  24063511.678     4519631.1160      -3535.891          27.573  
G06  21166982.603      253197.1650       -338.655          33.782  
G09  23586760.126    -1762728.2390       1566.987          37.792  
G17  21354491.693     -968013.0320        647.170          39.319  
G19  21384607.045    -1394788.1671       1042.332          18.974  
G23  24771607.673     -370573.2571        171.062          23.873  
G28  21159628.394     2528575.4150      -2580.182          26.951  
G30  25511756.279     1903042.0351      -2210.730           7.000  
R02  21259685.626     1789847.9491      -1870.743          22.917  
R18  21496897.008     -578102.7370        572.805          36.684  
R16  21639439.028      338025.2780       -729.452          33.766  
R15  22191941.239     4611636.7880      -3838.434          30.115  
R17  21721109.689     1047583.6971       -795.347          15.834  
R03  20234828.919    -2443426.6960       1899.177          33.493  
R04  23043999.071    -3328050.1100       3978.497          32.467  
J01  37837898.268     1010874.1890       -965.140          36.694  
J02  36946597.603      122953.9101       -881.138          17.612  
E015947416482.540     1590624.5421      -1683.868          21.034  
> 2018  4 30 11 56 16.9996636  0 19
G02  23404598.134    -3783062.6751        843.162          21.752  
G03  24064186.510     4523167.0240      -3536.308          27.713  
G06  21167044.360      253536.0920       -339.194          34.817  
G09  23586459.134    -1764295.2350       1566.816          37.890  
G17  21354360.384     -968660.2580        647.258          39.321  
G19  21384354.020    -1395831.3361       1042.857          19.347  
G23  24771577.094     -370742.3191        170.244          18.541  
G28  21160118.255     2531156.0810      -2580.989          25.945  
G30  25512177.487     1905251.5741      -2209.754           7.000  
R02  21259991.114     1791721.4451      -1871.154          21.954  
R18  21496785.185     -578675.6900        573.120          36.647  
R16  21639566.140      338755.0840       -730.398          33.677  
R15  22192634.359     4615474.9740      -3838.297          28.524  
R17  21721289.564     1048378.7781       -795.732          16.149  
R03  20234476.663    -2445325.4580       1897.826          34.355  
R04  23043239.397    -3332028.7950       3978.436          31.820  
J01  37838091.634     1011839.2860       -965.155          36.164  
J02  36946878.508      123830.8691       -876.309          18.939  
E016247209253.520     1592304.8301      -1696.317          19.650  
> 2018  4 30 11 56 17.9996636  0 19
G02  23404423.355    -3783907.3371        848.483          23.392  
G03  24064849.052     4526703.1230      -3536.417          27.674  
G06  21167109.115      253875.1670       -339.433          34.979  
G09  23586152.147    -1765862.1510       1566.987          37.576  
G17  21354235.071     -969307.3530        646.890          39.549  
G19  21384082.708    -1396874.1071       1042.792          21.956  
G23  24771715.298     -370906.9261        170.166          13.750  
G28  21160588.629     2533737.2681      -2581.853          24.002  
G30  25512598.695     1907461.4941      -2209.754           7.000  
R02  21260387.740     1793595.7441      -1874.411          22.488  
R18  21496652.677     -579248.6930        572.896          35.326  
R16  21639710.040      339485.5870       -731.044          34.051  
R15  22193336.173     4619313.4400      -3838.734          27.614  
R17  21721455.050     1049175.2171       -795.552          18.285  
R03  20234110.017    -2447223.6530       1897.682          34.004  
R04  23042509.403    -3336007.4960       3978.890          31.570  
J01  37838265.514     1012804.3840       -965.072          35.989  
J02  36947043.694      124709.9891       -876.806          16.769  
E016547002028.100     1593983.3581      -1698.873          19.685  
> 2018  4 30 11 56 18.9996636  0 19
G02  23404239.282    -3784752.0660        844.483          24.666  
G03  24065537.975     4530239.4320      -3536.322          27.802  
G06  21167176.569      254214.3920       -339.300          35.383  
G09  23585857.750    -1767428.8500       1566.426          37.513  
G17  21354114.554     -969954.2790        646.656          39.330  
G19  21383881.547    -1397916.7341       1041.205          22.895  
G23  24771541.719     -371076.8271        170.225          20.010  
G28  21161097.377     2536318.5991      -2581.072          21.994  
G30  25513028.298     1909670.2801      -2209.754           7.000  
R02  21260805.051     1795470.9400      -1875.487          24.013  
R18  21496565.737     -579821.7560        572.976          35.506  
R16  21639842.549      340216.8250       -731.361          33.987  
R15  22194033.191     4623151.9660      -3838.782          27.474  
R17  21721640.321     1049970.8661       -797.981          19.021  
R03  20233733.478    -2449121.1210       1897.302          32.853  
R04  23041760.221    -3339986.2230       3978.758          31.004  
J01  37838448.687     1013769.5800       -965.280          35.823  
J02  36947046.692      125590.2831       -877.473          18.798  
E016846794852.150     1595662.7841      -1689.353          21.983  
> 2018  4 30 11 56 19.9996636  0 19
G02  23404080.692    -3785596.5051        844.766          25.261  
G03  24066192.122     4533775.9240      -3536.516          27.231  
G06  21167235.628      254553.8380       -339.700          34.952  
G09  23585556.459    -1768995.5020       1566.460          37.406  
G17  21353986.243     -970601.1650        646.936          39.462  
G19  21383681.285    -1398959.4551       1042.009          23.278  
G23  24771517.136     -371245.4171        170.059          19.702  
G28  21161595.932     2538901.6841      -2579.817          19.272  
G30  25513439.913     1911879.2111      -2208.778           7.000  
R02  21261174.995     1797346.8450      -1875.987          25.495  
R18  21496458.112     -580394.9190        573.046          35.103  
R16  21639979.554      340948.8240       -732.163          33.774  
R15  22194719.116     4626990.6830      -3838.750          25.840  
R17  21721782.123     1050766.3231       -796.741          17.026  
R03  20233380.022    -2451017.8470       1896.117          30.580  
R04  23041031.426    -3343965.0270       3978.760          30.837  
J01  37838636.657     1014734.7780       -965.196          35.697  
J02  36947340.189      126470.2411       -877.457          17.096  
E017146587626.130     1597343.9701      -1694.597          22.328  
> 2018  4 30 11 56 20.9996636  0 19
G02  23403916.706    -3786440.9410        844.402          25.996  
G03  24066848.667     4537312.7710      -3536.863          25.850  
G06  21167293.787      254893.4870       -339.565          34.692  
G09  23585255.767    -1770561.9340       1566.092          37.009  
G17  21353861.229     -971247.7360        646.482          39.590  
G19  21383505.607    -1400001.7711       1041.398          23.831  
G23  24771434.992     -371414.7811        168.895          20.578  
G28  21162093.887     2541489.1401      -2580.391          19.024  
G30  25513859.922     1914087.9841      -2208.778           7.000  
R02  21261526.052     1799223.7090      -1877.459          26.580  
R18  21496353.184     -580968.1020        572.908          35.183  
R16  21640102.769      341681.6190       -733.432          33.326  
R15  22195478.490     4630829.7490      -3839.285          27.295  
R17  21721767.433     1051556.4841       -795.643          17.673  
R03  20233013.976    -2452913.8350       1895.436          28.869  
R04  23040283.144    -3347943.7250       3978.750          30.898  
J01  37838818.331     1015700.0890       -965.481          35.922  
J02  36947508.072      127353.0151       -877.110          18.390  
E017446380413.010     1599025.6061      -1683.136          22.569  
> 2018  4 30 11 56 21.9996636  0 19
G02  23403760.514    -3787285.0021        842.180          25.322  
G03  24067528.896     4540849.8110      -3537.281          26.747  
G06  21167364.538      255233.4320       -340.101          33.632  
G09  23584962.270    -1772128.2030       1565.926          37.407  
G17  21353733.818     -971894.1650        646.420          39.450  
G19  21383292.455    -1401044.1130       1042.227          25.123  
G23  24771408.011     -371583.8941        168.523          19.460  
G28  21162569.058     2544066.8441      -2582.016          18.819  
G30  25514279.932     1916296.1611      -2208.778           7.000  
R02  21261886.702     1801101.3140      -1878.365          27.534  
R18  21496225.473     -581541.3060        573.345          34.785  
R16  21640248.468      342415.1510       -734.145          33.659  
R15  22196197.992     4634668.8910      -3839.003          26.792  
R17  21721894.246     1052344.0301       -795.060          16.810  
R03  20232703.391    -2454809.2110       1895.269          30.168  
R04  23039555.548    -3351922.3240       3978.601          29.612  
J01  37838995.509     1016665.4800       -965.410          35.628  
J02  36947560.536      128232.2511       -876.846          17.726  
E017746173198.680     1600704.7131      -1681.826          23.083  
> 2018  4 30 11 56 22.9996636  0 19
G02  23403601.924    -3788128.9610        844.157          25.678  
G03  24068212.723     4544387.2130      -3537.580          27.239  
G06  21167430.193      255573.6670       -340.385          34.570  
G09  23584657.681    -1773694.2540       1565.775          36.786  
G17  21353607.905     -972540.3500        646.133          39.526  
G19  21383091.894    -1402086.0770       1042.036          25.218  
G23  24771390.623     -371751.7291        168.254          19.979  
G28  21163050.225     2546645.1511      -2581.934          21.159  
G30  25514701.140     1918503.7501      -2207.803           7.000  
R02  21262194.589     1802979.7500      -1879.185          27.161  
R18  21496116.948     -582114.4970        572.897          34.620  
R16  21640385.173      343149.4920       -734.838          33.384  
R15  22196948.672     4638508.4030      -3839.721          28.050  
R17  21722045.341     1053136.6011       -796.551          18.741  
R03  20232394.305    -2456703.7650       1894.028          32.228  
R04  23038755.402    -3355900.8890       3978.381          28.636  
J01  37839179.281     1017631.0850       -965.727          35.448  
J02  36947851.335      129108.8871       -877.478          14.367  
E018045965951.080     1602387.2431      -1682.064          21.584  
> 2018  4 30 11 56 23.9996636  0 19
G02  23403469.415    -3788972.5171        841.487          24.440  
G03  24068866.870     4547924.9480      -3538.577          26.870  
G06  21167492.550      255914.1760       -340.503          34.105  
G09  23584367.782    -1775260.0530       1565.754          36.242  
G17  21353482.592     -973186.3040        646.127          39.657  
G19  21382902.125    -1403127.8530       1041.759          26.348  
G23  24771370.237     -371918.9901        167.617          19.926  
G28  21163552.677     2549229.2271      -2585.924          21.995  
G30  25515121.449     1920711.7181      -2207.803           7.000  
R02  21262536.952     1804859.0760      -1879.647          27.165  
R18  21496024.912     -582687.7510        573.191          34.779  
R16  21640514.683      343884.7630       -735.532          33.584  
R15  22197667.575     4642348.0450      -3839.703          28.488  
R17  21722179.348     1053933.3571       -795.649          22.654  
R03  20232031.856    -2458597.5940       1893.557          35.091  
R04  23038061.382    -3359879.3310       3978.620          26.668  
J01  37839371.448     1018596.7780       -965.963          35.419  
J02  36948017.120      129986.3611       -877.988          13.160  
E018345758738.250     1604068.8891      -1677.476          20.349  
> 2018  4 30 11 56 24.9996636  0 19
G02  23403308.127    -3789816.0220        843.645          27.224  
G03  24069552.196     4551462.8340      -3538.270          26.746  
G06  21167559.703      256254.8770       -340.943          34.145  
G09  23584070.388    -1776825.6610       1565.201          36.504  
G17  21353365.673     -973832.0560        645.753          39.963  
G19  21382712.356    -1404169.5230       1041.774          26.042  
G23  24771370.537     -372087.1141        167.377          20.551  
G28  21164039.840     2551813.7891      -2586.737          23.274  
G30  25515541.158     1922918.5541      -2207.803           7.000  
R02  21262880.514     1806739.2640      -1880.990          27.259  
R18  21495910.990     -583260.9980        573.152          34.618  
R16  21640647.491      344620.8500       -736.776          33.256  
R15  22198404.464     4646188.0130      -3839.989          29.170  
R17  21722327.446     1054730.0011       -795.022          23.959  
R03  20231676.302    -2460490.6840       1892.514          35.962  
R04  23037390.147    -3363857.6941       3978.933          24.204  
J01  37839547.127     1019562.5530       -965.936          35.150  
J02  36948211.086      130864.0761       -878.260          14.310  
E018645551515.230     1605752.3241      -1685.026          20.215  
> 2018  4 30 11 56 25.9996636  0 19
G02  23403161.828    -3790659.1450        842.427          28.079  
G03  24070222.532     4555000.9290      -3537.514          25.996  
G06  21167627.456      256595.8290       -341.065          33.889  
G09  23583760.702    -1778391.1570       1565.422          36.332  
G17  21353246.955     -974477.6340        645.520          40.468  
G19  21382496.805    -1405210.9121       1043.689          25.717  
G23  24771334.562     -372254.1091        166.194          20.728  
G28  21164509.615     2554401.4341      -2586.034          21.017  
G30  25515961.467     1925125.5331      -2206.827           7.000  
R02  21263251.357     1808620.2370      -1881.479          27.113  
R18  21495807.262     -583834.3180        573.419          33.922  
R16  21640794.090      345357.7180       -737.466          32.950  
R15  22199120.968     4650028.0500      -3839.928          29.399  
R17  21722460.853     1055526.8341       -794.086          23.623  
R03  20231307.257    -2462383.1200       1892.008          36.068  
R04  23036482.075    -3367835.3211       3974.573          20.960  
J01  37839727.302     1020528.4450       -965.913          35.094  
J02  36948383.167      131740.1601       -877.282          13.841  
E018945344275.414     1607488.6991      -1678.238          20.424  
> 2018  4 30 11 56 26.9996636  0 19
G02  23403014.630    -3791502.2670        843.048          27.896  
G03  24070907.258     4558539.4640      -3538.470          26.709  
G06  21167698.207      256936.9060       -341.141          33.109  
G09  23583466.006    -1779956.5100       1565.050          36.347  
G17  21353129.136     -975123.0820        645.543          40.157  
G19  21382302.540    -1406252.2650       1041.009          26.236  
G23  24771365.141     -372420.9541        166.280          20.924  
G28  21165012.966     2556987.3261      -2588.683          22.547  
G30  25516382.676     1927332.3551      -2206.827           7.000  
R02  21263597.618     1810501.9700      -1882.437          26.942  
R18  21495703.834     -584407.6470        573.416          33.842  
R16  21640942.187      346095.2450       -738.012          33.786  
R15  22199796.101     4653868.2680      -3840.463          28.539  
R17  21722625.140     1056323.8881       -795.902          23.557  
R03  20230954.701    -2464274.8470       1891.433          35.314  
R04  23035722.701    -3371817.3581       3975.264          20.917  
J01  37839911.974     1021494.3040       -965.792          35.306  
J02  36948378.370      132597.0551       -877.215          13.723  
E019245137044.305     1609169.1791      -1692.597          20.612  
> 2018  4 30 11 56 27.9996636  0 19
G02  23402836.553    -3792345.3380        842.646          27.626  
G03  24071561.705     4562077.9390      -3538.645          26.172  
G06  21167761.164      257278.1300       -341.217          32.714  
G09  23583163.216    -1781521.8180       1565.098          36.697  
G17  21353006.521     -975768.4720        645.218          40.100  
G19  21382096.882    -1407293.5190       1040.818          26.197  
G23  24771288.993     -372587.4451        166.272          20.468  
G28  21165488.737     2559573.3721      -2586.789          22.706  
G30  25516802.685     1929538.5811      -2206.827           7.000  
R02  21263985.849     1812384.3860      -1882.924          27.008  
R18  21495586.915     -584981.1940        573.294          33.754  
R16  21641089.685      346833.4870       -738.929          34.090  
R15  22200517.701     4657708.6100      -3840.533          27.630  
R17  21722810.111     1057120.6030       -796.570          24.423  
R03  20230563.772    -2466165.9000       1890.388          33.340  
R04  23034920.157    -3375795.7381       3974.238          21.346  
J01  37840100.843     1022460.2060       -965.940          35.359  
J02  36948545.354      133471.5181       -877.662          13.437  
E019544929826.375     1610853.5681      -1692.026          21.341  
> 2018  4 30 11 56 28.9996636  0 19
G02  23402675.565    -3793188.1200        842.721          28.081  
G03  24072239.835     4565616.8400      -3539.164          25.971  
G06  21167828.018      257619.6840       -341.662          31.529  
G09  23582867.620    -1783086.9010       1564.983          37.532  
G17  21352890.502     -976413.6220        645.076          40.831  
G19  21381918.806    -1408334.5920       1040.973          26.816  
G23  24771264.710     -372753.7941        164.227          23.066  
G28  21165998.084     2562160.0141      -2586.769          23.507  
G30  25517222.694     1931744.2181      -2205.852           7.000  
R02  21264344.101     1814267.6560      -1883.236          27.005  
R18  21495471.795     -585554.7270        573.449          33.663  
R16  21641217.697      347572.4870       -739.292          34.552  
R15  22201233.906     4661549.1940      -3840.891          26.961  
R17  21722983.991     1057917.4910       -796.891          25.371  
R03  20230207.619    -2468056.1310       1890.260          32.293  
R04  23034499.548    -3379774.0381       3979.913          21.168  
J01  37840275.323     1023426.2380       -966.141          35.173  
J02  36948712.639      134348.4791       -876.269          13.280  
E019844722609.650     1612536.9511      -1696.203          18.782  
> 2018  4 30 11 56 29.9996636  0 19
G02  23402508.281    -3794030.6780        842.315          27.764  
G03  24072912.569     4569155.8660      -3539.239          25.674  
G06  21167897.270      257961.4750       -341.879          30.309  
G09  23582570.826    -1784651.7680       1564.502          37.544  
G17  21352766.987     -977058.5300        644.778          41.149  
G19  21381724.240    -1409375.4430       1040.281          27.495  
G23  24771216.444     -372919.6701        167.203          23.767  
G28  21166478.952     2564747.0681      -2586.312          24.269  
G30  25517642.704     1933950.2351      -2205.852           7.000  
R02  21264699.055     1816151.8010      -1884.980          26.718  
R18  21495350.379     -586128.3510        573.711          34.237  
R16  21641364.295      348312.3570       -740.407          34.597  
R15  22201992.081     4665389.9550      -3840.718          26.456  
R17  21723102.709     1058714.4970       -797.098          25.988  
R03  20229842.471    -2469945.5570       1888.543          32.370  
R04  23033713.792    -3383752.4101       3978.391          21.553  
J01  37840461.494     1024392.3530       -966.411          35.236  
J02  36948879.623      135222.8491       -875.673          12.662  
E010144515409.414     1614217.4851      -1672.254          18.932  
> 2018  4 30 11 56 30.9996636  0 19
G02  23402354.487    -3794872.6010        840.278          31.652  
G03  24073633.270     4572695.8200      -3541.757          27.585  
G06  21167957.828      258303.5210       -343.720          30.140  
G09  23582289.321    -1786216.1300       1563.191          38.365  
G17  21352643.473     -977702.9600        642.190          39.708  
G19  21381538.369    -1410416.5220       1041.046          26.795  
G23  24771151.988     -373084.1221        167.547          26.323  
G28  21166933.737     2567331.6641      -2588.981          22.595  
G30  25518061.514     1936155.1191      -2205.852           7.000  
R02  21265059.406     1818036.9071      -1881.560          24.049  
R18  21495236.757     -586701.4830        571.210          33.552  
R16  21641491.407      349053.5770       -744.320          34.848  
R15  22202764.946     4669230.8690      -3841.745          28.953  
R17  21723260.100     1059511.9810       -799.326          26.818  
R03  20229521.694    -2471834.0061       1888.866          30.943  
R04  23032778.439    -3387731.4411       3978.489          23.879  
J01  37840648.264     1025359.1840       -969.316          34.820  
J02  36949046.907      136099.3561       -875.305          12.881  
E010444308192.990     1615902.0161      -1679.739          18.932  
> 2018  4 30 11 56 31.9996636  0 19
G02  23402194.098    -3795710.7951        840.356          37.247  
G03  24074293.413     4576238.8981      -3545.378          29.237  
G06  21168003.696      258645.1820       -339.455          32.890  
G09  23581981.434    -1787778.3200       1561.615          37.553  
G17  21352512.763     -978344.6710        642.216          39.240  
G19  21381329.414    -1411457.5271       1039.877          24.165  
G23  24771160.682     -373245.0701        160.329          28.445  
G28  21167456.275     2569916.9581      -2587.229          25.918  
G30  25518481.823     1938360.1481      -2204.876           7.000  
R02  21265437.144     1819918.7011      -1883.862          25.014  
R18  21495160.910     -587273.4481        572.002          31.855  
R16  21641626.913      349797.7401       -747.415          31.176  
R15  22203444.875     4673072.2801      -3840.651          29.741  
R17  21723423.187     1060311.9451       -800.208          27.614  
R03  20229170.936    -2473721.0950       1888.125          38.254  
R04  23032149.475    -3391711.0741       3980.956          24.910  
J01  37840832.637     1026327.5541       -968.880          33.942  
J02  36949213.891      136974.0591       -876.496          13.545  
E010744100957.980     1617582.2561      -1686.157          22.354  
> 2018  4 30 11 56 32.9996636  0 19
G02  23402042.103    -3796548.8510        837.691          39.856  
G03  24074964.949     4579782.6421      -3544.640          31.385  
G06  21168093.034      258986.1321       -335.014          32.397  
G09  23581693.933    -1789340.9951       1563.019          33.998  
G17  21352401.240     -978986.6021        641.694          33.836  
G19  21381150.138    -1412496.9961       1040.852          21.853  
G23  24771128.904     -373406.0681        157.906          30.704  
G28  21167952.731     2572507.6771      -2587.320          25.149  
G30  25518903.331     1940565.9801      -2204.876           7.000  
R02  21265775.910     1821805.2621      -1889.131          24.965  
R18  21495065.576     -587842.7261        573.704          29.054  
R16  21641801.692      350544.0611       -746.634          27.239  
R15  22204172.471     4676916.1751      -3842.860          31.392  
R17  21723576.981     1061110.9971       -800.258          27.830  
R03  20228828.274    -2475607.7601       1886.457          35.597  
R04  23031421.279    -3395694.6441       3973.291          26.338  
J01  37841025.403     1027296.2191       -969.112          35.023  
J02  36949382.375      137852.3071       -877.173          15.010  
E011043893743.050     1619267.7571      -1682.834          23.756  
> 2018  4 30 11 56 33.9996636  0 19
G02  23401872.721    -3797386.4181        837.882          36.220  
G03  24075639.182     4583326.9990      -3545.999          31.707  
G06  21168146.097      259318.3911       -341.949          31.591  
G09  23581385.746    -1790903.1671       1563.115          34.026  
G17  21352285.221     -979626.5671        643.054          31.779  
G19  21380949.577    -1413532.7251       1037.817          22.020  
G23  24771068.946     -373573.1531        162.668          29.233  
G28  21168429.701     2575090.4341      -2588.302          25.186  
G30  25519325.738     1942772.7781      -2205.852           7.000  
R02  21266099.985     1823696.9411      -1887.446          23.097  
R18  21494929.170     -588419.9581        572.730          26.659  
R16  21641951.589      351285.9601       -743.938          24.946  
R15  22204873.386     4680760.1821      -3843.287          30.761  
R17  21723714.885     1061907.9031       -801.566          30.682  
R03  20228484.112    -2477497.2181       1887.183          33.700  
R04  23030679.292    -3399667.1371       3972.511          24.547  
J01  37841202.880     1028261.7351       -968.105          35.368  
J02  36949552.057      138730.5861       -878.464          17.054  
E011343686527.230     1620954.9571      -1689.876          24.307  
> 2018  4 30 11 56 34.9996636  0 19
G02  23401730.019    -3798222.8691        840.068          32.388  
G03  24076308.918     4586872.4001      -3541.909          27.730  
G06  21168225.842      259662.4961       -344.506          30.249  
G09  23581095.847    -1792464.3780       1558.079          36.323  
G17  21352157.209     -980266.8431        639.858          37.380  
G19  21380772.099    -1414570.0341       1039.397          20.964  
G23  24771049.160     -373744.8381        166.243          26.801  
G28  21168918.363     2577681.3101      -2590.539          26.179  
G30  25519747.846     1944978.8461      -2206.827           7.000  
R02  21266477.424     1825582.9111      -1888.920          21.952  
R18  21494877.306     -588987.3151        574.951          25.452  
R16  21642055.617      352027.6631       -741.289          21.503  
R15  22205594.087     4684602.1401      -3843.736          29.668  
R17  21723845.295     1062709.1821       -803.499          30.746  
R03  20228176.225    -2479382.8841       1885.110          30.027  
R04  23029898.333    -3403634.8621       3973.068          24.939  
J01  37841387.852     1029226.6211       -967.887          33.706  
J02  36949723.539      139607.7151       -876.632          13.124  
E011643479307.200     1622642.5571      -1688.088          24.520  
> 2018  4 30 11 56 35.9996636  0 19
G02  23401579.823    -3799068.6081        842.553          28.428  
G03  24077013.131     4590417.0271      -3543.239          26.524  
G06  21168299.591      260006.4141       -345.477          30.040  
G09  23580810.445    -1794025.8041       1559.216          33.235  
G17  21352048.384     -980906.2411        641.903          34.421  
G19  21380581.431    -1415614.0831       1036.827          20.330  
G23  24771006.889     -373916.4291        162.220          26.876  
G28  21169378.544     2580267.8591      -2586.651          27.347  
G30  25520167.855     1947184.0831      -2205.852           7.000  
R02  21266808.695     1827472.8081      -1890.424          25.185  
R18  21494733.406     -589559.1731        572.559          25.525  
R16  21642177.033      352771.7831       -742.920          21.650  
R15  22206330.977     4688450.9111      -3841.997          26.570  
R17  21724002.386     1063508.2891       -803.845          31.231  
R03  20227788.893    -2481265.3441       1878.985          27.764  
R04  23029150.951    -3407606.4811       3977.203          25.214  
J01  37841572.524     1030196.1681       -968.648          33.488  
J02  36949898.018      140488.2671       -877.751          14.001  
E011943272088.680     1624321.2941      -1693.541          24.422  
> 2018  4 30 11 56 36.9996636  0 19
G02  23401431.726    -3799909.8521        840.908          27.134  
G03  24077664.879     4593962.8371      -3546.079          29.060  
G06  21168367.044      260352.6781       -343.206          29.307  
G09  23580516.648    -1795588.3891       1559.826          30.987  
G17  21351929.966     -981552.7971        640.412          32.164  
G19  21380366.480    -1416643.0731       1031.910          19.749  
G23  24771002.092     -374074.0031        161.384          26.392  
G28  21169881.896     2582854.5791      -2586.482          30.661  
G30  25520588.164     1949388.7451      -2204.876           7.000  
R02  21267196.926     1829362.4991      -1887.923          24.511  
R18  21494615.587     -590129.6751        569.264          23.438  
R16  21642335.023      353515.4061       -745.167          22.349  
R15  22207040.586     4692290.3951      -3838.992          25.771  
R17  21724162.775     1064311.9651       -802.180          29.936  
R03  20227467.216    -2483148.7551       1878.051          24.743  
R04  23028512.093    -3411581.6751       3978.523          21.990  
J01  37841763.792     1031164.9361       -966.429          31.820  
J02  36950060.505      141360.7851       -877.042          15.730  
E012243064872.250     1625994.7741      -1696.725          23.705  
> 2018  4 30 11 56 37.9996636  0 19
G02  23401233.263    -3800756.5911        839.639          26.113  
G03  24078333.117     4597510.0181      -3545.893          26.281  
G06  21168409.615      260697.9631       -343.950          27.723  
G09  23580247.434    -1797146.3731       1563.921          28.443  
G17  21351793.261     -982192.9841        642.252          30.320  
G19  21380179.410    -1417681.4771       1035.665          20.430  
G23  24770916.951     -374237.1631        163.432          26.773  
G28  21170363.662     2585439.6881      -2588.908          34.126  
G30  25521007.874     1951593.0201      -2204.876           7.000  
R02  21267551.580     1831244.9591      -1890.721          22.943  
R18  21494559.226     -590705.1081        572.917          23.901  
R16  21642456.739      354260.5851       -750.076          22.595  
R15  22207775.977     4696128.3121      -3842.707          24.457  
R17  21724343.550     1065115.4201       -801.647          28.644  
R03  20227083.781    -2485032.9461       1887.306          25.295  
R04  23027737.729    -3415562.2061       3975.469          22.819  
J01  37841949.364     1032133.5821       -968.338          30.501  
J02  36950360.598      142235.2141       -877.768          15.118  
E012542857653.730     1627690.8701      -1701.037          23.505  
> 2018  4 30 11 56 38.9996636  0 19
G02  23401077.371    -3801600.2471        838.378          25.870  
G03  24079014.545     4601056.4961      -3542.875          22.496  
G06  21168469.274      261048.0451       -344.583          28.165  
G09  23579930.554    -1798707.1701       1560.563          28.811  
G17  21351694.030     -982833.0891        641.664          29.043  
G19  21379979.748    -1418725.5961       1038.913          22.312  
G23  24770901.662     -374402.3371        159.820          29.275  
G28  21170853.823     2588028.6111      -2591.799          34.502  
G30  25521426.984     1953796.7061      -2203.900           7.000  
R02  21267909.233     1833134.7831      -1892.102          25.141  
R18  21494476.484     -591279.5601        577.792          25.092  
R16  21642659.099      355011.6961       -753.703          20.059  
R15  22208428.025     4699973.5491      -3841.755          24.089  
R17  21724490.748     1065916.6281       -799.642          27.896  
R03  20226743.217    -2486918.9851       1886.726          25.144  
R04  23026886.318    -3419533.9701       3974.299          21.769  
J01  37842134.336     1033102.7891       -969.932          32.527  
J02  36950524.884      143108.4001       -879.119          14.258  
E012842650413.620     1629383.3681      -1693.453          24.978  
> 2018  4 30 11 56 39.9996636  0 19
G02  23400939.167    -3802441.7641        841.146          25.470  
G03  24079708.864     4604598.0681      -3544.918          18.133  
G06  21168552.016      261397.8701       -345.956          28.659  
G09  23579655.044    -1800263.9471       1556.107          26.433  
G17  21351560.322     -983468.5021        638.656          29.222  
G19  21379779.786    -1419757.1331       1037.401          22.833  
G23  24770863.888     -374557.8140        155.257          35.370  
G28  21171347.281     2590618.1840      -2590.941          34.661  
G30  25521844.894     1956000.7721      -2203.900           7.000  
R02  21268244.701     1835021.8221      -1891.218          24.398  
R18  21494332.883     -591853.6951        574.945          24.620  
R16  21642801.800      355766.9691       -747.272          19.756  
R15  22209205.387     4703813.2901      -3839.760          24.777  
R17  21724624.755     1066715.2291       -801.152          26.261  
R03  20226396.957    -2488805.1961       1879.736          26.151  
R04  23026230.073    -3423504.8881       3972.494          22.721  
J01  37842314.811     1034072.3421       -970.026          33.620  
J02  36950719.449      143994.4721       -879.858          13.498  
E013142443201.390     1631071.8871      -1691.371          26.187  
> 2018  4 30 11 56 40.9996636  0 19
G02  23400777.879    -3803281.6901        841.880          25.102  
G03  24080372.905     4608139.5251      -3545.591          16.866  
G06  21168612.874      261744.1051       -344.034          28.520  
G09  23579361.248    -1801829.0611       1561.489          26.248  
G17  21351456.894     -984109.1411        640.133          27.037  
G19  21379556.441    -1420799.5801       1043.235          22.282  
G23  24770811.424     -374713.4120        154.636          36.572  
G28  21171843.138     2593208.3531      -2590.158          38.149  
G30  25522262.505     1958204.6671      -2203.900           7.000  
R02  21268624.538     1836913.0511      -1893.622          24.966  
R18  21494239.648     -592423.5511        573.324          26.160  
R16  21642910.925      356523.3311       -748.907          21.296  
R15  22209856.836     4707650.5751      -3841.923          24.747  
R17  21724759.362     1067509.1161       -798.397          26.609  
R03  20226016.520    -2490685.1181       1877.915          24.911  
R04  23025446.715    -3427478.2001       3976.131          19.983  
J01  37842496.785     1035042.5591       -971.373          32.906  
J02  36950881.637      144870.0851       -877.627          13.551  
E013442235964.280     1632762.7251      -1692.102          26.085  
> 2018  4 30 11 56 41.9996636  0 19
G02  23400601.900    -3804115.3251        838.311          24.607  
G03  24081015.660     4611678.9251      -3545.481          16.017  
G06  21168673.432      262087.0911       -343.682          28.041  
G09  23579053.361    -1803395.8291       1561.921          29.351  
G17  21351327.384     -984746.9411        640.959          27.337  
G19  21379366.073    -1421845.7251       1039.191          25.245  
G23  24770807.527     -374868.5150        154.368          38.873  
G28  21172335.097     2595798.7750      -2590.291          40.257  
G30  25522680.116     1960407.9661      -2203.900           7.000  
R02  21268936.622     1838799.2791      -1888.560          24.199  
R18  21494171.595     -592996.2441        576.930          28.411  
R16  21643033.240      357271.5441       -750.264          21.329  
R15  22210634.498     4711493.7551      -3844.991          24.550  
R17  21724899.365     1068305.3301       -800.610          24.575  
R03  20225702.038    -2492558.2581       1880.529          24.700  
R04  23024727.813    -3431453.0471       3976.431          22.911  
J01  37842684.155     1036011.9931       -966.522          33.656  
J02  36951018.942      145748.3971       -878.172          12.812  
E013742028742.460     1634451.6841      -1688.346          24.101  
> 2018  4 30 11 56 42.9996636  0 19
G02  23400436.115    -3804950.7251        841.760          25.335  
G03  24081699.187     4615217.1931      -3545.295          17.509  
G06  21168736.389      262428.5071       -343.140          32.147  
G09  23578765.860    -1804958.2761       1560.784          29.357  
G17  21351202.970     -985388.8051        642.559          26.998  
G19  21379151.721    -1422881.7421       1034.616          29.916  
G23  24770768.854     -375024.0021        155.899          36.585  
G28  21172827.956     2598389.7180      -2591.205          39.242  
G30  25523099.226     1962610.6761      -2202.925           7.000  
R02  21269341.341     1840684.4381      -1890.183          23.850  
R18  21494034.589     -593577.0731        577.180          28.171  
R16  21643229.604      358021.9411       -750.846          24.058  
R15  22211362.694     4715332.0131      -3844.210          24.723  
R17  21725097.528     1069101.2931       -803.265          23.305  
R03  20225352.180    -2494444.0421       1880.008          24.747  
R04  23023990.323    -3435430.8821       3974.116          22.914  
J01  37842866.729     1036981.5610       -971.164          36.188  
J02  36951181.130      146624.3951       -878.133          13.604  
E014041821518.836     1636138.0851      -1690.542          24.457  
> 2018  4 30 11 56 43.9996636  0 19
G02  23400307.504    -3805798.9131        844.353          24.529  
G03  24082375.818     4618754.7861      -3543.200          15.825  
G06  21168802.343      262772.0081       -335.484          30.487  
G09  23578469.066    -1806517.9051       1561.341          29.798  
G17  21351088.149     -986030.1791        638.260          26.134  
G19  21378961.353    -1423917.5741       1035.059          31.624  
G23  24770731.080     -375178.5641        156.778          34.963  
G28  21173323.513     2600980.8181      -2591.108          35.317  
G30  25523516.837     1964813.0001      -2202.925           7.000  
R02  21269685.503     1842571.7841      -1893.849          24.716  
R18  21493953.046     -594154.8781        573.551          27.209  
R16  21643371.406      358773.5321       -754.919          23.143  
R15  22212034.229     4719178.5781      -3840.919          24.331  
R17  21725225.839     1069904.1081       -796.382          24.758  
R03  20224993.928    -2496325.0811       1878.871          24.385  
R04  23023238.743    -3439405.5471       3977.903          21.154  
J01  37843049.602     1037951.0731       -970.583          35.921  
J02  36951218.604      147504.1551       -876.886          13.010  
E014341614301.810     1637825.2981      -1693.555          26.069  
> 2018  4 30 11 56 44.9996636  0 19
G02  23400158.208    -3806640.3401        838.287          26.109  
G03  24083070.437     4622291.1581      -3542.095          14.658  
G06  21168877.591      263116.6781       -345.840          27.355  
G09  23578183.663    -1808079.7591       1560.801          28.525  
G17  21350976.327     -986668.4841        636.296          24.929  
G19  21378763.790    -1424953.3121       1038.173          30.286  
G23  24770706.197     -375332.6591        154.440          34.112  
G28  21173814.873     2603573.0441      -2593.365          34.113  
G30  25523934.748     1967014.7351      -2201.949           7.000  
R02  21269990.092     1844471.4801      -1895.463          22.990  
R18  21493821.437     -594732.0671        572.817          27.901  
R16  21643523.101      359523.4861       -752.920          21.556  
R15  22212796.001     4723022.2761      -3841.703          26.169  
R17  21725400.019     1070699.5961       -797.428          23.101  
R03  20224619.187    -2498210.0541       1880.574          27.212  
R04  23022590.592    -3443384.1491       3977.236          22.747  
J01  37843233.075     1038920.6931       -967.356          35.320  
J02  36951384.389      148378.2301       -876.739          14.148  
E014641407082.990     1639517.4631      -1682.224          23.227  
> 2018  4 30 11 56 45.9996636  0 19
G02  23400015.506    -3807476.3431        835.790          25.610  
G03  24083750.966     4625829.7681      -3539.696          17.067  
G06  21168946.843      263464.2041       -348.761          26.404  
G09  23577875.776    -1809647.3791       1560.350          27.567  
G17  21350839.921     -987311.7911        639.494          24.721  
G19  21378571.023    -1425989.3931       1038.946          34.389  
G23  24770684.912     -375489.4721        158.408          33.929  
G28  21174309.231     2606164.4971      -2593.628          33.200  
G30  25524352.658     1969216.8501      -2201.949           7.000  
R02  21270395.112     1846363.7211      -1896.942          22.687  
R18  21493699.122     -595306.3161        575.146          27.980  
R16  21643619.934      360274.1331       -751.169          24.193  
R15  22213522.698     4726859.5011      -3845.869          25.676  
R17  21725549.015     1071498.3561       -799.243          25.763  
R03  20224284.619    -2500092.7801       1879.375          27.860  
R04  23021800.939    -3447358.4321       3974.270          25.741  
J01  37843422.544     1039890.2581       -968.462          33.848  
J02  36951559.168      149256.0781       -877.412          14.331  
E014941199843.480     1641207.8951      -1686.748          24.605  
> 2018  4 30 11 56 46.9996636  0 19
G02  23399807.750    -3808315.7841        838.761          25.914  
G03  24084430.895     4629366.0371      -3540.989          15.199  
G06  21169016.095      263808.1251       -343.655          26.352  
G09  23577596.969    -1811210.5491       1560.476          25.516  
G17  21350756.579     -987948.6851        644.230          24.097  
G19  21378385.152    -1427026.4291       1034.347          31.425  
G23  24770630.050     -375645.1361        153.083          40.415  
G28  21174808.085     2608756.9251      -2592.214          34.226  
G30  25524770.269     1971417.8311      -2201.949           7.000  
R02  21270708.695     1848258.3601      -1897.225          23.247  
R18  21493582.203     -595886.3201        573.619          29.150  
R16  21643798.610      361028.8791       -752.883          25.207  
R15  22214268.582     4730700.0891      -3843.789          24.158  
R17  21725682.723     1072297.0251       -799.001          24.571  
R03  20223887.694    -2501978.0971       1879.726          26.739  
R04  23021035.569    -3451332.6411       3974.585          23.903  
J01  37843609.914     1040859.6221       -971.159          35.162  
J02  36951892.537      150130.6971       -877.584          13.732  
E015240992635.750     1642889.7751      -1685.392          23.648  
> 2018  4 30 11 56 47.9996636  0 19
G02  23399665.349    -3809151.1711        837.914          26.326  
G03  24085123.416     4632906.3231      -3539.802          17.118  
G06  21169086.247      264152.1281       -342.506          23.367  
G09  23577289.382    -1812769.9691       1561.371          23.721  
G17  21350619.274     -988594.6881        637.517          22.412  
G19  21378178.595    -1428064.2811       1032.573          31.170  
G23  24770620.156     -375800.0691        155.662          36.158  
G28  21175292.250     2611349.8611      -2594.294          34.350  
G30  25525187.880     1973618.9571      -2200.974           7.000  
R02  21271052.857     1850157.2241      -1894.984          24.958  
R18  21493488.068     -596461.8211        572.894          30.578  
R16  21643867.862      361787.1311       -754.487          25.558  
R15  22214908.339     4734542.1541      -3838.593          23.161  
R17  21725817.030     1073093.3681       -794.489          24.836  
R03  20223543.232    -2503856.6541       1878.798          27.731  
R04  23020214.437    -3455310.4361       3977.308          21.324  
J01  37843799.683     1041828.4551       -968.375          33.134  
J02  36952016.651      151006.6251       -875.449          13.789  
E015540785410.330     1644562.6601      -1688.013          26.240  
> 2018  4 30 11 56 48.9996636  0 19
G02  23399512.754    -3809989.0781        836.717          24.701  
G03  24085796.750     4636442.8481      -3542.921          14.163  
G06  21169145.605      264498.1971       -345.322          24.623  
G09  23576977.898    -1814327.8361       1559.389          21.491  
G17  21350488.864     -989225.4371        639.897          24.376  
G19  21377990.325    -1429101.6311       1038.811          32.841  
G23  24770579.085     -375953.0531        153.927          38.467  
G28  21175798.899     2613944.3921      -2593.885          32.945  
G30  25525605.491     1975818.0011      -2200.974           7.000  
R02  21271467.469     1852052.9161      -1895.533          25.163  
R18  21493362.455     -597033.7241        573.074          28.949  
R16  21644006.066      362547.3291       -755.797          22.814  
R15  22215714.181     4738383.1231      -3842.409          23.491  
R17  21725993.608     1073882.5921       -792.412          26.034  
R03  20223185.580    -2505732.2731       1879.842          28.080  
R04  23019531.510    -3459295.0101       3976.312          21.243  
J01  37843972.363     1042796.9181       -966.185          31.760  
J02  36952186.034      151884.8401       -878.001          13.117  
E015840578182.516     1646236.0811      -1686.571          26.689  
> 2018  4 30 11 56 49.9996636  0 19
G02  23399315.491    -3810830.0331        841.415          25.748  
G03  24086475.480     4639983.4381      -3542.250          12.575  
G06  21169207.063      264838.4941       -346.940          25.005  
G09  23576717.978    -1815891.8951       1562.138          21.931  
G17  21350351.559     -989861.1251        641.908          25.255  
G19  21377791.563    -1430139.4911       1041.331          32.831  
G23  24770556.600     -376105.5640        151.404          42.578  
G28  21176292.358     2616539.9301      -2597.146          30.289  
G30  25526022.203     1978017.9291      -2199.022           7.000  
R02  21271781.952     1853953.7701      -1895.422          24.832  
R18  21493293.802     -597607.2961        575.825          25.864  
R16  21644202.430      363304.9451       -753.100          25.575  
R15  22216386.915     4742234.1971      -3849.402          23.013  
R17  21726124.917     1074680.4491       -797.806          26.444  
R03  20222855.209    -2507607.4561       1877.826          30.732  
R04  23018701.385    -3463273.5151       3973.935          21.650  
J01  37844159.434     1043761.5061       -968.991          32.385  
J02  36952352.119      152763.7531       -879.224          12.288  
E016140370966.984     1647923.0711      -1684.855          25.391  
> 2018  4 30 11 56 50.9996636  0 19
G02  23399217.759    -3811664.9141        837.281          24.765  
G03  24087083.759     4643527.7811      -3541.637          14.347  
G06  21169260.726      265180.9711       -343.503          26.036  
G09  23576411.590    -1817455.8471       1563.037          22.801  
G17  21350250.529     -990499.2341        641.678          26.243  
G19  21377578.410    -1431176.6101       1036.017          34.580  
G23  24770518.827     -376258.2270        151.530          39.320  
G28  21176780.420     2619139.7311      -2600.583          32.054  
G30  25526439.514     1980215.2441      -2199.998           7.000  
R02  21272174.080     1855848.6651      -1899.816          24.749  
R18  21493173.586     -598176.3531        573.403          27.691  
R16  21644318.150      364053.5841       -753.582          25.352  
R15  22217226.334     4746076.5761      -3846.469          24.921  
R17  21726299.096     1075475.4531       -801.349          24.508  
R03  20222486.764    -2509482.0921       1871.558          37.615  
R04  23017966.593    -3467246.7131       3971.220          22.685  
J01  37844348.003     1044730.3411       -970.280          32.997  
J02  36952512.208      153637.2481       -878.771          11.938  
E016440163738.570     1649614.3061      -1693.142          24.072  
> 2018  4 30 11 56 51.9996636  0 19
G02  23398995.313    -3812505.8081        837.510          23.601  
G03  24087716.021     4647092.0351      -3541.599          13.925  
G06  21169320.984      265525.4371       -344.241          26.919  
G09  23576129.185    -1819020.4411       1561.258          24.776  
G17  21350122.218     -991144.2011        637.080          26.309  
G19  21377386.843    -1432211.9450       1034.971          39.397  
G23  24770499.340     -376411.2751        154.782          35.373  
G28  21177285.570     2621734.9041      -2599.108          30.860  
G30  25526857.724     1982413.2071      -2197.071           7.000  
R02  21272488.263     1857751.2461      -1899.366          24.102  
R18  21493102.235     -598749.0991        573.607          25.656  
R16  21644441.665      364810.2271       -761.203          24.985  
R15  22217883.779     4749920.2041      -3844.426          25.658  
R17  21726405.223     1076277.2871       -802.616          25.938  
R03  20222134.508    -2511356.3251       1874.291          38.088  
R04  23017319.341    -3471220.6791       3974.359          21.291  
J01  37844537.772     1045700.2151       -966.764          30.748  
J02  36952670.499      154510.5401       -875.175          11.603  
E016739956533.540     1651312.5551      -1691.730          24.788  
> 2018  4 30 11 56 52.9996636  0 19
G02  23398822.632    -3813340.1451        838.699          23.257  
G03  24088438.821     4650634.8321      -3542.010          13.230  
G06  21169395.033      265870.8621       -345.567          25.652  
G09  23575829.993    -1820581.6681       1557.628          25.754  
G17  21349999.903     -991787.1171        642.850          27.785  
G19  21377182.085    -1433247.1590       1035.473          41.147  
G23  24770491.546     -376566.1931        155.438          31.296  
G28  21177772.133     2624335.5931      -2597.155          30.494  
G30  25527274.136     1984611.4571      -2198.047           7.000  
R02  21272895.381     1859653.2121      -1899.930          24.700  
R18  21492956.836     -599328.1391        576.066          24.004  
R16  21644645.524      365571.0811       -766.645          25.624  
R15  22218629.663     4753766.4981      -3848.204          24.338  
R17  21726554.519     1077076.2001       -800.106          26.211  
R03  20221779.853    -2513229.5801       1871.803          38.519  
R04  23016582.452    -3475193.7281       3976.899          21.919  
J01  37844723.043     1046671.0321       -965.774          32.163  
J02  36952823.992      155389.6821       -875.039          10.870  
E017039749307.220     1653021.9431      -1686.718          24.111  
> 2018  4 30 11 56 53.9996636  0 19
G02  23398710.510    -3814178.3351        837.898          24.739  
G03  24089137.337     4654176.9511      -3543.333          12.842  
G06  21169469.082      266220.4461       -344.351          24.052  
G09  23575533.798    -1822141.3461       1559.373          23.746  
G17  21349864.996     -992431.3591        643.345          28.801  
G19  21376994.715    -1434282.5201       1035.277          38.927  
G23  24770454.371     -376723.5181        154.621          30.010  
G28  21178256.898     2626938.3231      -2602.055          34.812  
G30  25527691.747     1986808.1351      -2198.047           7.000  
R02  21273218.257     1861553.3321      -1901.075          23.094  
R18  21492848.011     -599902.0541        574.990          24.788  
R16  21644769.038      366329.0541       -761.085          27.911  
R15  22219383.041     4757616.5591      -3846.386          24.055  
R17  21726704.715     1077870.9461       -797.103          25.729  
R03  20221437.190    -2515101.9031       1871.830          37.018  
R04  23015824.276    -3479172.0631       3979.435          20.971  
J01  37844896.323     1047640.8391       -970.211          38.578  
J02  36952947.507      156261.9151       -876.970          11.176  
E017339542108.180     1654708.0281      -1686.444          23.964  
> 2018  4 30 11 56 54.9996636  0 19
G02  23398550.121    -3815011.9791        835.745          22.172  
G03  24089869.430     4657721.8291      -3541.707          12.810  
G06  21169540.132      266567.8681       -345.748          23.423  
G09  23575240.001    -1823698.7181       1560.618          25.295  
G17  21349750.176     -993070.3581        639.256          27.081  
G19  21376796.252    -1435317.3161       1035.697          38.020  
G23  24770432.786     -376882.4941        157.297          28.941  
G28  21178774.340     2629538.3121      -2597.521          33.620  
G30  25528109.957     1989005.7321      -2196.095           7.000  
R02  21273561.220     1863452.1331      -1906.330          23.829  
R18  21492761.671     -600476.9711        569.235          23.885  
R16  21644885.058      367086.1471       -756.045          28.895  
R15  22220040.786     4761466.5211      -3847.000          24.529  
R17  21726912.771     1078669.2061       -795.373          23.627  
R03  20221095.427    -2516973.0251       1871.251          39.094  
R04  23015030.726    -3483144.7741       3975.315          20.531  
J01  37845077.698     1048610.9111       -970.294          39.022  
J02  36953136.976      157137.8361       -877.420          10.316  
E017639334887.555     1656394.5081      -1685.586          23.171  
> 2018  4 30 11 56 55.9996636  0 19
G02  23398407.420    -3815852.0481        834.336          24.515  
G03  24090548.460     4661262.4741      -3544.291          12.541  
G06  21169624.674      266908.2081       -346.092          24.038  
G09  23574919.523    -1825259.9951       1560.813          25.134  
G17  21349633.856     -993710.2041        639.221          26.889  
G19  21376593.892    -1436351.9330       1034.205          41.030  
G23  24770398.910     -377042.8511        150.885          28.925  
G28  21179257.605     2632136.9031      -2596.468          31.052  
G30  25528526.669     1991203.9721      -2198.047           7.000  
R02  21273910.478     1865360.1141      -1907.469          23.888  
R18  21492648.349     -601047.4071        571.250          25.118  
R16  21645009.172      367846.0601       -758.553          29.281  
R15  22220640.071     4765316.2851      -3841.336          23.935  
R17  21727086.051     1079459.0381       -794.565          24.003  
R03  20220728.481    -2518843.3691       1867.575          34.875  
R04  23014352.295    -3487116.0471       3973.366          21.326  
J01  37845271.064     1049580.8400       -970.638          37.793  
J02  36953321.648      158013.2901       -876.299           9.456  
E017939127641.450     1658084.1931      -1692.784          22.966  
> 2018  4 30 11 56 56.9996636  0 19
G02  23398194.267    -3816686.8001        840.124          22.732  
G03  24091218.496     4664811.6041      -3544.001          12.318  
G06  21169679.536      267252.1191       -348.670          22.991  
G09  23574634.420    -1826819.5841       1560.267          25.829  
G17  21349519.935     -994346.0751        640.632          26.574  
G19  21376407.721    -1437385.2230       1031.035          37.545  
G23  24770385.119     -377194.8701        151.114          27.641  
G28  21179773.548     2634738.0281      -2599.450          28.010  
G30  25528944.280     1993401.0511      -2198.047           7.000  
R02  21274252.242     1867269.2031      -1908.353          24.601  
R18  21492526.034     -601622.8221        573.169          24.571  
R16  21645137.183      368600.5981       -761.049          27.873  
R15  22221508.570     4769154.6911      -3845.985          26.897  
R17  21727178.088     1080255.9101       -798.317          23.069  
R03  20220395.412    -2520713.6861       1871.920          36.806  
R04  23013607.911    -3491097.0751       3977.611          19.872  
J01  37845445.243     1050550.4371       -968.301          34.260  
J02  36953497.626      158891.5021       -876.613           9.130  
E018238920431.625     1659785.4761      -1693.775          23.110  
> 2018  4 30 11 56 57.9996636  0 19
G02  23398079.746    -3817532.7991        838.530          21.768  
G03  24091896.327     4668351.6461      -3542.588          12.020  
G06  21169719.108      267597.1821       -343.448          22.872  
G09  23574340.324    -1828385.8601       1559.967          23.991  
G17  21349384.729     -994983.7121        637.858          27.135  
G19  21376219.751    -1438419.1891       1035.941          33.438  
G23  24770329.658     -377348.7341        150.997          32.484  
G28  21180261.010     2637335.8821      -2602.457          26.576  
G30  25529362.790     1995596.7401      -2197.071           7.000  
R02  21274608.695     1869177.8121      -1908.975          26.607  
R18  21492442.692     -602197.2621        576.861          23.042  
R16  21645272.390      369355.9021       -759.796          28.505  
R15  22222224.474     4772999.2841      -3850.068          30.004  
R17  21727335.778     1081059.1241       -798.798          22.204  
R03  20220061.743    -2522584.1411       1873.846          33.561  
R04  23012822.155    -3495077.4111       3976.808          21.427  
J01  37845639.209     1051520.4921       -970.722          32.710  
J02  36953545.293      159768.8131       -875.551           8.714  
E018538713200.510     1661497.6451      -1697.177          20.961  
> 2018  4 30 11 56 58.9996636  0 19
G02  23397880.085    -3818373.4481        837.573          23.426  
G03  24092557.070     4671896.0991      -3544.541          12.245  
G06  21169798.853      267943.2321       -342.705          23.603  
G09  23574048.626    -1829946.7431       1560.315          21.897  
G17  21349262.713     -995624.1821        638.536          27.757  
G19  21376005.399    -1439456.0931       1035.651          30.309  
G23  24770305.374     -377498.3031        151.324          29.939  
G28  21180751.771     2639938.7161      -2600.630          25.989  
G30  25529781.000     1997792.3991      -2195.120           7.000  
R02  21275003.222     1871081.7721      -1912.946          28.311  
R18  21492321.575     -602780.1181        575.251          24.124  
R16  21645406.097      370113.5471       -757.954          28.857  
R15  22222866.929     4776849.5511      -3849.978          27.407  
R17  21727442.804     1081861.9041       -795.281          21.878  
R03  20219686.702    -2524449.6061       1867.081          33.753  
R04  23012001.623    -3499058.8671       3977.129          21.355  
J01  37845822.682     1052490.8941       -975.874          31.448  
J02  36953849.882      160643.9361       -874.400          10.015  
E018838505978.086     1663210.5841      -1692.242          22.353  
> 2018  4 30 11 56 59.9996636  0 19
G02  23397722.993    -3819214.8821        839.246          23.718  
G03  24093232.202     4675443.7111      -3543.930          12.285  
G06  21169866.906      268285.6991       -347.717          27.027  
G09  23573776.714    -1831503.9431       1560.180          20.260  
G17  21349153.888     -996262.6951        639.312          27.953  
G19  21375821.027    -1440494.5141       1035.934          28.896  
G23  24770296.381     -377647.7761        150.421          27.819  
G28  21181274.009     2642538.4581      -2596.871          26.135  
G30  25530197.412     1999987.9071      -2196.095           7.000  
R02  21275346.184     1872990.6381      -1913.026          28.133  
R18  21492246.327     -603349.1221        575.011          26.964  
R16  21645581.776      370870.5431       -759.830          26.243  
R15  22223630.501     4780700.5421      -3849.090          27.502  
R17  21727629.275     1082657.9421       -794.916          22.831  
R03  20219335.046    -2526317.7501       1869.653          34.659  
R04  23011315.997    -3503036.5531       3980.755          20.476  
J01  37846016.048     1053459.0661       -970.887          29.133  
J02  36954005.474      161517.1501       -875.138          10.318  
E019138298766.760     1664902.4181      -1697.122          21.569  
> 2018  4 30 11 57  0.9996636  0 19
G02  23397578.493    -3820054.5721        837.135          25.109  
G03  24093904.037     4678988.6051      -3546.279          12.388  
G06  21169933.760      268628.6811       -349.745          26.062  
G09  23573450.540    -1833062.0441       1561.023          21.198  
G17  21349032.772     -996905.5151        638.836          26.066  
G19  21375619.567    -1441532.3921       1037.218          28.005  
G23  24770264.003     -377796.6001        149.322          26.805  
G28  21181748.880     2645142.3721      -2601.809          24.653  
G30  25530614.723     2002180.8891      -2195.120           7.000  
R02  21275675.956     1874896.0351      -1907.939          27.577  
R18  21492124.012     -603918.0531        574.217          24.933  
R16  21645739.167      371634.0951       -763.223          25.224  
R15  22224293.042     4784553.1531      -3849.362          26.569  
R17  21727781.570     1083455.5751       -801.200          24.305  
R03  20219007.372    -2528185.1850       1867.354          40.372  
R04  23010555.424    -3507016.6891       3982.382          19.464  
J01  37846186.930     1054425.8521       -968.399          28.971  
J02  36954161.067      162395.9391       -873.431          10.154  
E019438091536.240     1666595.6861      -1698.913          21.870  
> 2018  4 30 11 57  1.9996636  0 19
G02  23397413.907    -3820895.8861        838.845          23.128  
G03  24094579.170     4682539.6731      -3547.147          12.838  
G06  21169986.224      268975.8561       -346.674          27.986  
G09  23573138.756    -1834625.4461       1554.891          22.366  
G17  21348907.159     -997543.6741        637.226          26.437  
G19  21375437.892    -1442571.5071       1040.949          25.939  
G23  24770238.521     -377946.7101        149.188          26.900  
G28  21182256.129     2647749.6401      -2603.297          25.527  
G30  25531032.334     2004373.4291      -2193.169           7.000  
R02  21276068.984     1876810.4491      -1911.897          28.665  
R18  21492031.076     -604494.7331        578.761          23.507  
R16  21645848.891      372401.1391       -763.095          24.134  
R15  22225070.104     4788399.0131      -3844.131          25.201  
R17  21727905.684     1084255.9491       -801.691          26.604  
R03  20218641.925    -2530051.5751       1866.483          36.879  
R04  23009806.542    -3510992.0401       3981.280          17.820  
J01  37846368.005     1055389.4941       -967.581          29.023  
J02  36954324.753      163270.4391       -874.097          10.194  
E019737884320.720     1668290.6631      -1711.321          21.449  
> 2018  4 30 11 57  2.9996636  0 19
G02  23397274.804    -3821737.6311        837.860          25.401  
G03  24095237.814     4686084.8291      -3547.923          12.914  
G06  21170068.067      269318.7781       -344.334          26.137  
G09  23572870.142    -1836187.7591       1558.634          22.501  
G17  21348764.758     -998182.9751        636.861          27.098  
G19  21375243.027    -1443604.9201       1034.287          25.063  
G23  24770248.114     -378104.0411        152.559          24.771  
G28  21182738.195     2650350.3521      -2603.290          24.048  
G30  25531450.245     2006565.4081      -2192.193           7.000  
R02  21276403.253     1878720.5601      -1915.018          31.461  
R18  21491915.956     -605070.5601        578.561          24.471  
R16  21645965.810      373166.6111       -766.609          23.374  
R15  22225744.337     4792244.9491      -3844.083          27.093  
R17  21728062.775     1085055.3721       -798.381          25.589  
R03  20218292.667    -2531917.2901       1867.746          34.937  
R04  23009060.959    -3514968.2971       3979.052          20.028  
J01  37846568.566     1056359.7221       -968.341          29.010  
J02  36954475.549      164144.6641       -872.589          12.368  
E010037677118.080     1669982.8321      -1700.618          22.142  
> 2018  4 30 11 57  3.9996636  0 19
G02  23397060.152    -3822577.0781        841.405          23.675  
G03  24095911.448     4689634.0661      -3548.810          13.862  
G06  21170132.522      269662.3851       -347.300          25.761  
G09  23572576.945    -1837744.1831       1556.506          22.341  
G17  21348664.927     -998825.7631        637.850          26.301  
G19  21375043.965    -1444639.4061       1030.131          24.103  
G23  24770169.868     -378261.5681        150.477          24.688  
G28  21183222.660     2652957.1981      -2602.383          23.639  
G30  25531866.956     2008757.7671      -2192.193           7.000  
R02  21276753.410     1880637.8651      -1917.853          32.530  
R18  21491801.136     -605647.1951        573.405          24.078  
R16  21646158.876      373932.7331       -770.018          22.256  
R15  22226440.156     4796094.9691      -3844.843          25.437  
R17  21728215.370     1085856.3821       -798.756          27.081  
R03  20217939.512    -2533786.1261       1863.189          34.414  
R04  23008308.479    -3518940.3581       3977.119          21.728  
J01  37846740.946     1057326.5651       -970.514          31.898  
J02  36954637.737      165021.4311       -873.198          11.507  
E010337469900.160     1671671.5471      -1703.734          22.670  
> 2018  4 30 11 57  4.9996636  0 19
G02  23396891.069    -3823421.8581        843.672          23.870  
G03  24096592.276     4693182.0291      -3547.956          14.016  
G06  21170199.676      270012.9011       -346.862          27.104  
G09  23572242.076    -1839299.8511       1557.483          21.671  
G17  21348547.108     -999466.8891        640.397          27.690  
G19  21374845.203    -1445679.0601       1037.105          26.325  
G23  24770250.812     -378412.0101        150.657          21.994  
G28  21183715.519     2655559.6911      -2602.902          21.618  
G30  25532284.567     2010948.9921      -2192.193           7.000  
R02  21277138.943     1882551.4171      -1917.399          30.435  
R18  21491690.812     -606223.7721        575.947          23.990  
R16  21646366.932      374698.3721       -768.532          20.857  
R15  22227152.163     4799940.7461      -3847.971          26.271  
R17  21728379.056     1086650.7681       -800.312          28.719  
R03  20217611.239    -2535650.5520       1863.698          35.569  
R04  23007565.894    -3522912.3101       3974.339          19.547  
J01  37846930.715     1058297.0771       -971.003          31.551  
J02  36954803.522      165895.1651       -872.713          11.155  
E010637262666.340     1673354.7821      -1700.876          23.164  
> 2018  4 30 11 57  5.9996636  0 19
G02  23396720.487    -3824260.7851        841.317          24.186  
G03  24097272.505     4696731.4811      -3548.708          13.863  
G06  21170267.129      270361.2531       -343.160          25.031  
G09  23571972.863    -1840861.2141       1562.396          22.813  
G17  21348428.091    -1000103.2201        640.650          29.403  
G19  21374650.038    -1446715.8321       1040.140          26.561  
G23  24770253.510     -378558.0391        153.286          20.759  
G28  21184219.470     2658161.8361      -2607.132          22.672  
G30  25532701.279     2013140.3621      -2191.218           7.000  
R02  21277501.692     1884462.8671      -1912.883          27.323  
R18  21491598.176     -606800.5721        581.008          23.293  
R16  21646435.884      375465.4401       -765.345          22.474  
R15  22227836.589     4803783.4521      -3841.305          28.669  
R17  21728523.256     1087449.2661       -800.719          27.507  
R03  20217278.469    -2537513.0561       1860.348          32.554  
R04  23006788.832    -3526884.0421       3978.105          21.460  
J01  37847107.593     1059265.8701       -970.409          33.130  
J02  36954967.209      166766.0971       -873.811          12.918  
E010937055443.920     1675028.2901      -1699.180          23.713  
> 2018  4 30 11 57  6.9996636  0 19
G02  23396618.558    -3825098.6811        839.034          23.674  
G03  24097944.640     4700280.3741      -3548.934          14.126  
G06  21170328.886      270706.8441       -345.838          26.881  
G09  23571673.670    -1842417.3351       1558.728          22.533  
G17  21348298.281    -1000741.5771        639.794          29.578  
G19  21374453.074    -1447751.7631       1036.396          26.318  
G23  24770173.466     -378712.3761        155.275          20.118  
G28  21184747.405     2660765.6871      -2604.708          21.547  
G30  25533118.290     2015332.5361      -2191.218           7.000  
R02  21277841.057     1886370.9671      -1916.018          28.157  
R18  21491480.957     -607372.8841        577.561          23.317  
R16  21646606.166      376237.8791       -769.015          27.529  
R15  22228501.529     4807623.2901      -3837.821          32.835  
R17  21728671.953     1088249.7791       -799.764          29.046  
R03  20216937.306    -2539378.4741       1859.700          29.006  
R04  23006029.757    -3530860.9101       3981.469          21.886  
J01  37847299.160     1060236.2681       -969.732          36.651  
J02  36955142.587      167647.7691       -873.713          13.427  
E011236848214.910     1676725.7111      -1705.059          24.443  
> 2018  4 30 11 57  7.9996636  0 19
G02  23396471.060    -3825935.4401        834.704          24.273  
G03  24098615.576     4703830.6851      -3549.877          15.012  
G06  21170404.734      271051.6911       -349.266          26.379  
G09  23571402.058    -1843976.2871       1558.454          20.822  
G17  21348162.175    -1001377.9171        636.636          29.290  
G19  21374251.913    -1448785.7911       1032.788          26.385  
G23  24770103.314     -378865.9141        155.556          18.728  
G28  21185215.680     2663365.7041      -2601.065          21.625  
G30  25533534.702     2017524.9081      -2192.193           7.000  
R02  21278226.290     1888287.1531      -1917.302          26.254  
R18  21491383.525     -607945.4471        577.025          23.162  
R16  21646727.882      377004.7551       -772.166          25.849  
R15  22229257.006     4811466.7931      -3844.597          30.199  
R17  21728824.548     1089043.4231       -799.002          31.772  
R03  20216589.546    -2541238.0071       1862.869          30.472  
R04  23005273.381    -3534843.2671       3982.344          19.107  
J01  37847474.838     1061206.2641       -971.598          37.770  
J02  36955314.968      168520.2211       -875.714          12.850  
E011536641018.870     1678424.8831      -1698.170          25.757  
> 2018  4 30 11 57  8.9996636  0 19
G02  23396312.170    -3826768.0991        830.289          23.497  
G03  24099286.511     4707377.4741      -3549.045          15.282  
G06  21170440.109      271405.5141       -349.547          26.075  
G09  23571062.693    -1845543.3321       1558.193          20.595  
G17  21348043.457    -1002015.6761        635.885          28.757  
G19  21374056.748    -1449824.4931       1035.886          26.921  
G23  24770056.846     -379015.0271        154.692          20.878  
G28  21185695.049     2665965.6891      -2604.027          22.515  
G30  25533949.315     2019717.0961      -2192.193           7.000  
R02  21278565.356     1890204.0751      -1914.378          25.832  
R18  21491239.624     -608522.6051        578.049          22.885  
R16  21646869.984      377772.3911       -771.065          27.014  
R15  22229962.117     4815308.8551      -3843.816          29.076  
R17  21728954.358     1089845.8931       -800.653          29.016  
R03  20216246.884    -2543096.7321       1861.407          28.746  
R04  23004546.984    -3538821.6031       3981.946          21.188  
J01  37847670.003     1062175.3851       -971.385          34.371  
J02  36955484.351      169395.6451       -876.820          12.366  
E011836433784.450     1680124.9581      -1692.042          26.440  
> 2018  4 30 11 57  9.9996636  0 19
G02  23396124.500    -3827602.2661        835.908          22.652  
G03  24099958.646     4710931.0251      -3549.964          15.259  
G06  21170524.051      271753.6661       -348.163          28.589  
G09  23570755.406    -1847099.8521       1558.405          21.315  
G17  21347919.343    -1002657.4431        636.699          26.765  
G19  21373856.787    -1450857.2671       1036.390          26.055  
G23  24770079.930     -379166.0771        153.717          20.087  
G28  21186208.893     2668573.2261      -2611.097          23.691  
G30  25534363.328     2021908.6881      -2192.193           7.000  
R02  21278938.897     1892121.6911      -1917.026          26.266  
R18  21491131.699     -609099.4191        580.422          23.079  
R16  21647063.650      378537.9651       -768.298          24.442  
R15  22230735.582     4819149.2621      -3846.073          26.644  
R17  21729109.051     1090638.8271       -798.225          29.095  
R03  20215901.223    -2544952.4201       1860.202          27.211  
R04  23003826.282    -3542799.5921       3981.285          20.524  
J01  37847848.680     1063146.4621       -970.333          34.435  
J02  36955645.339      170272.7991       -876.209          12.503  
E012136226564.430     1681818.1921      -1694.660          27.385  
> 2018  4 30 11 57 10.9996636  0 19
G02  23395969.507    -3828445.4901        838.863          23.223  
G03  24100636.177     4714479.0261      -3547.492          15.263  
G06  21170578.613      272102.1411       -348.664          31.883  
G09  23570506.278    -1848657.5461       1560.397          22.010  
G17  21347804.522    -1003300.9911        640.163          29.638  
G19  21373686.205    -1451890.7001       1032.879          25.103  
G23  24770020.272     -379315.5121        152.546          21.065  
G28  21186695.456     2671182.9061      -2610.070          24.106  
G30  25534777.941     2024099.6911      -2191.218           7.000  
R02  21279273.765     1894043.5211      -1922.838          35.997  
R18  21490965.614     -609680.9311        578.283          21.699  
R16  21647153.887      379306.0771       -772.944          23.646  
R15  22231397.524     4822999.2321      -3846.537          26.725  
R17  21729285.928     1091437.9691       -797.718          27.590  
R03  20215563.656    -2546814.6281       1864.714          26.700  
R04  23003023.138    -3546781.9691       3979.812          23.432  
J01  37848028.855     1064111.0121       -968.336          33.706  
J02  36955805.428      171147.7371       -877.493          12.433  
E012436019344.110     1683504.2581      -1698.685          27.540  
> 2018  4 30 11 57 11.9996636  0 19
G02  23395825.607    -3829285.2911        834.402          23.312  
G03  24101319.104     4718028.5061      -3548.284          15.175  
G06  21170646.366      272449.6391       -349.223          30.890  
G09  23570213.980    -1850222.8281       1561.612          20.980  
G17  21347695.998    -1003946.4031        640.736          29.765  
G19  21373454.166    -1452921.4161       1036.047          27.647  
G23  24770041.557     -379467.0681        152.254          21.220  
G28  21187186.816     2673788.3951      -2606.593          23.492  
G30  25535193.154     2026290.3071      -2191.218           7.000  
R02  21279642.510     1895965.8771      -1921.403          34.606  
R18  21490941.930     -610256.1341        576.658          20.705  
R16  21647315.176      380080.9231       -769.072          21.943  
R15  22232120.024     4826841.8121      -3840.348          35.002  
R17  21729416.638     1092233.9951       -799.189          26.798  
R03  20215163.134    -2548678.3091       1862.349          25.122  
R04  23002285.049    -3550764.1501       3981.365          22.097  
J01  37848226.118     1065081.4101       -971.214          34.416  
J02  36955950.228      172029.8021       -876.223          12.612  
E012735812134.875     1685182.6991      -1696.388          26.942  
> 2018  4 30 11 57 12.9996636  0 19
G02  23395620.249    -3830120.7381        833.008          24.018  
G03  24101997.834     4721580.4021      -3549.272          15.273  
G06  21170708.424      272806.1021       -349.309          30.881  
G09  23569905.794    -1851772.8371       1553.816          21.649  
G17  21347561.990    -1004580.9751        639.692          30.555  
G19  21373277.288    -1453964.5961       1038.030          27.500  
G23  24769999.286     -379618.2821        154.967          19.632  
G28  21187700.960     2676393.3531      -2606.612          20.981  
G30  25535608.666     2028479.3731      -2190.242           7.000  
R02  21280012.154     1897884.0251      -1920.927          31.804  
R18  21490783.340     -610836.3821        581.193          21.277  
R16  21647447.684      380856.9881       -771.384          21.847  
R15  22232850.918     4830686.2851      -3839.266          33.122  
R17  21729567.134     1093031.6611       -799.483          25.191  
R03  20214860.643    -2550535.3561       1859.759          26.691  
R04  23001603.621    -3554752.5361       3983.047          20.716  
J01  37848399.698     1066049.9241       -972.047          35.324  
J02  36956086.634      172900.0901       -874.175          12.997  
E013035604907.960     1686877.5821      -1697.279          28.768  
> 2018  4 30 11 57 13.9996636  0 19
G02  23395483.844    -3830956.5101        836.003          27.392  
G03  24102673.566     4725133.2531      -3550.736          15.269  
G06  21170782.172      273155.4811       -351.614          32.600  
G09  23569617.993    -1853320.7651       1554.065          21.565  
G17  21347452.866    -1005218.3681        639.827          30.964  
G19  21373060.838    -1454998.7401       1036.562          25.322  
G23  24769983.397     -379773.6511        153.590          20.988  
G28  21188162.340     2679004.4781      -2605.056          20.772  
G30  25536023.579     2030667.2571      -2189.266           7.000  
R02  21280381.199     1899801.9741      -1922.294          32.474  
R18  21490757.858     -611425.1851        584.701          21.498  
R16  21647591.284      381633.4271       -776.356          24.487  
R15  22233598.600     4834530.9291      -3847.615          29.973  
R17  21729706.837     1093824.6991       -796.962          25.613  
R03  20214495.196    -2552397.6981       1862.661          26.047  
R04  23000871.828    -3558739.7441       3981.966          19.566  
J01  37848584.070     1067017.9671       -970.184          34.010  
J02  36956247.322      173773.9051       -874.848          12.564  
E013335397681.340     1688572.6671      -1696.672          28.218  
> 2018  4 30 11 57 14.9996636  0 19
G02  23395321.956    -3831788.4921        833.426          30.633  
G03  24103352.896     4728678.8701      -3549.463          14.634  
G06  21170852.324      273507.8821       -354.362          30.176  
G09  23569284.024    -1854876.2641       1557.268          19.975  
G17  21347313.163    -1005857.3491        639.240          31.003  
G19  21372881.562    -1456034.5151       1037.058          27.044  
G23  24769905.451     -379932.5621        153.317          20.513  
G28  21188667.791     2681603.7551      -2603.616          19.989  
G30  25536438.192     2032854.1491      -2187.315           7.000  
R02  21280737.652     1901723.8811      -1922.172          32.579  
R18  21490557.896     -612003.0431        579.637          21.162  
R16  21647708.803      382409.0101       -774.917          21.930  
R15  22234280.028     4838371.8791      -3845.038          29.994  
R17  21729877.119     1094616.9511       -796.878          25.634  
R03  20214147.137    -2554259.5771       1860.710          25.040  
R04  23000041.702    -3562718.5381       3982.548          20.233  
J01  37848775.638     1067988.2831       -966.763          32.576  
J02  36956413.108      174646.8661       -874.327          12.358  
E013635190460.720     1690265.9791      -1693.878          29.456  
> 2018  4 30 11 57 15.9996636  0 19
G02  23395148.975    -3832616.5181        834.727          29.057  
G03  24104011.240     4732229.1491      -3550.429          14.557  
G06  21170911.383      273861.3361       -349.668          27.436  
G09  23568972.840    -1856438.6141       1555.242          19.970  
G17  21347200.441    -1006500.2161        640.644          29.542  
G19  21372669.609    -1457067.8991       1033.872          25.044  
G23  24769892.860     -380082.1021        152.565          20.542  
G28  21189178.637     2684205.2081      -2604.385          22.162  
G30  25536853.404     2035040.8631      -2187.315           7.000  
R02  21281083.612     1903648.4711      -1925.301          32.256  
R18  21490482.648     -612577.9151        581.892          19.644  
R16  21647862.597      383178.0811       -762.224          19.992  
R15  22235000.430     4842209.1651      -3843.361          27.057  
R17  21730043.504     1095414.5611       -798.413          24.195  
R03  20213784.088    -2556119.1961       1860.114          27.168  
R04  22999288.024    -3566693.9641       3981.082          20.451  
J01  37848960.310     1068957.6611       -967.918          32.209  
J02  36956574.996      175515.0061       -871.961          12.404  
E013934983237.400     1691966.7751      -1698.347          27.134  
> 2018  4 30 11 57 16.9996636  0 19
G02  23395005.375    -3833447.9311        835.198          27.428  
G03  24104696.866     4735779.6991      -3550.012          14.483  
G06  21170987.830      274210.5351       -345.218          27.272  
G09  23568672.448    -1857998.2091       1555.217          24.393  
G17  21347093.415    -1007147.9941        640.570          29.839  
G19  21372461.253    -1458099.6161       1034.528          26.246  
G23  24769861.981     -380239.4061        149.091          20.263  
G28  21189678.691     2686812.1441      -2608.189          20.031  
G30  25537268.017     2037226.9881      -2186.339           7.000  
R02  21281448.160     1905574.4971      -1925.207          33.283  
R18  21490357.935     -613162.5881        578.489          21.875  
R16  21647992.107      383938.0841       -765.655          19.027  
R15  22235719.032     4846047.4061      -3841.244          28.204  
R17  21730115.154     1096211.0791       -801.152          24.047  
R03  20213458.514    -2557980.0241       1858.355          27.869  
R04  22998552.633    -3570673.5601       3980.997          18.568  
J01  37849134.190     1069927.5061       -969.137          33.710  
J02  36956772.859      176391.6941       -873.876          11.756  
E014234776023.070     1693664.9401      -1697.845          29.059  
> 2018  4 30 11 57 17.9996636  0 19
G02  23394805.713    -3834283.0561        836.623          24.547  
G03  24105380.992     4739328.9311      -3549.895          13.962  
G06  21171049.587      274560.8171       -344.456          26.124  
G09  23568376.552    -1859553.1131       1551.593          25.334  
G17  21346967.802    -1007787.4081        638.665          28.720  
G19  21372276.281    -1459130.9411       1038.675          27.589  
G23  24769840.696     -380389.8521        148.955          20.616  
G28  21190162.856     2689421.8551      -2608.389          22.683  
G30  25537684.429     2039413.4941      -2186.339           7.000  
R02  21281800.716     1907501.7681      -1924.225          33.638  
R18  21490188.852     -613744.6291        581.633          21.909  
R16  21648115.921      384703.6091       -777.724          20.824  
R15  22236423.245     4849890.1021      -3845.377          29.959  
R17  21730298.328     1097004.6141       -794.240          24.611  
R03  20213101.461    -2559838.2591       1858.352          27.541  
R04  22997850.819    -3574653.7131       3980.095          18.274  
J01  37849320.061     1070897.2991       -971.235          34.008  
J02  36956922.755      177266.6051       -874.253          11.543  
E014534568800.650     1695360.4531      -1701.370          26.636  
> 2018  4 30 11 57 18.9996636  0 19
G02  23394651.919    -3835115.5551        834.521          26.172  
G03  24106050.429     4742882.3151      -3551.196          13.466  
G06  21171111.944      274908.3221       -347.539          26.517  
G09  23568146.012    -1861108.8201       1552.393          22.220  
G17  21346846.086    -1008428.3031        637.583          29.027  
G19  21372066.726    -1460162.5091       1036.785          28.343  
G23  24769831.702     -380536.6671        145.102          20.329  
G28  21190653.616     2692028.1841      -2607.919          24.313  
G30  25538099.042     2041599.8271      -2186.339           7.000  
R02  21282176.056     1909431.6891      -1921.867          29.658  
R18  21490145.682     -614321.4331        581.407          23.263  
R16  21648267.616      385479.1521       -777.831          19.196  
R15  22237148.442     4853741.2751      -3845.355          29.678  
R17  21730468.010     1097793.9261       -794.714          24.806  
R03  20212732.417    -2561699.1351       1860.199          28.521  
R04  22997109.432    -3578633.7891       3979.750          18.230  
J01  37849510.129     1071866.8591       -969.760          33.633  
J02  36957096.934      178133.0331       -872.273          11.844  
E014834361583.625     1697060.6021      -1704.679          24.878  
> 2018  4 30 11 57 19.9996636  0 19
G02  23394499.925    -3835952.4031        833.709          27.784  
G03  24106733.056     4746432.0281      -3548.814          13.384  
G06  21171190.490      275253.8191       -349.326          28.428  
G09  23567839.924    -1862664.8971       1554.611          21.192  
G17  21346715.676    -1009067.1971        640.909          28.655  
G19  21371876.658    -1461191.3771       1035.626          27.900  
G23  24769847.591     -380674.2631        141.844          20.296  
G28  21191168.060     2694630.2751      -2602.583          23.125  
G30  25538514.554     2043786.3331      -2186.339           7.000  
R02  21282529.811     1911354.1301      -1928.326          30.042  
R18  21490013.473     -614899.9781        580.368          23.010  
R16  21648450.789      386258.6241       -777.037          21.603  
R15  22237933.899     4857587.4071      -3845.066          27.414  
R17  21730579.533     1098595.0461       -801.729          25.343  
R03  20212395.450    -2563555.0651       1858.362          29.583  
R04  22996346.760    -3582614.0471       3980.730          20.034  
J01  37849693.303     1072835.1251       -965.808          35.032  
J02  36957290.001      179012.3251       -872.352          10.993  
E015134154366.300     1698763.2311      -1708.912          23.924  
> 2018  4 30 11 57 20.9996636  0 19
G02  23394363.519    -3836791.4681        836.160          27.155  
G03  24107404.291     4749977.1921      -3551.501          13.583  
G06  21171218.371      275603.2941       -349.509          32.774  
G09  23567570.411    -1864222.0271       1559.970          22.082  
G17  21346610.149    -1009705.9091        642.804          26.965  
G19  21371670.101    -1462228.4071       1036.123          26.704  
G23  24769810.117     -380812.6521        146.148          19.925  
G28  21191653.723     2697237.8511      -2605.558          22.198  
G30  25538783.468     2045970.7421      -2186.339           7.000  
R02  21282880.868     1913279.8021      -1928.881          29.691  
R18  21489944.821     -615480.9141        575.146          22.125  
R16  21648591.992      387030.7661       -778.018          19.733  
R15  22238615.027     4861430.7011      -3844.789          25.952  
R17  21730772.000     1099396.8081       -803.017          25.228  
R03  20212044.393    -2565410.0921       1854.311          32.308  
R04  22995636.252    -3586595.2721       3981.127          18.358  
J01  37849877.375     1073803.8701       -967.673          34.285  
J02  36957449.190      179884.5851       -871.879          11.673  
E015433947154.670     1700465.1271      -1708.057          22.878  
> 2018  4 30 11 57 21.9996636  0 19
G02  23394193.837    -3837628.4491        833.231          28.183  
G03  24108071.629     4753526.7741      -3548.155          14.200  
G06  21171283.725      275953.2110       -350.267          41.152  
G09  23567289.205    -1865778.9311       1562.023          19.536  
G17  21346486.635    -1010344.0561        639.030          27.883  
G19  21371485.728    -1463271.8071       1036.964          27.767  
G23  24769705.190     -380958.6191        148.062          20.212  
G28  21192152.578     2699843.5751      -2609.795          22.565  
G30  25539346.478     2048156.0361      -2184.388           7.000  
R02  21283276.294     1915204.3251      -1923.019          27.861  
R18  21489849.487     -616062.7081        583.469          21.754  
R16  21648702.615      387806.9461       -777.851          23.332  
R15  22239344.122     4865278.7361      -3844.796          24.789  
R17  21730889.818     1100196.4531       -798.880          26.729  
R03  20211685.241    -2567266.3251       1857.108          31.475  
R04  22994876.278    -3590580.6531       3980.012          20.534  
J01  37850070.142     1074770.0361       -968.839          33.274  
J02  36957626.667      180757.1961       -873.055          12.187  
E015733739945.140     1702163.6731      -1715.401          20.750  
> 2018  4 30 11 57 22.9996636  0 19
G02  23394000.770    -3838464.6201        834.917          26.208  
G03  24108752.458     4757074.7001      -3548.071          13.685  
G06  21171346.082      276302.8440       -348.479          39.401  
G09  23566978.920    -1867336.1241       1561.716          20.014  
G17  21346354.726    -1010981.0091        635.661          25.973  
G19  21371280.370    -1464306.8891       1036.917          26.998  
G23  24769738.467     -381105.6621        149.180          21.053  
G28  21192648.435     2702450.0321      -2606.867          23.470  
G30  25539763.190     2050341.6031      -2185.364           7.000  
R02  21283612.961     1917133.4781      -1923.272          27.435  
R18  21489701.689     -616640.7581        579.638          24.462  
R16  21648877.094      388585.8871       -775.557          22.229  
R15  22240047.735     4869127.4191      -3844.865          25.580  
R17  21731066.096     1100991.0821       -795.024          24.913  
R03  20211354.271    -2569121.0611       1856.185          30.363  
R04  22994169.967    -3594557.3551       3980.127          21.412  
J01  37850253.315     1075735.3771       -968.033          31.753  
J02  36957785.557      181636.2591       -872.152          12.310  
E016033532729.016     1703861.0591      -1721.596          21.197  
> 2018  4 30 11 57 23.9996636  0 19
G02  23393869.161    -3839296.9231        835.227          25.765  
G03  24109424.593     4760621.2771      -3551.117          13.740  
G06  21171419.231      276652.6860       -348.768          38.554  
G09  23566628.762    -1868891.0791       1560.261          21.598  
G17  21346222.817    -1011615.0931        637.354          24.600  
G19  21371092.101    -1465340.6631       1036.579          28.677  
G23  24769724.976     -381249.1661        143.995          19.615  
G28  21193131.101     2705057.0031      -2610.183          27.588  
G30  25540180.801     2052526.3661      -2185.364           7.000  
R02  21283962.819     1919061.6921      -1930.050          27.394  
R18  21489576.076     -617225.4991        581.526          23.339  
R16  21648933.755      389355.9731       -773.115          20.766  
R15  22240811.007     4872975.0811      -3843.525          24.357  
R17  21731166.526     1101783.3661       -796.882          23.177  
R03  20211084.158    -2570972.6991       1854.373          26.360  
R04  22993380.314    -3598536.0761       3979.442          20.429  
J01  37850431.392     1076703.0611       -966.796          33.210  
J02  36957945.647      182503.8731       -873.824          12.161  
E016333325498.500     1705562.6021      -1712.697          21.024  
> 2018  4 30 11 57 24.9996636  0 19
G02  23393686.588    -3840135.2241        839.375          27.250  
G03  24110100.025     4764172.8031      -3549.060          12.885  
G06  21171485.186      277003.2291       -350.327          37.525  
G09  23566338.264    -1870449.9011       1562.324          19.312  
G17  21346117.291    -1012257.1431        638.796          24.903  
G19  21370884.644    -1466374.1931       1033.977          29.607  
G23  24769712.085     -381389.7051        145.591          17.448  
G28  21193643.146     2707668.4481      -2612.652          25.840  
G30  25540595.114     2054710.5401      -2184.388           7.000  
R02  21284316.274     1920986.1801      -1932.233          31.665  
R18  21489443.268     -617807.7741        582.640          23.924  
R16  21649164.295      390130.7611       -780.298          21.393  
R15  22241451.663     4876819.5561      -3839.819          24.783  
R17  21731330.813     1102583.3341       -803.031          26.652  
R03  20210668.945    -2572820.9971       1856.770          24.976  
R04  22992655.716    -3602527.8451       3988.642          17.577  
J01  37850618.162     1077671.2921       -967.099          33.372  
J02  36958105.736      183377.4971       -871.275          11.969  
E016633118277.875     1707268.6331      -1707.147          20.351  
> 2018  4 30 11 57 25.9996636  0 19
G02  23393545.685    -3840975.1011        836.719          26.988  
G03  24110780.254     4767722.7461      -3548.753          13.212  
G06  21171547.543      277353.1411       -350.503          38.937  
G09  23566077.744    -1872009.3231       1561.806          17.397  
G17  21345997.074    -1012899.9901        638.972          24.850  
G19  21370697.274    -1467401.8811       1032.143          28.988  
G23  24769615.252     -381542.2411        145.253          19.841  
G28  21194141.101     2710278.2731      -2611.821          26.085  
G30  25541010.626     2056895.0941      -2184.388           7.000  
R02  21284694.313     1922913.4651      -1927.782          30.313  
R18  21489374.016     -618386.9911        578.170          23.985  
R16  21649282.414      390914.6901       -779.906          20.352  
R15  22242169.067     4880665.1721      -3841.898          27.029  
R17  21731467.518     1103382.2101       -802.450          27.176  
R03  20210345.769    -2574679.7331       1854.094          22.940  
R04  22991957.199    -3606514.5781       3987.203          17.335  
J01  37850809.430     1078646.4951       -971.785          30.323  
J02  36958256.232      184252.7411       -872.201          12.301  
E016932911060.250     1708972.0501      -1721.138          19.803  
> 2018  4 30 11 57 26.9996636  0 19
G02  23393352.919    -3841807.2941        831.625          28.924  
G03  24111451.489     4771268.9061      -3549.418          14.637  
G06  21171615.596      277702.6311       -351.075          32.948  
G09  23565771.356    -1873564.5021       1561.754          20.215  
G17  21345901.740    -1013535.5391        635.654          25.802  
G19  21370509.304    -1468435.8201       1034.825          27.690  
G23  24769656.923     -381685.8981        148.560          21.052  
G28  21194619.270     2712885.7741      -2610.714          25.909  
G30  25541427.338     2059079.4761      -2184.388           7.000  
R02  21285053.764     1924845.5661      -1930.239          32.338  
R18  21489240.608     -618964.9611        580.054          23.420  
R16  21649446.700      391701.5201       -779.985          20.782  
R15  22242924.844     4884505.6151      -3841.703          28.613  
R17  21731646.494     1104177.9201       -796.408          26.799  
R03  20210044.777    -2576531.1911       1853.677          23.470  
R04  22991203.521    -3610501.9751       3983.060          16.954  
J01  37850992.303     1079615.4551       -967.845          30.096  
J02  36958409.725      185122.3881       -873.107          13.351  
E017232703855.516     1710679.0211      -1718.164          21.992  
> 2018  4 30 11 57 27.9996636  0 19
G02  23393180.238    -3842643.8371        838.697          28.434  
G03  24112133.817     4774816.6111      -3548.995          15.712  
G06  21171709.131      278058.2321       -352.735          31.965  
G09  23565500.344    -1875120.1061       1559.916          20.561  
G17  21345758.139    -1014169.9351        636.224          25.981  
G19  21370311.441    -1469471.3661       1036.909          25.259  
G23  24769562.789     -381837.9861        150.460          20.438  
G28  21195127.119     2715500.2571      -2611.107          26.171  
G30  25541844.049     2061263.2631      -2184.388           7.000  
R02  21285423.108     1926766.9931      -1927.021          31.424  
R18  21489183.048     -619550.7401        583.300          23.042  
R16  21649540.835      392487.1311       -784.226          22.063  
R15  22243608.970     4888345.7261      -3840.461          28.202  
R17  21731812.879     1104971.4531       -794.899          27.313  
R03  20209614.875    -2578387.2201       1847.890          23.335  
R04  22990392.582    -3614488.2181       3982.710          20.948  
J01  37851166.783     1080584.4011       -965.936          30.888  
J02  36958574.911      185994.7331       -874.212          13.024  
E017532496616.310     1712395.6351      -1704.439          21.352  
> 2018  4 30 11 57 28.9996636  0 19
G02  23393034.239    -3843479.6151        837.866          30.404  
G03  24112817.943     4778367.9561      -3549.693          16.740  
G06  21171775.984      278409.9451       -349.587          30.992  
G09  23565207.147    -1876680.8201       1557.976          20.023  
G17  21345640.620    -1014810.8791        638.247          24.699  
G19  21370115.977    -1470512.4761       1035.400          24.110  
G23  24769596.065     -381983.9641        150.144          20.379  
G28  21195626.273     2718117.5251      -2618.406          27.868  
G30  25542258.362     2063446.4621      -2183.412           7.000  
R02  21285783.759     1928692.8721      -1931.546          32.267  
R18  21489095.509     -620130.0941        585.895          21.237  
R16  21649748.291      393271.8021       -774.750          20.496  
R15  22244338.665     4892186.1981      -3842.142          29.436  
R17  21731952.882     1105772.0061       -800.001          25.639  
R03  20209312.384    -2580232.0741       1844.531          21.117  
R04  22989679.676    -3618473.0481       3977.415          21.081  
J01  37851355.652     1081554.0041       -969.563          35.004  
J02  36958737.099      186871.6941       -872.859          13.589  
E017832289399.880     1714120.3651      -1707.133          22.065  
> 2018  4 30 11 57 29.9996636  0 19
G02  23392876.249    -3844320.7921        836.744          29.601  
G03  24113493.676     4781913.4871      -3551.647          15.943  
G06  21171846.436      278761.9221       -350.321          29.307  
G09  23564889.367    -1878246.4951       1557.114          18.923  
G17  21345511.110    -1015447.6791        640.261          23.747  
G19  21369903.124    -1471549.1441       1034.181          25.286  
G23  24769482.144     -382130.3451        147.492          21.621  
G28  21196126.027     2720733.1341      -2619.175          29.038  
G30  25542675.074     2065630.8071      -2183.412           7.000  
R02  21286140.212     1930627.2171      -1935.708          32.387  
R18  21488983.386     -620715.5311        582.914          20.348  
R16  21649900.286      394055.4471       -777.866          20.322  
R15  22245071.957     4896026.9071      -3843.341          29.117  
R17  21732080.893     1106568.6111       -794.577          24.053  
R03  20208932.247    -2582075.5961       1846.764          20.635  
R04  22988940.688    -3622453.0911       3975.498          19.385  
J01  37851547.819     1082523.5911       -969.390          36.771  
J02  36958902.284      187739.7341       -874.285          13.287  
E018132082181.660     1715826.1171      -1706.646          21.979  
> 2018  4 30 11 57 30.9996636  0 19
G02  23392741.342    -3845158.2501        833.176          27.111  
G03  24114173.305     4785458.7881      -3551.256          15.234  
G06  21171915.988      279112.4191       -351.156          28.660  
G09  23564572.186    -1879803.1581       1557.748          16.674  
G17  21345386.696    -1016086.9191        638.236          26.402  
G19  21369711.257    -1472575.2181       1031.150          26.218  
G23  24769442.872     -382273.5511        142.458          19.542  
G28  21196619.785     2723348.9541      -2615.737          27.062  
G30  25543092.985     2067815.3981      -2184.388           7.000  
R02  21286515.252     1932558.8911      -1934.845          29.185  
R18  21488842.184     -621296.1741        580.197          22.008  
R16  21650046.884      394841.6511       -779.459          19.866  
R15  22245816.042     4899872.7651      -3845.915          27.987  
R17  21732269.163     1107365.8861       -795.120          23.824  
R03  20208678.023    -2583920.2971       1851.058          21.040  
R04  22988157.030    -3626429.4661       3976.957          18.229  
J01  37851714.503     1083493.4651       -972.555          33.285  
J02  36959083.659      188618.1461       -877.031          13.159  
E018431874961.630     1717535.4631      -1707.936          20.972  
> 2018  4 30 11 57 31.9996636  0 19
G02  23392552.473    -3845994.2361        835.989          24.785  
G03  24114861.629     4789011.4951      -3551.471          12.957  
G06  21171969.950      279462.8051       -350.201          27.091  
G09  23564254.706    -1881356.4061       1557.352          16.485  
G17  21345291.962    -1016716.2571        635.731          24.329  
G19  21369524.186    -1473604.2981       1033.086          28.226  
G23  24769480.945     -382422.7861        144.088          19.471  
G28  21197104.850     2725964.8241      -2612.072          25.346  
G30  25543510.895     2069999.9521      -2184.388           7.000  
R02  21286872.305     1934497.3781      -1933.432          31.459  
R18  21488772.033     -621878.4181        574.360          19.538  
R16  21650221.364      395624.5261       -776.919          21.341  
R15  22246533.745     4903721.8141      -3848.094          26.421  
R17  21732399.273     1108160.8381       -802.237          25.927  
R03  20208299.086    -2585771.9741       1850.378          20.958  
R04  22987395.557    -3630408.1401       3978.053          18.216  
J01  37851906.970     1084463.9001       -968.285          33.138  
J02  36959240.750      189490.4531       -874.861          13.043  
E018731667738.016     1719237.4431      -1712.610          22.979  
> 2018  4 30 11 57 32.9996636  0 19
G02  23392411.271    -3846836.4171        834.229          26.930  
G03  24115519.973     4792567.2721      -3554.287          13.411  
G06  21172055.691      279814.4581       -352.510          29.900  
G09  23563986.991    -1882914.9181       1556.064          19.487  
G17  21345169.946    -1017352.0141        635.117          25.159  
G19  21369338.315    -1474638.6041       1035.338          26.283  
G23  24769442.272     -382563.2381        143.685          24.671  
G28  21197629.786     2728572.6421      -2613.030          23.622  
G30  25543927.307     2072183.3731      -2184.388           7.000  
R02  21287233.855     1936429.8211      -1936.414          29.912  
R18  21488700.682     -622449.6081        576.747          18.028  
R16  21650275.026      396407.4811       -779.794          23.695  
R15  22247250.849     4907563.1651      -3846.115          26.498  
R17  21732545.272     1108960.1001       -801.638          23.574  
R03  20207967.815    -2587623.0571       1845.736          19.164  
R04  22986674.856    -3634393.0881       3979.637          18.335  
J01  37852092.542     1085434.3871       -968.577          34.943  
J02  36959390.946      190373.4091       -875.349          14.056  
E019031460535.680     1720887.0591      -1704.424          20.877  
> 2018  4 30 11 57 33.9996636  0 19
G02  23392245.186    -3847664.1061        833.265          25.391  
G03  24116200.202     4796126.1561      -3554.928          13.133  
G06  21172117.748      280164.8911       -346.644          29.862  
G09  23563678.505    -1884470.5461       1555.851          17.656  
G17  21345017.352    -1017982.5491        631.470          26.078  
G19  21369121.865    -1475669.6841       1031.746          29.982  
G23  24769429.681     -382706.0291        141.361          24.157  
G28  21198127.442     2731191.7301      -2616.095          22.242  
G30  25544342.819     2074366.9381      -2183.412           7.000  
R02  21287599.901     1938369.1831      -1939.129          31.616  
R18  21488528.601     -623022.5421        578.041          19.081  
R16  21650442.311      397189.8991       -784.122          25.817  
R15  22247967.053     4911408.4621      -3847.299          27.208  
R17  21732678.979     1109759.8151       -798.734          24.440  
R03  20207566.992    -2589465.8161       1845.658          21.054  
R04  22985955.954    -3638376.5041       3981.618          22.913  
J01  37852282.610     1086403.8241       -974.072          31.331  
J02  36959557.631      191246.4821       -876.970          13.815  
E019331253306.664     1722588.4171      -1698.737          21.946  
> 2018  4 30 11 57 34.9996636  0 19
G02  23392091.992    -3848497.2951        834.616          25.458  
G03  24116906.813     4799676.8231      -3552.892          12.527  
G06  21172176.507      280516.6831       -349.791          28.634  
G09  23563393.402    -1886024.7621       1556.709          16.218  
G17  21344909.427    -1018607.9741        633.585          25.531  
G19  21368946.486    -1476694.3331       1032.007          28.027  
G23  24769452.465     -382844.9001        147.100          22.964  
G28  21198612.506     2733813.1621      -2617.076          22.722  
G30  25544759.531     2076549.3831      -2183.412           7.000  
R02  21287967.747     1940312.6861      -1936.751          30.541  
R18  21488423.974     -623603.3641        577.548          19.742  
R16  21650585.611      397977.9831       -785.234          24.144  
R15  22248727.926     4915258.0851      -3850.951          24.970  
R17  21732839.069     1110560.3991       -801.493          26.305  
R03  20207219.533    -2591312.1351       1845.762          21.151  
R04  22985142.317    -3642361.8851       3981.372          21.387  
J01  37852469.681     1087374.7891       -970.534          31.411  
J02  36959713.823      192120.1791       -874.207          14.054  
E019631046089.940     1724295.1531      -1706.067          23.168  
> 2018  4 30 11 57 35.9996636  0 19
G02  23391940.596    -3849327.9501        832.316          25.236  
G03  24117584.644     4803233.4591      -3554.845          12.663  
G06  21172252.355      280868.7351       -355.099          30.311  
G09  23563091.211    -1887577.4701       1554.731          14.296  
G17  21344795.206    -1019243.6521        636.411          24.861  
G19  21368733.933    -1477725.2621       1031.131          32.527  
G23  24769376.917     -382982.6041        145.125          22.001  
G28  21199129.948     2736427.7931      -2616.746          22.406  
G30  25545174.744     2078731.2051      -2182.437           7.000  
R02  21288324.500     1942250.9471      -1936.527          31.048  
R18  21488308.254     -624176.9161        578.584          21.142  
R16  21650749.598      398759.0951       -788.844          23.985  
R15  22249406.956     4919103.6711      -3851.719          24.540  
R17  21733082.800     1111365.3371       -801.709          23.580  
R03  20206905.950    -2593161.2151       1845.043          19.741  
R04  22984444.400    -3646346.6671       3980.612          21.730  
J01  37852645.958     1088344.9611       -967.596          33.348  
J02  36959884.404      192996.6831       -874.484          14.417  
E019930838881.610     1725998.4521      -1711.355          22.672  
> 2018  4 30 11 57 36.9996636  0 19
G02  23391769.715    -3850158.3901        830.623          23.072  
G03  24118248.984     4806787.3861      -3556.423          13.701  
G06  21172325.204      281223.8401       -355.838          28.299  
G09  23562784.824    -1889126.1981       1551.671          15.582  
G17  21344674.989    -1019874.8641        634.167          25.421  
G19  21368547.462    -1478758.2461       1033.093          30.725  
G23  24769345.439     -383122.0161        140.806          23.286  
G28  21199606.618     2739042.7721      -2618.737          20.834  
G30  25545591.455     2080912.4521      -2181.461           7.000  
R02  21288690.546     1944185.2111      -1940.244          31.588  
R18  21488206.924     -624752.8761        580.159          20.410  
R16  21650908.188      399549.6701       -787.302          22.692  
R15  22250145.645     4922960.7721      -3851.371          24.658  
R17  21733126.570     1112170.0401       -799.822          22.555  
R03  20206612.453    -2595003.7801       1844.718          17.953  
R04  22983700.915    -3650325.3051       3981.246          19.093  
J01  37852834.228     1089314.8461       -967.821          34.575  
J02  36960060.083      193870.7021       -875.051          14.042  
E010230631642.400     1727713.4601      -1713.870          21.922  
> 2018  4 30 11 57 37.9996636  0 19
G02  23391602.730    -3850996.5741        836.571          23.165  
G03  24118924.716     4810340.9081      -3553.137          13.053  
G06  21172379.167      281579.8271       -351.421          29.319  
G09  23562484.431    -1890677.6931       1552.742          15.122  
G17  21344535.885    -1020503.6491        631.060          23.903  
G19  21368344.803    -1479797.7801       1036.730          29.669  
G23  24769287.579     -383266.6771        141.710          24.947  
G28  21200109.370     2741657.5961      -2613.020          20.961  
G30  25546006.967     2083094.0791      -2181.461           7.000  
R02  21289058.691     1946127.3361      -1940.986          33.714  
R18  21488094.202     -625330.3281        581.317          20.830  
R16  21651056.286      400336.0551       -783.784          22.552  
R15  22250908.317     4926811.7721      -3848.346          24.519  
R17  21733329.829     1112964.5921       -799.150          22.975  
R03  20206165.163    -2596842.6931       1845.242          20.505  
R04  22982911.262    -3654299.9141       3982.324          20.765  
J01  37853019.800     1090284.9471       -970.348          34.634  
J02  36960213.876      194746.2781       -873.780          13.546  
E010530424442.164     1729419.2041      -1715.791          22.125  
> 2018  4 30 11 57 38.9996636  0 19
G02  23391452.534    -3851833.1211        840.015          24.810  
G03  24119595.651     4813896.2021      -3553.485          13.234  
G06  21172441.224      281931.1341       -348.301          28.810  
G09  23562196.031    -1892236.9911       1554.308          14.908  
G17  21344422.564    -1021130.1951        636.623          23.366  
G19  21368157.732    -1480827.9791       1031.662          28.423  
G23  24769269.292     -383409.9931        143.705          27.303  
G28  21200621.115     2744267.9191      -2616.571          22.868  
G30  25546423.679     2085275.5351      -2181.461           7.000  
R02  21289439.728     1948069.6441      -1936.923          30.338  
R18  21488020.753     -625913.6841        587.125          19.520  
R16  21651161.813      401127.1281       -787.563          23.984  
R15  22251623.921     4930661.5801      -3850.883          23.533  
R17  21733456.941     1113753.0061       -793.792          23.559  
R03  20205877.962    -2598689.7721       1845.610          21.683  
R04  22982141.395    -3658273.4461       3980.935          19.534  
J01  37853207.470     1091253.5401       -972.608          32.303  
J02  36960380.861      195622.3161       -873.504          14.071  
E010830217215.240     1731130.7291      -1715.105          22.941  
> 2018  4 30 11 57 39.9996636  0 19
G02  23391299.340    -3852675.1101        835.467          24.001  
G03  24120272.283     4817452.9431      -3553.631          12.925  
G06  21172524.566      282276.6341       -354.661          28.637  
G09  23561874.354    -1893791.0371       1554.757          14.628  
G17  21344290.655    -1021771.6361        637.086          23.817  
G19  21367952.075    -1481857.0461       1028.569          28.908  
G23  24769226.122     -383548.1701        139.562          25.211  
G28  21201068.706     2746885.6631      -2617.114          22.375  
G30  25546839.191     2087457.1621      -2181.461           7.000  
R02  21289778.793     1950002.7941      -1943.619          31.847  
R18  21487861.563     -626497.7521        576.087          24.184  
R16  21651377.663      401921.2031       -793.893          21.509  
R15  22252326.635     4934510.9661      -3855.202          22.806  
R17  21733612.533     1114542.5201       -799.517          23.182  
R03  20205501.123    -2600536.7021       1842.619          21.401  
R04  22981402.706    -3662252.2761       3980.725          20.920  
J01  37853393.641     1092220.9181       -970.579          33.600  
J02  36960527.159      196498.3941       -873.848          15.426  
E011130010000.016     1732837.9961      -1714.053          22.734  
> 2018  4 30 11 57 40.9996636  0 19
G02  23391115.867    -3853514.1481        834.018          25.461  
G03  24120957.609     4821008.8221      -3555.921          12.452  
G06  21172599.514      282631.2631       -356.478          29.009  
G09  23561556.874    -1895333.8751       1552.119          14.001  
G17  21344202.216    -1022400.5951        632.128          23.155  
G19  21367756.910    -1482889.2051       1030.574          27.755  
G23  24769263.596     -383685.6811        140.367          24.903  
G28  21201596.040     2749503.1701      -2614.584          23.455  
G30  25547253.504     2089637.6561      -2181.461           7.000  
R02  21290149.336     1951944.5051      -1941.035          30.083  
R18  21487764.130     -627075.6861        575.902          28.936  
R16  21651462.504      402715.9201       -791.936          22.704  
R15  22253008.063     4938363.0971      -3852.808          21.218  
R17  21733757.333     1115344.4741       -801.730          23.474  
R03  20205168.053    -2602378.7381       1843.399          19.872  
R04  22980655.323    -3666231.8261       3981.320          22.229  
J01  37853578.913     1093189.2171       -970.824          33.350  
J02  36960682.152      197370.8651       -875.526          17.914  
E011429802781.490     1734546.3231      -1702.738          23.724  
> 2018  4 30 11 57 41.9996636  0 19
G02  23390980.961    -3854350.7471        832.139          23.953  
G03  24121616.253     4824561.0201      -3554.780          12.894  
G06  21172650.179      282983.8301       -353.521          29.406  
G09  23561289.459    -1896882.2621       1555.016          14.400  
G17  21344098.488    -1023026.7881        629.919          24.668  
G19  21367547.954    -1483919.7761       1030.242          33.701  
G23  24769190.146     -383824.3641        143.315          23.477  
G28  21202100.291     2752115.5491      -2619.168          24.205  
G30  25547666.618     2091818.2941      -2180.486           7.000  
R02  21290522.278     1953888.5101      -1943.130          29.919  
R18  21487657.704     -627655.3651        578.472          28.473  
R16  21651631.887      403513.6841       -790.600          22.158  
R15  22253788.423     4942209.5881      -3849.938          21.724  
R17  21733883.246     1116151.8871       -799.029          24.179  
R03  20204868.261    -2604222.5571       1842.529          19.792  
R04  22979938.220    -3670216.2311       3980.865          24.566  
J01  37853768.082     1094160.3021       -970.582          33.206  
J021726187487.530      198247.1741       -873.574          20.743  
E011729595559.375     1736254.6901      -1702.046          24.486  
> 2018  4 30 11 57 42.9996636  0 19
G02  23390821.471    -3855181.8541        830.991          23.832  
G03  24122290.786     4828116.1311      -3554.588          13.534  
G06  21172723.029      283339.8071       -353.834          28.473  
G09  23561008.253    -1898440.2091       1554.481          14.987  
G17  21343948.592    -1023651.4201        631.538          28.511  
G19  21367354.588    -1484948.9511       1031.189          31.763  
G23  24769174.257     -383965.2301        144.784          27.208  
G28  21202566.768     2754736.3011      -2617.301          25.177  
G30  25548082.131     2093997.8121      -2180.486           7.000  
R02  21290896.119     1955832.4861      -1945.131          28.266  
R18  21487534.489     -628234.0571        578.013          26.526  
R16  21651785.381      404306.8421       -786.151          19.944  
R15  22254501.929     4946057.5331      -3849.306          22.670  
R17  21734032.243     1116952.4011       -799.989          24.168  
R03  20204502.214    -2606067.4911       1841.121          18.963  
R04  22979208.225    -3674200.8841       3981.063          26.162  
J01  37853943.460     1095131.3521       -971.711          34.774  
J022025980131.410      199121.2571       -872.716          20.657  
E012029388338.750     1737960.9991      -1710.676          25.493  
> 2018  4 30 11 57 43.9996636  0 19
G02  23390621.210    -3856015.3611        835.409          21.461  
G03  24122969.216     4831674.8131      -3555.837          13.355  
G06  21172796.478      283694.0261       -355.625          27.768  
G09  23560714.457    -1899989.4291       1554.187          15.205  
G17  21343800.794    -1024289.2361        634.461          25.107  
G19  21367164.220    -1485977.9011       1029.537          29.395  
G23  24769210.532     -384107.9781        148.836          25.896  
G28  21203070.420     2757351.9621      -2618.456          27.901  
G30  25548493.446     2096179.0081      -2179.510           7.000  
R02  21291247.776     1957779.3631      -1944.173          29.173  
R18  21487457.443     -628811.3371        577.189          28.553  
R16  21651937.975      405098.6291       -795.188          22.659  
R15  22255163.271     4949903.9931      -3848.189          22.395  
R17  21734164.451     1117757.5151       -799.256          25.588  
R03  20204143.063    -2607905.8721       1840.527          19.912  
R04  22978467.738    -3678182.0041       3983.632          24.884  
J01  37854130.831     1096102.1611       -969.853          33.916  
J022325772746.195      199994.5881       -870.296          21.972  
E012329181122.625     1739670.0901      -1708.174          26.592  
> 2018  4 30 11 57 44.9996636  0 19
G02  23390508.488    -3856847.0081        833.311          21.860  
G03  24123652.143     4835231.1351      -3558.047          13.007  
G06  21172851.940      284051.0671       -354.852          29.909  
G09  23560416.463    -1901543.9681       1550.651          14.800  
G17  21343744.133    -1024920.9571        633.641          23.260  
G19  21366975.950    -1487008.0421       1028.765          27.901  
G23  24769173.658     -384255.2971        144.681          28.837  
G28  21203563.878     2759970.8020      -2617.668          31.024  
G30  25548903.862     2098357.9951      -2181.461           7.000  
R02  21291617.120     1959725.5041      -1945.456          29.629  
R18  21487321.037     -629390.7601        576.401          27.617  
R16  21652045.301      405898.7361       -798.192          22.560  
R15  22255909.754     4953751.6281      -3852.526          20.519  
R17  21734318.245     1118560.5611       -799.784          25.947  
R03  20203853.463    -2609744.9761       1839.678          21.275  
R04  22977684.980    -3682165.2891       3983.127          27.330  
J01  37854316.102     1097073.8511       -971.377          34.391  
J022625565392.460      200866.1311       -868.622          21.816  
E012628973909.195     1741378.4591      -1709.660          24.813  
> 2018  4 30 11 57 45.9996636  0 19
G02  23390357.093    -3857679.5221        831.261          22.083  
G03  24124341.666     4838787.7171      -3556.098          12.997  
G06  21172928.986      284408.9761       -354.066          30.065  
G09  23560112.773    -1903095.1311       1554.753          14.548  
G17  21343599.034    -1025556.1141        631.799          24.978  
G19  21366774.790    -1488039.2691       1031.952          27.513  
G23  24769118.496     -384401.4711        142.170          28.543  
G28  21204057.636     2762590.2351      -2620.991          31.394  
G30  25549315.777     2100536.6551      -2178.534           7.000  
R02  21291996.957     1961667.1961      -1943.871          29.854  
R18  21487238.894     -629966.1211        574.750          27.633  
R16  21652243.164      406698.8991       -798.400          22.294  
R15  22256688.915     4957609.8131      -3852.102          21.025  
R17  21734497.520     1119358.6871       -800.221          26.954  
R03  20203469.429    -2611581.8211       1837.212          21.201  
R04  22976952.587    -3686149.6771       3979.931          27.516  
J01  37854496.577     1098045.4521       -968.403          33.298  
J022925357956.890      201737.4341       -875.148          20.938  
E012928766682.580     1743084.8751      -1713.198          25.998  
> 2018  4 30 11 57 46.9996636  0 19
G02  23390185.312    -3858506.6141        829.331          22.988  
G03  24125029.090     4842345.9121      -3557.297          13.771  
G06  21172996.140      284764.9031       -356.810          32.017  
G09  23559797.991    -1904649.1871       1553.315          14.757  
G17  21343463.528    -1026188.4811        631.997          24.788  
G19  21366589.218    -1489073.1571       1031.216          29.207  
G23  24769096.311     -384544.0921        143.074          27.187  
G28  21204553.193     2765210.0110      -2619.612          37.879  
G30  25549727.692     2102714.2221      -2178.534           7.000  
R02  21292367.800     1963615.9401      -1944.659          27.111  
R18  21487106.086     -630542.7181        577.619          27.814  
R16  21652362.182      407497.8881       -794.466          22.270  
R15  22257399.723     4961463.8441      -3851.177          20.023  
R17  21734624.033     1120166.5381       -803.578          24.861  
R03  20203143.555    -2613424.1701       1843.106          21.220  
R04  22976215.697    -3690135.6011       3979.576          25.875  
J01  37854677.352     1099017.2741       -971.054          34.686  
J023225150597.164      202609.6801       -870.074          23.619  
E013228559470.050     1744791.6841      -1711.139          25.568  
> 2018  4 30 11 57 47.9996636  0 19
G02  23390026.721    -3859336.9521        837.042          21.483  
G03  24125685.935     4845900.7121      -3554.684          14.718  
G06  21173074.685      285121.8741       -359.461          28.492  
G09  23559497.299    -1906201.0881       1554.506          14.070  
G17  21343347.208    -1026818.7101        632.866          25.553  
G19  21366395.552    -1490104.7891       1030.636          28.597  
G23  24769083.720     -384685.4201        143.260          27.524  
G28  21205052.348     2767830.3640      -2618.056          34.847  
G30  25550138.707     2104891.9331      -2177.559           7.000  
R02  21292687.679     1965565.9041      -1945.531          27.691  
R18  21486990.966     -631120.2111        578.363          34.013  
R16  21652517.774      408295.9551       -799.475          23.685  
R15  22258029.887     4965310.6041      -3854.363          22.039  
R17  21734783.522     1120972.8331       -798.512          24.695  
R03  20202758.921    -2615263.6781       1842.029          19.938  
R04  22975520.478    -3694113.1891       3978.004          24.259  
J01  37854865.322     1099990.0901       -971.701          33.827  
J023524943240.130      203480.6031       -869.771          23.970  
E013528352247.625     1746501.1311      -1712.637          25.909  
> 2018  4 30 11 57 48.9996636  0 19
G02  23389856.739    -3860176.7341        835.919          23.230  
G03  24126366.464     4849456.2281      -3555.712          14.473  
G06  21173130.147      285483.3381       -354.906          26.955  
G09  23559208.000    -1907750.5001       1555.900          13.744  
G17  21343236.285    -1027446.7601        629.528          25.811  
G19  21366178.203    -1491127.9861       1029.046          30.098  
G23  24769056.439     -384826.5901        145.161          28.097  
G28  21205553.301     2770451.4161      -2622.116          39.179  
G30  25550549.722     2107069.4861      -2177.559           7.000  
R02  21293072.912     1967516.3731      -1949.090          25.913  
R18  21486906.124     -631697.4370        577.015          31.742  
R16  21652680.261      409097.0961       -803.584          28.393  
R15  22258827.334     4969166.3381      -3856.457          22.997  
R17  21734948.408     1121772.0351       -795.740          26.247  
R03  20202387.778    -2617101.7431       1834.860          19.346  
R04  22974718.533    -3698092.1991       3981.629          25.843  
J01  37855044.298     1100963.8621       -974.106          32.926  
J023824735873.810      204346.3621       -874.106          22.717  
E013828145025.210     1748209.7841      -1710.354          28.955  
> 2018  4 30 11 57 49.9996636  0 19
G02  23389692.453    -3861010.4221        832.262          23.079  
G03  24127062.282     4853013.7811      -3555.332          14.306  
G06  21173191.904      285840.4671       -355.052          29.557  
G09  23558945.981    -1909311.0821       1555.073          14.058  
G17  21343115.469    -1028077.7591        628.827          24.768  
G19  21365991.132    -1492153.6001       1026.721          30.767  
G23  24769032.456     -384971.1911        141.602          28.086  
G28  21206047.958     2773072.8871      -2620.641          38.929  
G30  25550964.036     2109247.2111      -2177.559           7.000  
R02  21293453.349     1969465.2911      -1945.743          26.327  
R18  21486780.212     -632273.8911        576.938          29.933  
R16  21652882.321      409896.7601       -804.534          25.964  
R15  22259500.668     4973024.6111      -3853.106          21.740  
R17  21735110.896     1122567.8691       -794.513          23.232  
R03  20202108.671    -2618933.7181       1834.845          20.288  
R04  22974000.231    -3702082.3421       3984.508          26.349  
J01  37855239.763     1101935.9341       -972.561          35.986  
J024124528493.700      205220.2241       -872.844          21.238  
E014127937812.680     1749918.1061      -1711.255          28.849  
> 2018  4 30 11 57 50.9996636  0 19
G02  23389526.368    -3861841.1631        831.391          25.563  
G03  24127751.805     4856570.2241      -3554.426          14.250  
G06  21173262.955      286196.8601       -355.775          32.340  
G09  23558650.386    -1910857.9111       1555.178          14.372  
G17  21342995.252    -1028711.3891        635.081          23.419  
G19  21365807.659    -1493182.7401       1027.752          30.138  
G23  24768971.898     -385115.9051        140.901          27.745  
G28  21206546.513     2775695.0141      -2623.455          39.205  
G30  25551377.449     2111425.7261      -2177.559           7.000  
R02  21293814.599     1971412.9611      -1944.973          26.889  
R18  21486733.444     -632850.7061        577.867          26.659  
R16  21652977.356      410700.8721       -800.686          23.522  
R15  22260272.934     4976886.3231      -3857.138          21.955  
R17  21735242.505     1123365.6051       -797.719          24.402  
R03  20201752.818    -2620772.0231       1833.870          20.724  
R04  22973234.860    -3706064.5071       3983.689          25.850  
J01  37855421.137     1102907.9731       -967.311          32.944  
J024424321125.280      206092.8021       -871.560          20.130  
E014427730589.060     1751628.0031      -1707.480          30.211  
> 2018  4 30 11 57 51.9996636  0 19
G02  23389390.862    -3862671.0131        837.171          24.395  
G03  24128461.114     4860126.0051      -3557.173          13.742  
G06  21173325.012      286550.0491       -356.343          29.902  
G09  23558352.692    -1912415.2021       1552.782          14.111  
G17  21342860.345    -1029344.0171        632.750          25.541  
G19  21365615.792    -1494208.7611       1029.183          27.761  
G23  24768985.388     -385254.5681        142.791          30.053  
G28  21207051.664     2778317.2391      -2623.785          36.494  
G30  25551788.165     2113602.9061      -2178.534           7.000  
R02  21294154.564     1973363.1201      -1950.633          28.688  
R18  21486571.256     -633430.1431        580.250          28.366  
R16  21653083.482      411495.2351       -800.372          21.229  
R15  22260993.935     4980741.5781      -3857.660          19.050  
R17  21735377.112     1124168.0281       -801.015          22.581  
R03  20201388.270    -2622608.0701       1835.218          20.103  
R04  22972479.084    -3710040.9691       3979.030          26.774  
J01  37855603.711     1103872.7031       -969.751          30.721  
J024724113727.180      206966.0671       -872.162          20.525  
E014727523379.830     1753338.1041      -1710.401          30.045  
> 2018  4 30 11 57 52.9996636  0 19
G02  23389222.378    -3863503.7391        831.388          25.663  
G03  24129139.844     4863685.7941      -3556.178          13.430  
G06  21173403.558      286906.2551       -357.996          28.075  
G09  23558057.096    -1913967.0631       1554.364          14.268  
G17  21342768.909    -1029977.3881        627.745          24.293  
G19  21365403.239    -1495232.3271       1027.573          31.117  
G23  24768937.122     -385401.5691        140.510          29.544  
G28  21207548.420     2780940.3481      -2623.315          37.094  
G30  25552198.581     2115777.1431      -2176.583           7.000  
R02  21294532.602     1975311.4481      -1953.965          29.844  
R18  21486481.918     -634008.6361        578.633          27.205  
R16  21653287.941      412303.3821       -802.061          24.029  
R15  22261651.080     4984593.7521      -3857.705          18.730  
R17  21735664.613     1124972.0731       -794.196          20.926  
R03  20201106.765    -2624443.3241       1834.741          20.040  
R04  22971763.179    -3714023.6581       3980.104          26.646  
J01  37855790.781     1104844.1971       -973.256          28.364  
J025023906368.950      207844.3111       -872.099          19.988  
E015027316170.600     1755054.9531      -1714.264          27.383  
> 2018  4 30 11 57 53.9996636  0 19
G02  23389023.916    -3864327.1911        828.845          25.039  
G03  24129812.878     4867243.8721      -3557.638          13.722  
G06  21173448.527      287265.5661       -357.236          27.911  
G09  23557746.212    -1915516.7141       1555.782          14.347  
G17  21342643.895    -1030609.0051        627.138          24.040  
G19  21365211.372    -1496253.2371       1030.015          31.015  
G23  24768929.627     -385546.4241        146.037          35.418  
G28  21208055.669     2783564.1451      -2623.624          34.206  
G30  25552610.496     2117950.3801      -2174.632           7.000  
R02  21294903.745     1977266.0721      -1953.031          34.487  
R18  21486382.987     -634585.5721        576.060          25.770  
R16  21653431.541      413101.8401       -802.072          22.968  
R15  22262428.142     4988447.2171      -3857.585          20.396  
R17  21735693.992     1125770.9131       -797.837          24.245  
R03  20200655.877    -2626280.0231       1832.813          20.130  
R04  22970984.618    -3718005.1301       3981.319          27.707  
J01  37855987.445     1105817.4901       -971.534          31.357  
J025323699011.930      208723.2011       -872.405          19.792  
E015327108950.270     1756770.4611      -1715.454          26.793  
> 2018  4 30 11 57 54.9996636  0 19
G02  23388895.605    -3865160.5211        829.324          24.950  
G03  24130469.723     4870804.9561      -3559.483          13.660  
G06  21173534.267      287623.5711       -358.538          27.128  
G09  23557446.719    -1917073.1081       1553.744          14.761  
G17  21342526.077    -1031241.1411        633.385          23.610  
G19  21365013.509    -1497285.4911       1030.507          33.655  
G23  24768895.750     -385690.8670        145.040          36.776  
G28  21208560.219     2786192.0971      -2627.957          31.632  
G30  25553022.111     2120120.7131      -2172.681           7.000  
R02  21295267.993     1979221.7071      -1957.024          36.101  
R18  21486278.659     -635159.8441        576.299          25.396  
R16  21653540.666      413908.6241       -802.020          23.746  
R15  22263105.972     4992298.2581      -3858.084          18.749  
R17  21735830.098     1126575.1061       -802.724          28.120  
R03  20200374.672    -2628119.9161       1831.432          22.379  
R04  22970228.542    -3721989.2381       3984.466          30.353  
J01  37856167.920     1106788.3451       -969.880          32.490  
J025623491583.850      209593.3181       -873.895          22.112  
E015626901754.234     1758480.7551      -1713.488          25.160  
> 2018  4 30 11 57 55.9996636  0 19
G02  23388755.601    -3865997.1801        830.325          29.513  
G03  24131149.953     4874364.5611      -3558.189          13.793  
G06  21173587.031      287978.5241       -359.423          29.626  
G09  23557138.832    -1918627.6421       1554.320          14.500  
G17  21342390.870    -1031873.9411        633.458          25.223  
G19  21364818.644    -1498313.8071       1028.394          32.676  
G23  24768865.771     -385835.2831        143.276          35.358  
G28  21209065.370     2788814.9781      -2627.659          29.437  
G30  25553434.326     2122292.3491      -2170.730           7.000  
R02  21295628.043     1981178.8650      -1958.446          35.110  
R18  21486157.842     -635730.0111        579.056          23.121  
R16  21653748.122      414713.4931       -802.254          24.136  
R15  22263873.141     4996150.4271      -3856.049          21.065  
R17  21736042.051     1127378.8881       -799.406          26.997  
R03  20200016.420    -2629955.7721       1832.613          24.585  
R04  22969471.266    -3725973.5460       3983.927          35.150  
J01  37856334.005     1107761.3101       -971.220          31.777  
J025923284225.320      210465.6751       -871.659          26.302  
E015926694522.520     1760190.4041      -1713.669          27.109  
> 2018  4 30 11 57 56.9996636  0 19
G02  23388612.301    -3866821.7981        821.558          35.919  
G03  24131855.364     4877926.8761      -3559.046          19.728  
G06  21173668.874      288331.8481       -355.770          28.493  
G09  23556839.040    -1920179.8791       1555.800          16.299  
G17  21342291.939    -1032503.6401        631.059          25.253  
G19  21364625.278    -1499340.0611       1025.523          30.680  
G23  24768844.486     -385975.0051        136.697          33.249  
G28  21209562.725     2791434.4821      -2624.986          31.163  
G30  25553848.938     2124464.2571      -2171.705           7.000  
R02  21296006.082     1983135.3221      -1952.534          33.425  
R18  21486029.231     -636306.0661        579.549          22.701  
R16  21653850.052      415511.0971       -804.049          24.326  
R15  22264635.813     5000005.6161      -3855.582          19.881  
R17  21736140.383     1128171.2881       -798.411          28.101  
R03  20199677.954    -2631785.2001       1832.018          25.169  
R04  22968744.269    -3729956.7230       3983.028          34.689  
J01  37856534.267     1108733.6691       -974.220          29.118  
J026223076835.620      211340.3491       -873.705          25.826  
E016226487325.880     1761905.3851      -1715.603          26.762  
> 2018  4 30 11 57 57.9996636  0 19
G02  23388467.501    -3867645.8281        825.245          35.308  
G03  24132565.273     4881486.4911      -3557.257          17.668  
G06  21173733.629      288685.5501       -353.264          26.943  
G09  23556551.539    -1921732.6611       1559.937          18.583  
G17  21342145.040    -1033132.2051        626.580          23.633  
G19  21364422.918    -1500366.6211       1027.461          30.100  
G23  24768823.201     -386106.3661        137.058          31.764  
G28  21210048.989     2794051.5211      -2626.919          29.197  
G30  25554261.753     2126634.5941      -2171.705           7.000  
R02  21296368.531     1985094.0641      -1957.681          34.109  
R18  21485912.312     -636882.8941        578.541          21.541  
R16  21654022.132      416311.7791       -806.571          24.509  
R15  22265272.573     5003867.2861      -3853.893          20.238  
R17  21736323.257     1128968.6691       -799.477          27.516  
R03  20199352.379    -2633616.3561       1830.084          25.808  
R04  22968017.572    -3733939.7771       3979.169          31.611  
J01  37856739.625     1109702.1471       -971.543          26.743  
J026522869465.400      212211.6171       -872.192          29.747  
E016526280102.266     1763623.4911      -1715.384          25.980  
> 2018  4 30 11 57 58.9996636  0 19
G02  23388295.120    -3868471.5491        828.358          33.410  
G03  24133269.485     4885039.1211      -3558.787          16.194  
G06  21173786.992      289040.4491       -354.243          25.384  
G09  23556262.839    -1923288.1261       1553.055          15.955  
G17  21342048.207    -1033760.5751        629.084          22.322  
G19  21364264.627    -1501392.8431       1029.038          27.313  
G23  24768783.928     -386240.6021        141.255          31.523  
G28  21210552.640     2796676.4421      -2628.080          31.691  
G30  25554675.466     2128805.8491      -2169.754           7.000  
R02  21296753.165     1987058.3181      -1961.676          30.639  
R18  21485834.366     -637458.9101        578.676          22.754  
R16  21654123.762      417112.5201       -805.367          23.439  
R15  22266016.957     5007719.7251      -3847.624          19.005  
R17  21736505.231     1129763.5901       -795.235          25.540  
R03  20198996.226    -2635454.2441       1831.222          25.733  
R04  22967286.678    -3737922.3421       3979.361          29.032  
J01  37856914.404     1110670.4341       -965.732          23.790  
J026822662081.690      213084.2390       -874.603          28.234  
E016826072864.555     1765343.7061      -1713.144          26.827  
> 2018  4 30 11 57 59.9996636  0 19
G02  23388121.840    -3869300.3901        821.293          31.650  
G03  24133887.657     4888597.8951      -3559.309          17.463  
G06  21173849.649      289403.1641       -360.098          29.051  
G09  23556006.816    -1924847.7921       1555.849          18.545  
G17  21341927.691    -1034385.4591        630.340          23.808  
G19  21364035.886    -1502419.9331       1028.340          25.775  
G23  24768760.544     -386389.0151        142.365          30.142  
G28  21211048.197     2799303.7981      -2627.029          35.036  
G30  25555086.182     2130976.9811      -2171.705           7.000  
R02  21297114.714     1989015.2071      -1960.889          27.378  
R18  21485746.827     -638038.2771        577.265          19.962  
R16  21654320.426      417913.1471       -804.442          23.048  
R15  22266755.646     5011569.1741      -3849.620          17.434  
R17  21736691.701     1130560.0681       -795.553          25.754  
R03  20198679.645    -2637289.2141       1831.152          24.665  
R04  22966567.476    -3741906.8761       3981.043          25.920  
J01  37857099.975     1111628.6801       -964.614          21.492  
J027122454706.970      213956.1221       -873.712          29.622  
E017125865650.820     1767064.7541      -1719.007          25.211  
> 2018  4 30 11 58  0.9996636  0 19
G02  23387940.166    -3870119.3921        823.830          28.563  
G03  24134561.591     4892151.4921      -3559.510          16.465  
G06  21173918.301      289759.5141       -357.985          30.319  
G09  23555687.537    -1926407.5831       1555.698          20.554  
G17  21341803.277    -1035007.2751        629.974          25.303  
G19  21363864.404    -1503455.1631       1026.845          24.311  
G23  24768724.269     -386526.3311        137.353          26.741  
G28  21211550.349     2801930.2381      -2629.079          34.921  
G30  25555500.495     2133147.4961      -2170.730           7.000  
R02  21297523.331     1990969.3401      -1947.912          25.181  
R18  21485692.864     -638622.2011        578.412          18.506  
R16  21654438.244      418721.2411       -805.669          21.990  
R15  22267437.674     5015418.4611      -3850.053          16.925  
R17  21736743.266     1131353.0891       -795.941          24.242  
R03  20198293.213    -2639120.5661       1824.517          27.333  
R04  22965767.630    -3745896.6321       3981.805          24.626  
J01  37857299.337     1112595.7431       -973.119          21.001  
J027422247340.950      214827.4300       -871.064          31.887  
E017425658430.805     1768780.6461      -1713.754          30.609  
> 2018  4 30 11 58  1.9996636  0 19
G02  23387775.880    -3870942.0651        829.499          25.694  
G03  24135204.046     4895703.3141      -3554.758          18.833  
G06  21174010.338      290113.9041       -358.279          27.495  
G09  23555394.340    -1927965.0921       1558.168          20.577  
G17  21341690.855    -1035634.3631        631.088          25.089  
G19  21363655.449    -1504485.3411       1023.824          23.410  
G23  24768710.778     -386660.5561        140.145          29.066  
G28  21212056.399     2804561.4051      -2627.493          32.469  
G30  25555913.609     2135318.3921      -2170.730           7.000  
R02  21297870.191     1992925.7451      -1956.653          26.288  
R18  21485570.549     -639201.7031        578.949          17.645  
R16  21654577.048      419527.1871       -803.772          22.539  
R15  22268136.790     5019269.7511      -3849.460          17.102  
R17  21736951.921     1132151.7831       -794.874          25.095  
R03  20197949.950    -2640946.2540       1825.486          36.362  
R04  22965120.078    -3749882.4391       3977.180          23.044  
J01  37857454.929     1113572.5031       -974.354          25.412  
J02  36964142.057      215699.0820       -870.760          37.582  
E017725451207.780     1770492.3581      -1713.426          32.667  
> 2018  4 30 11 58  2.9996636  0 19
G02  23387625.084    -3871774.2511        828.065          23.979  
G03  24135888.172     4899257.8361      -3553.967          18.206  
G06  21174069.697      290474.5221       -360.179          27.133  
G09  23555074.761    -1929525.8101       1558.070          20.619  
G17  21341583.529    -1036264.4321        630.771          24.430  
G19  21363447.393    -1505514.9261       1027.121          24.110  
G23  24768674.503     -386802.1551        142.810          29.414  
G28  21212548.358     2807190.6011      -2629.567          37.130  
G30  25556323.126     2137487.1921      -2170.730           7.000  
R02  21298235.638     1994885.8711      -1955.683          25.357  
R18  21485429.047     -639784.3411        581.114          19.049  
R16  21654763.819      420339.5501       -807.464          21.882  
R15  22268874.279     5023120.2831      -3849.582          16.010  
R17  21737089.226     1132944.8001       -798.408          23.922  
R03  20197599.493    -2642771.7501       1827.310          34.002  
R04  22964273.764    -3753861.7321       3978.799          25.064  
J01  37857642.599     1114547.6361       -970.960          33.848  
J02  36964314.737      216570.2280       -870.954          36.445  
E018025243997.950     1772207.4401      -1716.193          34.251  
> 2018  4 30 11 58  3.9996636  0 19
G02  23387494.075    -3872599.0171        825.841          21.898  
G03  24136567.802     4902818.0361      -3555.263          15.166  
G06  21174135.051      290831.6191       -360.160          24.389  
G09  23554760.878    -1931088.4141       1557.585          21.531  
G17  21341472.906    -1036899.7951        633.714          22.080  
G19  21363275.012    -1506553.3231       1032.910          25.322  
G23  24768654.118     -386941.8071        138.754          28.432  
G28  21213044.515     2809819.7421      -2630.383          40.388  
G30  25556735.040     2139655.3421      -2168.778           7.000  
R02  21298633.763     1996850.2891      -1957.354          24.932  
R18  21485308.231     -640369.5001        581.451          17.687  
R16  21654862.451      421151.5261       -805.887          27.978  
R15  22269639.949     5026964.9931      -3851.924          14.522  
R17  21737205.246     1133737.2241       -795.616          24.957  
R03  20197277.216    -2644596.7061       1820.961          34.166  
R04  22963589.038    -3757842.9541       3978.750          23.344  
J01  37857820.376     1115519.7511       -967.541          31.291  
J02  36964481.722      217441.3211       -871.697          38.068  
E018325036781.520     1773923.5781      -1714.372          34.806  
> 2018  4 30 11 58  4.9996636  0 19
G02  23387277.625    -3873424.9061        830.729          23.814  
G03  24137220.150     4906377.8021      -3556.952          15.559  
G06  21174192.611      291192.0071       -357.646          25.841  
G09  23554455.690    -1932643.5111       1557.152          21.648  
G17  21341330.504    -1037537.9321        633.665          24.043  
G19  21363066.956    -1507582.5521       1032.530          26.083  
G23  24768630.434     -387078.0081        136.358          26.504  
G28  21213546.967     2812446.8891      -2626.252          39.376  
G30  25557146.356     2141823.8921      -2167.803           7.000  
R02  21298985.719     1998808.5371      -1955.377          24.324  
R18  21485174.823     -640953.6031        584.163          18.752  
R16  21655029.435      421965.9381       -807.875          26.281  
R15  22270393.328     5030811.8471      -3852.164          17.713  
R17  21737417.499     1134533.8381       -792.217          26.338  
R03  20196949.243    -2646414.8461       1822.963          32.425  
R04  22962831.163    -3761824.4411       3980.945          23.971  
J01  37858012.243     1116490.6751       -968.891          29.292  
J02  36964649.606      218311.9900       -870.753          36.950  
E018624829560.000     1775635.2131      -1712.808          35.513  
> 2018  4 30 11 58  5.9996636  0 19
G02  23387130.427    -3874254.8731        829.513          22.082  
G03  24137896.482     4909929.4331      -3556.733          17.182  
G06  21174248.972      291550.5671       -356.415          30.688  
G09  23554179.581    -1934197.3401       1554.775          19.492  
G17  21341201.294    -1038171.1611        630.235          23.185  
G19  21362869.693    -1508609.4141       1029.540          27.215  
G23  24768606.151     -387220.5171        139.118          28.390  
G28  21214042.524     2815074.3201      -2627.678          37.508  
G30  25557557.071     2143992.0831      -2168.778           7.000  
R02  21299343.671     2000765.6121      -1957.376          24.142  
R18  21485083.086     -641541.4381        586.093          21.043  
R16  21655170.038      422777.0741       -805.800          28.164  
R15  22271041.479     5034668.5881      -3853.042          18.113  
R17  21737555.404     1135324.2721       -792.771          27.310  
R03  20196577.201    -2648240.1331       1825.473          36.240  
R04  22962049.004    -3765802.2661       3974.664          24.984  
J01  37858199.914     1117462.3651       -970.830          30.636  
J02  36964807.296      219181.9510       -870.013          36.170  
E018924622342.980     1777355.1481      -1713.716          35.337  
> 2018  4 30 11 58  6.9996636  0 19
G02  23386999.417    -3875083.8861        826.784          23.858  
G03  24138614.485     4913489.9581      -3557.016          19.136  
G06  21174314.627      291908.7671       -359.563          36.316  
G09  23553895.677    -1935753.9921       1555.396          20.963  
G17  21341113.754    -1038802.5441        632.657          23.314  
G19  21362673.029    -1509635.7941       1026.027          25.220  
G23  24768574.073     -387365.4161        140.702          32.964  
G28  21214549.173     2817702.1791      -2628.063          34.244  
G30  25557966.588     2146158.7101      -2167.803           7.000  
R02  21299665.648     2002727.9841      -1959.627          26.576  
R18  21484961.671     -642130.7241        585.044          18.561  
R16  21655313.339      423585.4961       -808.873          27.175  
R15  22271746.591     5038524.9151      -3855.137          24.279  
R17  21737723.287     1136116.3471       -792.315          26.714  
R03  20196253.425    -2650063.8661       1822.762          37.109  
R04  22961346.591    -3769776.8341       3972.196          26.352  
J01  37858380.389     1118433.5361       -970.343          33.356  
J02  36964979.377      220051.7171       -871.629          35.031  
E019224415125.660     1779082.1721      -1713.340          35.387  
> 2018  4 30 11 58  7.9996636  0 19
G02  23386834.531    -3875905.8891        823.020          23.008  
G03  24139288.418     4917052.7551      -3556.772          17.009  
G06  21174382.980      292266.8170       -358.571          39.334  
G09  23553597.684    -1937311.0551       1559.751          22.730  
G17  21340974.950    -1039435.4751        635.594          22.996  
G19  21362462.875    -1510665.4961       1028.187          25.303  
G23  24768557.285     -387505.7051        133.704          33.720  
G28  21215042.332     2820331.0211      -2628.932          38.648  
G30  25558378.503     2148324.9221      -2166.827           7.000  
R02  21300107.243     2004691.8261      -1957.947          27.625  
R18  21484825.265     -642718.9041        587.162          20.621  
R16  21655462.935      424390.6151       -808.747          27.212  
R15  22272472.088     5042378.6381      -3857.912          24.339  
R17  21737836.309     1136905.6411       -788.246          29.996  
R03  20195921.854    -2651891.3791       1823.129          33.775  
R04  22960613.298    -3773755.3561       3975.801          27.933  
J01  37858571.356     1119404.6651       -972.147          31.764  
J02  36965141.565      220921.7720       -869.519          35.924  
E019524207907.730     1780814.5011      -1714.290          35.154  
> 2018  4 30 11 58  8.9996636  0 19
G02  23386657.054    -3876730.0371        823.531          27.192  
G03  24139951.559     4920607.2541      -3558.181          17.660  
G06  21174451.033      292624.6420       -357.497          36.754  
G09  23553305.386    -1938862.7081       1556.417          21.262  
G17  21340845.440    -1040070.3491        636.151          22.735  
G19  21362275.504    -1511692.2341       1029.994          29.263  
G23  24768521.310     -387646.9981        140.765          32.753  
G28  21215548.981     2822961.0701      -2629.493          37.931  
G30  25558790.418     2150489.5981      -2165.851           7.000  
R02  21300413.930     2006646.7501      -1957.673          24.853  
R18  21484803.980     -643302.1161        587.482          20.458  
R16  21655643.710      425202.5791       -810.152          29.692  
R15  22273194.588     5046235.2141      -3860.421          22.438  
R17  21738003.593     1137692.4791       -789.424          28.637  
R03  20195565.401    -2653714.7391       1823.654          33.641  
R04  22959884.203    -3777730.7841       3978.441          29.187  
J01  37858746.735     1120374.4941       -973.376          29.189  
J02  36965309.149      221791.4100       -869.493          36.697  
E019824000694.305     1782547.6671      -1714.992          37.293  
> 2018  4 30 11 58  9.9996636  0 19
G02  23386501.762    -3877554.8211        824.003          29.263  
G03  24140636.285     4924171.4991      -3558.484          15.137  
G06  21174521.484      292983.3331       -358.033          38.208  
G09  23553018.185    -1940417.6121       1553.119          20.817  
G17  21340718.928    -1040704.2321        629.430          24.182  
G19  21362065.350    -1512719.8841       1028.663          28.847  
G23  24768502.423     -387786.8021        138.760          32.457  
G28  21216046.637     2825590.7031      -2630.915          39.343  
G30  25559202.632     2152654.6261      -2164.876           7.000  
R02  21300807.258     2008608.9581      -1965.043          26.670  
R18  21484632.798     -643885.4511        585.475          21.067  
R16  21655785.512      426015.5421       -811.839          28.648  
R15  22273957.560     5050093.0871      -3858.820          22.498  
R17  21738153.489     1138486.8871       -795.014          27.972  
R03  20195233.531    -2655536.1261       1819.687          36.550  
R04  22959119.432    -3781704.6061       3975.962          29.754  
J01  37858938.003     1121345.3961       -969.097          30.185  
J02  36965481.530      222661.5050       -869.625          35.572  
E010123793477.875     1784276.7321      -1715.068          37.794  
> 2018  4 30 11 58 10.9996636  0 19
G02  23386371.652    -3878379.9891        825.671          26.429  
G03  24141313.516     4927728.2131      -3556.624          16.437  
G06  21174586.539      293341.9250       -358.162          38.967  
G09  23552731.283    -1941969.2071       1552.944          20.216  
G17  21340591.516    -1041337.0401        629.101          24.713  
G19  21361856.395    -1513746.6501       1025.766          35.859  
G23  24768477.240     -387925.8941        136.532          31.082  
G28  21216551.487     2828220.5581      -2631.657          35.266  
G30  25559615.746     2154818.5341      -2164.876           7.000  
R02  21301179.300     2010570.8671      -1964.223          28.782  
R18  21484513.181     -644470.9881        587.852          20.821  
R16  21655932.410      426833.9921       -814.794          25.716  
R15  22274632.093     5053950.3801      -3852.749          22.697  
R17  21738306.384     1139281.7201       -798.751          27.586  
R03  20194899.262    -2657356.9911       1823.166          34.201  
R04  22958365.155    -3785672.0451       3974.082          30.198  
J01  37859123.274     1122317.5211       -971.964          34.248  
J02  36965643.118      223532.1120       -870.785          36.712  
E010423586260.850     1785994.6821      -1715.328          37.939  
> 2018  4 30 11 58 11.9996636  0 19
G02  23386226.852    -3879213.9031        827.096          25.132  
G03  24142004.538     4931291.8901      -3556.927          17.390  
G06  21174659.089      293700.9250       -359.448          38.350  
G09  23552379.027    -1943523.7461       1557.800          21.196  
G17  21340459.607    -1041969.7421        627.398          29.475  
G19  21361666.626    -1514772.9021       1028.626          37.340  
G23  24768436.168     -388064.7931        137.010          29.526  
G28  21217046.744     2830850.9611      -2631.865          35.601  
G30  25560027.661     2156981.8201      -2163.900           7.000  
R02  21301516.867     2012538.2211      -1964.548          26.274  
R18  21484391.165     -645064.6921        587.745          22.653  
R16  21656124.577      427649.3561       -815.039          23.297  
R15  22275382.773     5057808.6831      -3854.200          23.379  
R17  21738455.380     1140071.9891       -796.064          24.506  
R03  20194541.910    -2659184.8771       1819.738          32.720  
R04  22957645.053    -3789646.0221       3973.315          29.316  
J01  37859306.148     1123289.0341       -971.224          34.746  
J02  36965805.905      224402.6531       -872.470          34.221  
E010723379050.420     1787701.0311      -1715.279          36.679  
> 2018  4 30 11 58 12.9996636  0 19
G02  23386070.960    -3880041.4911        828.214          25.146  
G03  24142685.667     4934848.9541      -3558.302          13.614  
G06  21174722.645      294060.2390       -358.623          38.771  
G09  23552114.610    -1945088.7871       1554.614          21.885  
G17  21340337.592    -1042600.7651        627.032          32.860  
G19  21361472.061    -1515798.9271       1026.123          35.722  
G23  24768424.776     -388195.7841        134.259          28.855  
G28  21217554.293     2833479.6401      -2633.661          34.215  
G30  25560440.775     2159144.5301      -2162.925           7.000  
R02  21301871.821     2014496.9391      -1967.465          25.502  
R18  21484265.552     -645652.8861        582.444          25.417  
R16  21656247.792      428469.7951       -817.069          23.001  
R15  22276104.973     5061659.7991      -3857.600          22.325  
R17  21738649.346     1140860.2361       -790.792          24.009  
R03  20194196.249    -2660996.1301       1816.045          32.461  
R04  22956921.654    -3793619.4101       3974.915          26.188  
J01  37859495.317     1124260.3341       -968.075          33.465  
J02  36965969.892      225272.9931       -874.229          32.695  
E011023171836.695     1789397.2281      -1716.559          33.569  
> 2018  4 30 11 58 13.9996636  0 19
G02  23385898.879    -3880868.1761        825.955          27.529  
G03  24143385.382     4938404.5631      -3560.403          14.794  
G06  21174798.492      294419.2560       -358.391          39.132  
G09  23551817.816    -1946640.7991       1553.167          20.100  
G17  21340214.977    -1043228.4630        628.916          38.180  
G19  21361275.697    -1516825.3720       1027.481          37.477  
G23  24768407.988     -388327.6691        132.941          28.015  
G28  21218048.651     2836111.2801      -2632.731          36.054  
G30  25560852.990     2161307.6211      -2162.925           7.000  
R02  21302286.134     2016460.7511      -1965.679          27.445  
R18  21484170.518     -646236.9111        582.294          25.867  
R16  21656411.778      429287.7471       -818.555          23.915  
R15  22276786.402     5065518.1661      -3858.860          21.452  
R17  21738748.877     1141652.9371       -793.375          28.226  
R03  20193868.276    -2662812.2331       1818.241          35.532  
R04  22956165.877    -3797596.5591       3977.595          24.645  
J01  37859675.192     1125232.3860       -971.454          35.063  
J02  36966140.773      226143.4261       -874.264          30.991  
E011322964627.766     1791111.5961      -1723.305          31.027  
> 2018  4 30 11 58 14.9996636  0 19
G02  23385730.696    -3881693.5491        824.096          29.066  
G03  24144056.917     4941968.0461      -3560.279          16.194  
G06  21174860.249      294779.2960       -360.334          38.749  
G09  23551531.514    -1948191.7231       1554.947          19.894  
G17  21340094.160    -1043855.2990        627.259          42.164  
G19  21361079.332    -1517851.3291       1025.270          38.547  
G23  24768398.395     -388459.2101        131.684          25.511  
G28  21218558.598     2838743.0791      -2632.896          38.365  
G30  25561266.104     2163470.5401      -2162.925           7.000  
R02  21302646.185     2018425.2661      -1964.900          28.942  
R18  21484047.603     -646819.6231        582.696          30.292  
R16  21656622.532      430104.9441       -818.684          23.476  
R15  22277502.906     5069376.0301      -3853.809          20.110  
R17  21738883.484     1142450.2631       -797.423          28.057  
R03  20193528.311    -2664629.7360       1818.763          38.214  
R04  22955454.470    -3801579.7061       3980.523          22.776  
J01  37859862.862     1126204.5610       -970.308          35.531  
J02  36966311.955      227013.8341       -873.382          28.462  
E011622757425.730     1792822.9141      -1715.400          30.524  
> 2018  4 30 11 58 15.9996636  0 19
G02  23385599.087    -3882514.6241        823.817          29.109  
G03  24144705.368     4945521.9901      -3560.735          16.151  
G06  21174927.703      295138.8580       -360.431          38.892  
G09  23551199.944    -1949743.9031       1553.971          23.150  
G17  21339982.038    -1044482.2111        627.947          41.448  
G19  21360880.270    -1518877.2881       1025.730          38.973  
G23  24768389.401     -388596.1231        129.596          24.311  
G28  21219048.758     2841375.0191      -2635.853          34.894  
G30  25561678.318     2165633.6311      -2162.925           7.000  
R02  21303020.026     2020385.9961      -1961.996          28.144  
R18  21483930.684     -647400.6261        579.856          36.242  
R16  21656695.981      430925.4791       -817.729          21.667  
R15  22278273.672     5073236.1181      -3853.710          20.516  
R17  21739048.070     1143243.2361       -795.354          27.453  
R03  20193178.453    -2666446.5691       1816.847          33.598  
R04  22954713.682    -3805565.4071       3979.413          22.766  
J01  37860046.335     1127179.0091       -968.091          32.955  
J02  36966493.929      227887.0681       -870.858          25.816  
E011922550218.900     1794530.9591      -1717.957          27.719  
> 2018  4 30 11 58 16.9996636  0 19
G02  23385427.605    -3883334.5521        826.937          26.219  
G03  24145338.530     4949082.7071      -3561.483          16.691  
G06  21175001.751      295500.6811       -360.021          37.484  
G09  23550901.350    -1951301.8191       1552.791          22.881  
G17  21339860.622    -1045108.4321        626.292          40.237  
G19  21360694.699    -1519902.2031       1026.224          40.066  
G23  24768357.623     -388728.2281        127.253          21.689  
G28  21219559.005     2844009.2611      -2634.172          35.125  
G30  25562091.432     2167795.5881      -2162.925           7.000  
R02  21303389.970     2022345.2951      -1968.005          29.490  
R18  21483819.461     -647980.6321        580.403          38.685  
R16  21656952.604      431745.7031       -819.948          20.060  
R15  22278938.312     5077095.0771      -3854.920          20.382  
R17  21739170.086     1144039.9891       -796.521          28.601  
R03  20192848.382    -2668258.9461       1816.204          33.884  
R04  22954005.872    -3809544.7821       3983.091          23.354  
J01  37860228.909     1128143.4421       -971.182          34.342  
J02  36966656.116      228766.9601       -875.511          24.251  
E012222342997.980     1796237.9591      -1722.785          27.308  
> 2018  4 30 11 58 17.9996636  0 19
G02  23385281.307    -3884157.3251        821.167          27.706  
G03  24145999.572     4952638.1881      -3561.350          18.340  
G06  21175067.106      295860.7601       -360.426          38.809  
G09  23550618.046    -1952855.8531       1550.316          20.502  
G17  21339737.407    -1045734.8121        625.898          40.455  
G19  21360491.439    -1520927.3691       1025.027          39.118  
G23  24768335.738     -388854.8001        128.488          26.218  
G28  21220055.761     2846644.4591      -2633.651          34.365  
G30  25562502.748     2169959.2231      -2161.949           7.000  
R02  21303743.725     2024319.5511      -1972.643          28.199  
R18  21483722.928     -648561.4380        580.230          38.773  
R16  21656991.277      432562.3301       -821.378          21.579  
R15  22279650.619     5080954.4971      -3852.486          20.625  
R17  21739337.670     1144835.1081       -796.132          28.595  
R03  20192517.711    -2670073.5281       1815.695          32.860  
R04  22953227.911    -3813520.0891       3978.789          21.497  
J01  37860419.877     1129115.0871       -978.741          30.843  
J02  36966826.099      229637.3771       -875.380          23.133  
E012522135788.445     1797945.3961      -1727.535          25.883  
> 2018  4 30 11 58 18.9996636  0 19
G02  23385130.511    -3884979.3951        819.705          36.115  
G03  24146680.401     4956194.1051      -3562.009          15.166  
G06  21175135.759      296221.3001       -361.216          38.124  
G09  23550310.160    -1954413.5081       1551.743          22.599  
G17  21339616.291    -1046361.0191        627.863          39.234  
G19  21360302.570    -1521952.1561       1023.252          35.626  
G23  24768308.757     -388972.7421        123.303          24.793  
G28  21220560.911     2849286.0821      -2634.354          32.253  
G30  25562914.662     2172122.5741      -2163.900           7.000  
R02  21304143.348     2026298.2091      -1970.097          25.744  
R18  21483611.705     -649142.4070        581.550          38.532  
R16  21657192.737      433378.0071       -817.094          20.745  
R15  22280439.972     5084805.7931      -3854.022          19.519  
R17  21739470.778     1145633.2961       -796.912          28.505  
R03  20192172.050    -2671890.5961       1815.283          33.028  
R04  22952538.988    -3817498.6541       3979.073          22.106  
J01  37860600.652     1130097.2451       -972.401          29.889  
J02  36967005.974      230513.4591       -876.624          20.868  
E012821928569.620     1799662.2561      -1732.706          25.650  
> 2018  4 30 11 58 19.9996636  0 19
G02  23384969.822    -3885800.7940        822.970          36.409  
G03  24147349.838     4959752.7141      -3561.855          15.724  
G06  21175207.709      296582.0180       -361.530          39.606  
G09  23550031.353    -1955967.4821       1551.920          23.406  
G17  21339500.871    -1046986.9751        627.542          36.486  
G19  21360103.808    -1522977.3611       1027.233          37.151  
G23  24768292.868     -389094.9161        126.468          22.548  
G28  21221062.764     2851925.7061      -2632.450          33.111  
G30  25563326.577     2174284.8841      -2162.925           7.000  
R02  21304499.202     2028265.1521      -1964.885          25.234  
R18  21483503.180     -649723.6710        580.890          36.471  
R16  21657366.917      434191.9511       -821.907          22.396  
R15  22281169.068     5088653.2741      -3853.938          21.006  
R17  21739620.074     1146434.8221       -800.551          28.270  
R03  20191843.478    -2673705.1501       1814.520          32.239  
R04  22951732.546    -3821477.9711       3978.730          23.535  
J01  37860779.927     1131068.8461       -969.815          29.470  
J02  36967190.047      231394.2621       -879.641          20.515  
E013121721346.600     1801396.2641      -1732.648          23.341  
> 2018  4 30 11 58 20.9996636  0 19
G02  23384823.224    -3886622.7331        821.748          33.752  
G03  24148045.356     4963311.2431      -3562.533          15.064  
G06  21175276.061      296942.6050       -360.416          38.352  
G09  23549714.772    -1957514.9401       1552.959          23.981  
G17  21339382.153    -1047613.0631        625.551          36.446  
G19  21359906.245    -1524002.4941       1024.628          38.411  
G23  24768270.383     -389218.6201        126.533          25.073  
G28  21221555.323     2854561.1481      -2633.405          33.323  
G30  25563738.492     2176445.6571      -2161.949           7.000  
R02  21304888.033     2030231.2771      -1966.213          25.544  
R18  21483383.263     -650304.8960        581.131          38.080  
R16  21657517.113      435016.4871       -827.607          24.910  
R15  22281884.972     5092499.9381      -3854.097          19.649  
R17  21739757.379     1147232.1721       -792.768          26.182  
R03  20191487.324    -2675518.6081       1812.421          33.535  
R04  22951006.749    -3825450.3281       3975.586          25.204  
J01  37860970.595     1132040.6491       -972.238          31.271  
J02  36967347.438      232271.9241       -873.869          21.581  
E013421514148.760     1803132.4621      -1728.915          22.707  
> 2018  4 30 11 58 21.9996636  0 19
G02  23384652.342    -3887444.3881        822.115          35.565  
G03  24148755.265     4966871.1501      -3564.253          13.721  
G06  21175339.917      297303.0780       -359.731          38.085  
G09  23549434.466    -1959066.7171       1552.225          24.954  
G17  21339260.737    -1048239.1161        626.766          39.178  
G19  21359713.178    -1525027.4281       1025.290          40.117  
G23  24768261.090     -389342.1611        124.486          26.062  
G28  21222054.777     2857195.9170      -2634.989          37.252  
G30  25564149.208     2178606.0151      -2160.974           7.000  
R02  21305216.306     2032192.2361      -1969.797          26.256  
R18  21483275.638     -650885.8490        581.719          36.866  
R16  21657638.229      435841.2381       -827.783          21.958  
R15  22282578.992     5096354.7151      -3856.421          20.072  
R17  21739916.269     1148029.4161       -790.575          27.859  
R03  20191147.360    -2677330.9831       1812.744          34.897  
R04  22950230.886    -3829423.6691       3974.072          25.060  
J01  37861151.670     1133009.3761       -971.891          29.851  
J02  36967531.211      233152.6111       -875.769          20.620  
E013721306939.530     1804871.6781      -1732.505          21.679  
> 2018  4 30 11 58 22.9996636  0 19
G02  23384509.041    -3888266.8751        827.695          32.835  
G03  24149407.913     4970439.5631      -3563.222          16.670  
G06  21175411.867      297663.9131       -360.474          36.792  
G09  23549124.181    -1960617.6931       1549.762          26.536  
G17  21339138.422    -1048865.0651        626.534          38.855  
G19  21359520.712    -1526052.2640       1025.676          39.358  
G23  24768227.513     -389465.3371        129.598          23.879  
G28  21222557.529     2859830.8820      -2634.936          38.358  
G30  25564561.422     2180765.7991      -2159.998           7.000  
R02  21305612.931     2034159.4161      -1972.347          27.021  
R18  21483170.710     -651467.1710        581.491          38.082  
R16  21657851.681      436667.9251       -827.639          20.539  
R15  22283304.190     5100208.7781      -3858.438          19.833  
R17  21740111.734     1148824.9881       -795.200          24.840  
R03  20190821.185    -2679144.4301       1813.192          36.344  
R04  22949517.680    -3833402.1431       3976.333          24.613  
J01  37861347.435     1133981.5041       -972.062          33.549  
J02  36967722.478      234034.5461       -881.703          19.693  
E014021099733.300     1806609.8951      -1723.795          21.293  
> 2018  4 30 11 58 23.9996636  0 19
G02  23384355.248    -3889091.5941        823.630          34.722  
G03  24150053.666     4974006.9411      -3561.657          16.497  
G06  21175481.119      298024.8091       -361.303          36.246  
G09  23548841.776    -1962173.7941       1553.684          26.256  
G17  21339025.100    -1049490.8051        626.381          39.561  
G19  21359324.347    -1527077.0391       1025.104          39.243  
G23  24768198.733     -389598.4201        126.555          23.162  
G28  21223067.776     2862466.2851      -2634.059          35.165  
G30  25564972.138     2182925.9631      -2159.998           7.000  
R02  21305985.573     2036128.0261      -1972.556          27.705  
R18  21483054.991     -652048.7850        581.650          39.839  
R16  21658024.662      437494.0331       -827.773          22.756  
R15  22283992.813     5104062.1021      -3857.587          19.133  
R17  21740224.156     1149625.3401       -793.205          25.946  
R03  20190481.520    -2680956.6721       1811.596          37.494  
R04  22948793.081    -3837375.1811       3977.641          23.795  
J01  37861527.610     1134953.2410       -971.069          35.186  
J02  36967836.999      234921.4641       -879.073          20.119  
E014320892510.280     1808345.7091      -1718.638          21.372  
> 2018  4 30 11 58 24.9996636  0 19
G02  23384201.754    -3889915.5941        824.551          33.490  
G03  24150720.104     4977573.8641      -3560.534          16.881  
G06  21175548.873      298385.7591       -361.644          36.385  
G09  23548556.973    -1963729.7151       1555.849          25.828  
G17  21338903.984    -1050117.0321        625.825          39.684  
G19  21359132.180    -1528102.2900       1025.666          40.162  
G23  24768159.460     -389726.5391        123.885          22.853  
G28  21223553.140     2865101.7991      -2636.929          36.535  
G30  25565383.154     2185084.9931      -2159.998           7.000  
R02  21306349.821     2038095.9611      -1971.258          28.324  
R18  21482949.464     -652630.9030        582.665          40.492  
R16  21658156.270      438319.8301       -827.411          25.608  
R15  22284744.392     5107916.9071      -3858.087          18.485  
R17  21740400.434     1150417.3491       -792.682          26.469  
R03  20190143.954    -2682768.6101       1809.574          34.736  
R04  22948010.023    -3841349.5781       3978.646          24.039  
J01  37861709.584     1135924.9151       -969.589          34.019  
J02  36968010.579      235797.8811       -878.401          20.551  
E014620685285.460     1810081.6781      -1719.122          20.194  
> 2018  4 30 11 58 25.9996636  0 19
G02  23384044.363    -3890739.6181        826.373          32.386  
G03  24151437.808     4981140.9471      -3561.625          16.678  
G06  21175617.825      298746.4400       -360.715          36.885  
G09  23548247.887    -1965286.4931       1551.522          26.885  
G17  21338787.665    -1050743.3680        627.351          40.037  
G19  21358932.818    -1529127.6850       1025.334          40.546  
G23  24768163.357     -389849.2461        127.347          20.951  
G28  21224063.087     2867738.1751      -2635.952          36.621  
G30  25565795.668     2187245.7021      -2159.022           7.000  
R02  21306735.954     2040068.1841      -1970.877          27.135  
R18  21482840.039     -653213.6510        584.238          38.861  
R16  21658319.657      439147.4981       -829.342          25.213  
R15  22285483.681     5111771.0901      -3857.897          19.022  
R17  21740496.368     1151205.5301       -794.060          25.951  
R03  20189789.899    -2684579.2540       1811.428          37.023  
R04  22947325.597    -3845324.4751       3978.295          24.449  
J01  37861897.254     1136896.7151       -969.294          32.887  
J02  36968218.635      236676.0781       -875.961          20.418  
E014920478090.914     1811820.4971      -1721.054          19.706  
> 2018  4 30 11 58 26.9996636  0 19
G02  23383892.068    -3891561.3180        822.299          35.146  
G03  24152122.533     4984699.8921      -3563.165          16.734  
G06  21175682.280      299107.5761       -359.670          36.276  
G09  23547954.690    -1966829.1501       1548.970          25.498  
G17  21338665.050    -1051369.1341        625.460          39.358  
G19  21358740.951    -1530152.6200       1025.946          39.254  
G23  24768135.477     -389982.4951        136.153          18.867  
G28  21224569.137     2870376.0351      -2636.994          33.478  
G30  25566205.184     2189406.1251      -2160.974           7.000  
R02  21307102.600     2042039.8911      -1973.238          27.360  
R18  21482738.110     -653796.1201        583.667          37.749  
R16  21658438.375      439976.1791       -827.406          24.993  
R15  22286154.616     5115624.5731      -3856.276          20.135  
R17  21740712.818     1152005.9591       -797.867          25.702  
R03  20189467.323    -2686389.7890       1812.521          36.418  
R04  22946544.937    -3849298.4331       3981.097          24.170  
J01  37862079.228     1137869.6531       -971.739          32.019  
J02  36968391.015      237550.5781       -874.019          17.232  
E015220270859.500     1813562.9581      -1726.094          19.580  
> 2018  4 30 11 58 27.9996636  0 19
G02  23383735.277    -3892383.3380        822.835          36.226  
G03  24152775.781     4988261.9861      -3564.015          18.803  
G06  21175751.532      299468.8940       -360.950          38.803  
G09  23547674.384    -1968381.9661       1554.626          25.493  
G17  21338546.931    -1051995.1111        627.053          39.966  
G19  21358543.388    -1531177.6781       1025.461          38.680  
G23  24768109.095     -390119.2881        134.098          17.261  
G28  21225072.788     2873013.6731      -2642.246          30.999  
G30  25566615.600     2191564.7411      -2159.998           7.000  
R02  21307453.357     2044012.6921      -1974.381          28.676  
R18  21482617.893     -654378.5171        581.848          37.611  
R16  21658606.858      440805.1771       -825.766          26.890  
R15  22286852.833     5119476.6191      -3853.426          22.424  
R17  21740872.307     1152797.1501       -792.763          26.274  
R03  20189118.964    -2688198.9241       1808.625          33.083  
R04  22945818.540    -3853280.5621       3979.391          24.290  
J01  37862264.500     1138841.8391       -972.528          32.465  
J02  36968562.497      238419.6321       -875.822          15.920  
E015520063673.950     1815313.9511      -1736.991          20.508  
> 2018  4 30 11 58 28.9996636  0 19
G02  23383572.190    -3893205.3301        825.054          33.476  
G03  24153450.314     4991822.2471      -3563.138          18.114  
G06  21175826.780      299830.3811       -361.693          37.029  
G09  23547353.606    -1969937.3761       1554.037          27.053  
G17  21338425.815    -1052620.7941        625.241          40.711  
G19  21358351.521    -1532202.4631       1026.912          40.353  
G23  24768100.101     -390245.8691        130.263          18.042  
G28  21225567.445     2875657.4431      -2638.787          32.510  
G30  25567026.616     2193722.3651      -2158.047           7.000  
R02  21307867.970     2045991.8521      -1975.158          26.495  
R18  21482521.060     -654961.9191        586.057          34.938  
R16  21658750.459      441635.6101       -830.530          27.803  
R15  22287604.113     5123327.2311      -3853.917          20.585  
R17  21740971.539     1153590.7281       -790.625          25.432  
R03  20188770.605    -2690006.9831       1808.273          31.750  
R04  22945048.973    -3857256.4871       3978.390          24.500  
J01  37862449.172     1139813.4391       -972.298          34.189  
J02  36968788.840      239295.4551       -877.029          16.371  
E015819856465.020     1817072.0441      -1748.541          19.035  
> 2018  4 30 11 58 29.9996636  0 19
G02  23383429.489    -3894027.5661        823.178          36.583  
G03  24154149.730     4995379.5951      -3563.466          16.133  
G06  21175889.737      300192.2671       -361.794          38.970  
G09  23547085.292    -1971488.5091       1549.895          28.938  
G17  21338310.695    -1053246.7081        626.684          40.616  
G19  21358153.058    -1533227.0020       1024.160          39.913  
G23  24768080.615     -390369.2351        127.868          20.894  
G28  21226080.390     2878295.3511      -2633.468          31.430  
G30  25567436.432     2195880.5781      -2158.047           7.000  
R02  21308205.236     2047973.2531      -1974.991          25.806  
R18  21482413.734     -655545.0541        587.732          32.218  
R16  21658933.332      442466.0741       -831.310          26.175  
R15  22288308.325     5127186.2641      -3853.131          22.111  
R17  21741085.460     1154383.7611       -791.622          26.835  
R03  20188451.626    -2691816.6081       1808.692          31.996  
R04  22944316.580    -3861232.8761       3982.549          25.186  
J01  37862649.733     1140785.5181       -971.515          31.763  
J02  36968873.382      240173.7391       -877.595          22.275  
E016119649265.086     1818836.6071      -1755.257          16.459  
> 2018  4 30 11 58 30.9996636  0 19
G02  23383272.697    -3894848.9651        818.400          34.115  
G03  24154827.861     4998942.7991      -3563.849          16.698  
G06  21175961.687      300554.0611       -362.383          38.596  
G09  23546773.208    -1973037.8991       1547.446          30.642  
G17  21338190.178    -1053872.3190        625.312          40.311  
G19  21357969.286    -1534251.8791       1025.510          39.589  
G23  24768039.543     -390495.3881        120.418          20.860  
G28  21226590.337     2880934.4151      -2637.125          28.505  
G30  25567845.649     2198035.7331      -2158.047           7.000  
R02  21308559.591     2049947.8151      -1977.721          27.743  
R18  21482304.610     -656130.9771        578.703          31.089  
R16  21659072.736      443293.8111       -832.582          25.430  
R15  22289048.513     5131047.7351      -3859.772          21.511  
R17  21741265.035     1155180.5751       -795.993          25.904  
R03  20188115.259    -2693623.5261       1806.938          35.475  
R04  22943594.980    -3865209.8551       3980.477          25.524  
J01  37862819.416     1141752.5921       -972.179          30.795  
J02  36969055.655      241050.0711       -878.717          18.930  
E016419441971.310     1820587.3301      -1762.418          18.264  
> 2018  4 30 11 58 31.9996636  0 19
G02  23383114.107    -3895670.6221        820.514          33.951  
G03  24155515.884     5002513.1041      -3561.978          15.485  
G06  21176027.341      300916.2920       -363.165          39.892  
G09  23546474.015    -1974583.6491       1549.089          29.967  
G17  21338068.762    -1054497.9261        624.225          40.159  
G19  21357764.527    -1535276.4011       1025.103          39.839  
G23  24767979.285     -390613.4131        121.567          20.270  
G28  21227094.888     2883576.3781      -2644.366          26.770  
G30  25568257.564     2200190.2111      -2155.120           7.000  
R02  21308940.927     2051922.8401      -1976.785          27.817  
R18  21482184.393     -656713.8491        580.612          32.663  
R16  21659229.228      444126.1061       -832.460          25.145  
R15  22289743.132     5134909.6171      -3854.461          21.910  
R17  21741384.952     1155979.9681       -797.138          25.972  
R03  20187761.504    -2695430.0091       1804.442          33.706  
R04  22942813.121    -3869192.3671       3982.729          26.519  
J01  37863020.276     1142726.8051       -971.058          28.870  
J02  36969232.833      241924.3541       -877.961          15.864  
E016719234781.270     1822358.1611      -1758.446          17.474  
> 2018  4 30 11 58 32.9996636  0 19
G02  23382960.014    -3896491.8250        820.028          39.136  
G03  24156213.202     5006076.4731      -3563.749          16.381  
G06  21176095.094      301278.9700       -363.463          40.935  
G09  23546182.017    -1976131.0101       1550.657          28.250  
G17  21337956.040    -1055124.3471        625.816          37.181  
G19  21357572.360    -1536300.4371       1022.575          38.661  
G23  24767948.406     -390743.4211        123.472          18.069  
G28  21227618.026     2886219.4001      -2646.604          24.547  
G30  25568669.179     2202347.0271      -2154.144           7.000  
R02  21309305.475     2053905.2561      -1979.758          27.012  
R18  21482069.872     -657296.9111        583.212          35.385  
R16  21659399.210      444959.3561       -832.813          24.912  
R15  22290446.145     5138758.0461      -3852.712          21.658  
R17  21741557.633     1156775.0211       -792.914          27.917  
R03  20187453.317    -2697235.1021       1805.722          34.162  
R04  22942103.212    -3873170.1621       3979.991          26.413  
J01  37863186.961     1143707.0691       -971.179          28.394  
J02  36969440.289      242799.9141       -875.742          17.217  
E017019027580.734     1824020.6101      -1755.303          18.467  
> 2018  4 30 11 58 33.9996636  0 19
G02  23382799.325    -3897312.0160        817.715          37.356  
G03  24156915.316     5009646.9091      -3563.645          17.195  
G06  21176172.141      301641.7211       -363.959          39.270  
G09  23545897.814    -1977679.9101       1549.323          28.371  
G17  21337831.926    -1055751.2971        627.693          37.127  
G19  21357379.294    -1537324.6371       1025.097          39.335  
G23  24767933.416     -390872.7281        123.226          18.041  
G28  21228110.885     2888868.5751      -2643.620          23.831  
G30  25569080.194     2204504.3051      -2157.071           7.000  
R02  21309706.297     2055884.0591      -1979.830          28.256  
R18  21481979.035     -657882.1151        582.061          34.039  
R16  21659542.511      445793.1501       -833.738          23.900  
R15  22291205.520     5142608.8381      -3855.036          20.461  
R17  21741731.812     1157567.8501       -793.373          28.117  
R03  20187098.962    -2699037.5871       1808.245          32.321  
R04  22941323.452    -3877148.0131       3976.102          25.156  
J01  37863386.923     1144679.7641       -971.841          27.597  
J02  36969567.701      243678.2411       -876.511          19.253  
E017318820350.220     1825737.0191      -1760.700          17.408  
> 2018  4 30 11 58 34.9996636  0 19
G02  23382657.823    -3898132.3631        822.090          33.117  
G03  24157612.033     5013210.0791      -3562.798          14.847  
G06  21176237.496      302005.1641       -363.484          39.504  
G09  23545595.923    -1979226.9731       1546.935          29.036  
G17  21337727.599    -1056376.9661        619.814          34.098  
G19  21357187.127    -1538353.2891       1025.039          37.549  
G23  24767901.638     -390995.7341        125.193          17.068  
G28  21228633.723     2891510.5701      -2643.308          23.200  
G30  25569490.010     2206661.3701      -2157.071           7.000  
R02  21310041.765     2057866.7481      -1979.928          28.605  
R18  21481852.223     -658464.5391        582.347          36.418  
R16  21659699.602      446628.3301       -836.128          24.491  
R15  22291909.132     5146459.5491      -3853.331          23.333  
R17  21741850.230     1158364.6481       -794.904          28.174  
R03  20186758.098    -2700840.6631       1805.896          31.425  
R04  22940587.162    -3881122.6311       3979.627          23.197  
J01  37863562.901     1145655.9861       -971.948          28.739  
J02  36969724.492      244552.5841       -877.241          19.214  
E017618613134.695     1827473.2281      -1723.276          19.768  
> 2018  4 30 11 58 35.9996636  0 19
G02  23382509.126    -3898952.3830        819.802          34.456  
G03  24158273.675     5016774.1251      -3564.411          16.959  
G06  21176305.549      302369.4920       -364.415          39.781  
G09  23545300.927    -1980771.5501       1549.031          29.116  
G17  21337597.788    -1056997.2101        621.835          31.814  
G19  21356981.769    -1539377.5631       1021.848          36.781  
G23  24767897.142     -391119.7921        126.660          14.828  
G28  21229130.479     2894155.5811      -2645.038          22.121  
G30  25569900.726     2208817.8401      -2157.071           7.000  
R02  21310432.395     2059851.5801      -1982.506          29.197  
R18  21481746.396     -659046.4280        582.221          37.622  
R16  21659895.966      447464.7881       -837.367          25.469  
R15  22292624.137     5150317.3351      -3860.435          21.825  
R17  21742016.915     1159158.3931       -793.734          29.430  
R03  20186431.624    -2702649.9331       1802.783          31.615  
R04  22939836.781    -3885100.8671       3980.582          26.533  
J01  37863753.269     1146627.2881       -972.465          28.499  
J02  36969920.557      245422.5721       -875.890          18.291  
E017918405914.375     1829198.3011      -1725.974          17.489  
> 2018  4 30 11 58 36.9996636  0 19
G02  23382339.443    -3899771.6940        819.334          36.386  
G03  24158954.504     5020333.6001      -3563.546          14.686  
G06  21176376.000      302734.2090       -364.511          40.915  
G09  23545008.630    -1982315.9521       1550.803          29.217  
G17  21337480.270    -1057623.3751        626.513          34.275  
G19  21356793.799    -1540400.4391       1022.299          36.281  
G23  24767882.752     -391239.6841        127.621          16.385  
G28  21229648.220     2896805.5571      -2648.333          22.362  
G30  25570310.243     2210972.7591      -2156.095           7.000  
R02  21310826.022     2061827.4981      -1979.230          28.562  
R18  21481645.067     -659628.2980        582.251          38.763  
R16  21660007.489      448302.0951       -837.218          26.644  
R15  22293405.397     5154178.7201      -3869.783          24.429  
R17  21742189.595     1159950.9851       -793.230          28.843  
R03  20186093.458    -2704451.7121       1802.208          34.710  
R04  22939082.803    -3889079.4341       3977.103          28.948  
J01  37863918.155     1147600.7361       -972.331          28.721  
J02  36970078.547      246294.0211       -876.256          17.221  
E018218198691.950     1830922.2721      -1727.529          17.265  
> 2018  4 30 11 58 37.9996636  0 19
G02  23382189.547    -3900590.9200        818.689          33.951  
G03  24159622.142     5023896.3741      -3566.524          14.864  
G06  21176449.749      303099.2460       -364.162          40.716  
G09  23544701.642    -1983864.0631       1546.875          34.040  
G17  21337369.347    -1058248.1171        625.822          32.844  
G19  21356599.834    -1541423.8821       1023.035          37.021  
G23  24767869.860     -391369.7681        123.244          18.267  
G28  21230143.178     2899452.5161      -2648.651          21.049  
G30  25570721.858     2213130.3331      -2155.120           7.000  
R02  21311198.964     2063805.0781      -1980.041          27.702  
R18  21481542.238     -660210.0330        582.408          37.475  
R16  21660288.994      449144.1181       -835.254          22.370  
R15  22294150.681     5158047.3701      -3860.208          21.883  
R17  21742364.075     1160748.3381       -793.587          27.311  
R03  20185746.898    -2706253.2371       1800.566          35.710  
R04  22938324.928    -3893053.9111       3971.923          30.899  
J01  37864121.114     1148574.0491       -974.934          32.337  
J02  36970258.722      247172.1911       -875.418          13.510  
E018517991475.830     1832646.5041      -1733.946          18.602  
> 2018  4 30 11 58 38.9996636  0 19
G02  23382035.454    -3901410.3490        819.165          36.121  
G03  24160316.761     5027461.9131      -3565.047          16.087  
G06  21176518.701      303465.2841       -366.394          40.319  
G09  23544430.030    -1985409.6751       1547.571          32.166  
G17  21337247.331    -1058872.5101        623.726          34.576  
G19  21356402.570    -1542446.0171       1022.839          36.820  
G23  24767860.567     -391491.7481        122.527          15.203  
G28  21230639.334     2902101.6101      -2649.588          19.103  
G30  25571132.873     2215289.9611      -2158.047           7.000  
R02  21311526.637     2065791.2301      -1986.063          28.011  
R18  21481422.920     -660791.2511        582.876          37.868  
R16  21660286.895      449978.7911       -837.035          23.998  
R15  22294810.824     5161908.1801      -3865.229          22.229  
R17  21742461.507     1161548.3111       -798.021          24.306  
R03  20185420.124    -2708057.8391       1799.987          36.395  
R04  22937574.548    -3897028.6851       3972.731          31.354  
J01  37864296.493     1149547.6541       -971.586          33.663  
J02  36970432.302      248052.0361       -875.355          12.153  
E018817784264.490     1834379.0361      -1720.791          18.367  
> 2018  4 30 11 58 39.9996636  0 19
G02  23381887.356    -3902229.9480        819.055          35.604  
G03  24160998.789     5031024.0481      -3567.047          14.972  
G06  21176587.354      303831.0450       -365.994          40.290  
G09  23544113.150    -1986956.6341       1544.666          31.527  
G17  21337122.018    -1059495.2791        622.549          34.778  
G19  21356209.204    -1543469.4611       1023.233          37.595  
G23  24767875.257     -391615.1601        122.687          13.746  
G28  21231144.485     2904749.4421      -2649.024          19.697  
G30  25571543.889     2217448.3961      -2159.022           7.000  
R02  21311903.176     2067779.9481      -1985.795          26.171  
R18  21481307.500     -661373.0401        580.413          38.751  
R16  21660452.081      450822.1421       -837.176          22.784  
R15  22295545.615     5165777.9301      -3863.485          20.847  
R17  21742581.724     1162344.3681       -798.212          26.016  
R03  20185065.770    -2709858.6701       1800.960          34.747  
R04  22936858.643    -3901002.9840       3973.940          32.015  
J01  37864494.356     1150519.8341       -975.511          33.395  
J02  36970540.827      248924.3091       -875.783          13.152  
E019117577031.280     1836105.1631      -1728.779          18.517  
> 2018  4 30 11 58 40.9996636  0 19
G02  23381718.573    -3903049.8820        821.673          35.007  
G03  24161720.089     5034586.6041      -3565.705          16.281  
G06  21176655.107      304196.3400       -367.950          41.928  
G09  23543835.242    -1988502.2891       1544.895          29.645  
G17  21337001.201    -1060119.1960        623.528          38.718  
G19  21356008.643    -1544492.2611       1021.920          37.951  
G23  24767855.171     -391743.9821        122.905          14.925  
G28  21231661.027     2907391.5571      -2649.260          18.853  
G30  25571956.403     2219608.1531      -2158.047           7.000  
R02  21312254.833     2069768.5961      -1982.240          26.559  
R18  21481211.567     -661956.1960        583.485          41.011  
R16  21660626.560      451661.3951       -840.290          21.458  
R15  22296256.423     5169631.7691      -3858.979          25.694  
R17  21742792.478     1163146.2581       -796.950          24.024  
R03  20184744.992    -2711657.8530       1798.816          35.336  
R04  22936095.671    -3904977.8590       3975.261          35.669  
J01  37864679.628     1151493.5381       -974.436          32.820  
J02  36970676.333      249798.4031       -872.960          13.810  
E019417369839.140     1837838.4531      -1728.779          17.913  
