     3.03           OBSERVATION DATA    M: Mixed            RINEX VERSION / TYPE
Geo++ RINEX Logger  Geo++               20180430 120509 UTC PGM / RUN BY / DATE
************************************************************COMMENT
This file was generated by the Geo++ RINEX Logger App       COMMENT
for Android devices (Version 1.2.4). If you encounter       COMMENT
any issues, please send an email to android@geopp.de        COMMENT
Note: Tracking signals and phase shifts by best knowledge   COMMENT
************************************************************COMMENT
Geo++                                                       MARKER NAME
GEODETIC                                                    MARKER TYPE
RINEX Logger user   Geo++                                   OBSERVER / AGENCY
7EX0217A17003237    HUAWEI              VTR-L29             REC # / TYPE / VERS
7EX0217A17003237    VTR-L29                                 ANT # / TYPE
 -2418166.8068  5386110.0057  2405082.5090                  APPROX POSITION XYZ
        0.0000        0.0000        0.0000                  ANTENNA: DELTA H/E/N
G    4 C1C L1C D1C S1C                                      SYS / # / OBS TYPES
R    4 C1C L1C D1C S1C                                      SYS / # / OBS TYPES
E    4 C1B L1B D1B S1B                                      SYS / # / OBS TYPES
C    4 C2I L2I D2I S2I                                      SYS / # / OBS TYPES
J    4 C1C L1C D1C S1C                                      SYS / # / OBS TYPES
  2018     4    30    12     5   27.9995649     GPS         TIME OF FIRST OBS
G                                                           SYS / PHASE SHIFTS
R                                                           SYS / PHASE SHIFTS
E                                                           SYS / PHASE SHIFTS
C                                                           SYS / PHASE SHIFTS
J                                                           SYS / PHASE SHIFTS
                                                            END OF HEADER
> 2018  4 30 12  5 27.9995649  0 18
G02  23290683.895    -4225771.1580        772.488          31.915  
G03  24411242.149     6501639.4731      -3632.328          11.563  
G06  21178205.034      467870.8530       -429.058          40.796  
G09  23396962.420    -2604737.9620       1486.214          39.882  
G17  21261554.532    -1301015.9420        563.916          38.344  
G19  21249395.250    -1949226.5250        971.361          41.172  
G23  24734256.531     -412214.0841        -16.462          19.790  
G28  21414188.466     4021794.8090      -2820.587          23.458  
G30  25703904.657     3068308.3801      -2001.949           7.000  
R02  21445885.223     2940572.6111      -2283.014          23.933  
R18  21405857.233     -906173.5030        622.909          36.471  
R16  21706026.830      851660.0261      -1119.774          13.404  
R15  22562410.668     6749685.2840      -3893.547          32.663  
R17  21774162.761     1489720.9751       -802.940          26.418  
R03  20029524.449    -3384190.3000       1510.202          41.596  
R04  22604795.925    -5520577.0100       3965.671          30.449  
J01  37911110.884     1550853.7290       -983.658          32.895  
E011433010199.420     2570732.6861      -1873.977          15.811  
> 2018  4 30 12  5 28.9995649  0 18
G02  23290533.999    -4226543.3290        772.377          32.750  
G03  24411920.279     6505271.8451      -3632.695          13.045  
G06  21178282.980      468300.0200       -429.167          39.366  
G09  23396681.814    -2606223.8300       1485.841          40.560  
G17  21261453.202    -1301580.0840        564.170          39.025  
G19  21249204.882    -1950197.6430        970.983          41.133  
G23  24734289.208     -412197.6651        -16.593          18.089  
G28  21414758.071     4024615.9790      -2821.378          24.327  
G30  25704285.993     3070310.3241      -2001.949           7.000  
R02  21446349.901     2942857.2871      -2284.789          24.270  
R18  21405731.920     -906796.6840        622.850          35.637  
R16  21706207.305      852784.6881      -1121.162          15.071  
R15  22563140.963     6753579.0610      -3893.368          33.062  
R17  21774275.783     1490521.3881       -802.464          24.209  
R03  20029253.436    -3385700.0430       1509.357          42.258  
R04  22604044.646    -5524542.2930       3965.484          34.233  
J01  37911291.059     1551837.0380       -983.277          36.978  
E011732803041.160     2572603.8141      -1865.166          19.268  
> 2018  4 30 12  5 29.9995649  0 18
G02  23290388.000    -4227315.5370        772.559          32.933  
G03  24412608.003     6508904.6881      -3633.373          14.317  
G06  21178366.622      468729.1130       -428.906          38.603  
G09  23396405.106    -2607709.8940       1486.320          38.612  
G17  21261346.176    -1302144.1780        564.265          38.799  
G19  21249018.411    -1951168.8110        971.453          40.143  
G23  24734307.495     -412182.3401        -16.169          19.180  
G28  21415327.677     4027437.2111      -2823.655          23.015  
G30  25704667.029     3072311.6711      -2001.949           7.000  
R02  21446730.637     2945142.5330      -2285.648          25.227  
R18  21405604.209     -907420.0410        623.998          33.705  
R16  21706412.663      853904.9361      -1120.831          17.296  
R15  22563858.666     6757472.6450      -3893.441          33.757  
R17  21774495.830     1491321.9321       -799.643          25.094  
R03  20028971.931    -3387209.3080       1508.941          42.466  
R04  22603279.275    -5528507.7790       3965.223          33.489  
J01  37911482.027     1552820.1660       -982.841          38.611  
E012032595834.920     2574468.5771      -1876.492          19.950  
> 2018  4 30 12  5 30.9995649  0 18
G02  23290246.198    -4228087.7480        772.439          32.697  
G03  24413284.935     6512538.3111      -3633.228          15.160  
G06  21178440.371      469158.0690       -429.257          39.107  
G09  23396120.903    -2609195.7330       1485.864          40.426  
G17  21261234.654    -1302708.3190        564.116          38.707  
G19  21248834.338    -1952140.0530        971.468          41.168  
G23  24734332.978     -412166.7901        -16.652          21.142  
G28  21415833.427     4030258.6071      -2824.812          22.502  
G30  25705046.866     3074312.4311      -2000.974           7.000  
R02  21447176.429     2947428.4040      -2286.154          27.820  
R18  21405490.887     -908043.9730        623.899          35.258  
R16  21706609.927      855025.3821      -1122.155          15.712  
R15  22564596.155     6761366.0770      -3892.993          35.355  
R17  21774650.523     1492122.3210       -800.525          28.152  
R03  20028689.827    -3388717.9320       1508.243          43.268  
R04  22602530.094    -5532473.2460       3964.908          33.188  
J01  37911670.297     1553803.2950       -983.171          38.816  
E012332388637.380     2576337.6911      -1869.907          19.024  
> 2018  4 30 12  5 31.9995649  0 18
G02  23290103.497    -4228859.9130        772.697          32.122  
G03  24413976.556     6516171.0501      -3634.106          15.596  
G06  21178523.413      469587.0420       -429.147          39.041  
G09  23395831.603    -2610681.5100       1485.667          39.964  
G17  21261136.921    -1303272.4220        564.223          39.492  
G19  21248645.469    -1953111.3360        971.335          41.000  
G23  24734321.585     -412150.7761        -19.255          20.063  
G28  21416361.661     4033080.3611      -2819.931          22.170  
G30  25705428.202     3076313.5711      -2000.974           7.000  
R02  21447611.727     2949714.8240      -2286.130          26.857  
R18  21405367.672     -908668.1030        624.256          33.741  
R16  21706821.880      856149.1351      -1120.739          14.456  
R15  22565324.051     6765259.5260      -3893.198          34.573  
R17  21774792.025     1492922.6020       -800.130          27.264  
R03  20028407.722    -3390225.9550       1507.568          42.985  
R04  22601803.997    -5536438.7730       3965.273          33.590  
J01  37911858.866     1554786.2610       -983.037          38.782  
E012632181445.540     2578199.7911      -1857.940          20.098  
> 2018  4 30 12  5 32.9995649  0 18
G02  23289954.500    -4229631.9630        771.629          31.283  
G03  24414663.080     6519802.6201      -3633.106          15.073  
G06  21178602.259      470016.0550       -429.000          38.413  
G09  23395553.096    -2612167.2440       1485.765          38.596  
G17  21261025.698    -1303836.3700        563.682          39.687  
G19  21248461.696    -1954082.5770        971.101          40.526  
G23  24734339.573     -412134.7961        -18.549          18.652  
G28  21416912.680     4035902.3471      -2817.854          21.400  
G30  25705808.039     3078313.5761      -2000.974           7.000  
R02  21448050.624     2952001.9231      -2288.917          25.202  
R18  21405232.466     -909292.2690        624.247          32.227  
R16  21707041.928      857271.0801      -1123.951          14.120  
R15  22566037.557     6769152.9320      -3893.306          34.408  
R17  21774938.024     1493722.7370       -800.357          27.831  
R03  20028131.613    -3391733.3870       1507.209          43.056  
R04  22601052.117    -5540404.3940       3965.554          31.168  
J01  37912037.543     1555769.1940       -983.073          38.449  
E012931974262.990     2580059.8201      -1867.513          20.889  
> 2018  4 30 12  5 33.9995649  0 18
G02  23289812.398    -4230404.0200        771.803          30.380  
G03  24415355.301     6523434.1921      -3633.796          15.570  
G06  21178686.201      470445.3150       -429.448          38.869  
G09  23395262.297    -2613652.7490       1485.350          39.804  
G17  21260919.572    -1304400.1950        563.565          39.442  
G19  21248277.324    -1955053.5510        970.886          40.601  
G23  24734371.351     -412118.3241        -18.576          17.703  
G28  21417447.210     4038724.9841      -2818.831          20.042  
G30  25706188.176     3080313.7281      -1999.998           7.000  
R02  21448470.633     2954290.0141      -2287.949          24.526  
R18  21405144.627     -909916.4680        624.138          32.733  
R16  21707264.374      858395.2061      -1123.818          15.453  
R15  22566775.047     6773046.4550      -3893.712          34.958  
R17  21775053.444     1494523.0540       -799.924          27.967  
R03  20027851.307    -3393239.9360       1505.970          42.983  
R04  22600321.823    -5544369.6940       3964.593          31.328  
J01  37912227.911     1556752.2040       -983.104          37.806  
E013231767074.445     2581927.8731      -1871.172          17.803  
> 2018  4 30 12  5 34.9995649  0 18
G02  23289667.898    -4231175.9550        771.959          30.653  
G03  24416041.526     6527069.8911      -3634.667          18.994  
G06  21178773.740      470874.7990       -429.668          39.882  
G09  23394982.890    -2615138.0610       1485.187          40.829  
G17  21260811.946    -1304963.7390        563.473          40.078  
G19  21248097.748    -1956024.3480        970.571          41.188  
G23  24734356.661     -412101.5031        -16.558          20.970  
G28  21417976.344     4041547.8251      -2821.225          19.906  
G30  25706568.313     3082313.7211      -1999.998           7.000  
R02  21448922.720     2956578.6861      -2288.112          24.030  
R18  21405015.716     -910540.7300        623.979          33.736  
R16  21707454.142      859516.8111      -1126.212          19.032  
R15  22567494.549     6776939.9910      -3893.549          34.696  
R17  21775223.127     1495323.4410       -800.229          28.212  
R03  20027560.209    -3394745.7560       1505.315          43.523  
R04  22599576.539    -5548335.2340       3965.833          30.158  
J01  37912417.679     1557735.2730       -983.203          37.959  
E013531559886.500     2583789.7721      -1864.663          21.699  
> 2018  4 30 12  5 35.9995649  0 18
G02  23289523.398    -4231947.6630        771.620          32.620  
G03  24416743.940     6530703.1641      -3634.323          19.717  
G06  21178862.179      471304.4080       -429.843          40.928  
G09  23394701.985    -2616623.1600       1484.771          40.928  
G17  21260708.218    -1305527.1870        563.110          41.466  
G19  21247908.279    -1956994.9880        970.222          41.252  
G23  24734360.858     -412084.3011        -17.123          21.532  
G28  21418485.691     4044371.2491      -2823.706          22.979  
G30  25706949.049     3084313.1171      -1999.998           7.000  
R02  21449439.562     2958869.3331      -2291.414          20.627  
R18  21404935.372     -911165.1730        624.503          35.712  
R16  21707661.299      860641.9631      -1125.289          19.410  
R15  22568235.636     6780833.5880      -3893.759          33.338  
R17  21775432.082     1496123.7121       -801.372          27.485  
R03  20027284.999    -3396250.8550       1504.503          43.314  
R04  22598855.838    -5552300.4510       3964.823          29.767  
J01  37912597.855     1558718.3530       -983.297          37.303  
E013831352683.570     2585651.2901      -1880.852          21.713  
> 2018  4 30 12  5 36.9995649  0 18
G02  23289380.697    -4232719.1830        771.581          32.414  
G03  24417443.656     6534338.1841      -3635.601          17.879  
G06  21178936.228      471734.0950       -429.753          40.466  
G09  23394419.880    -2618108.0300       1484.718          40.871  
G17  21260598.494    -1306090.4030        563.082          41.989  
G19  21247729.603    -1957965.4950        970.440          41.402  
G23  24734320.087     -412066.7271        -18.705          20.681  
G28  21419047.202     4047195.0911      -2824.846          23.008  
G30  25707329.186     3086311.9261      -1999.022           7.000  
R02  21449878.458     2961164.8641      -2292.585          18.130  
R18  21404819.352     -911789.6540        624.407          34.930  
R16  21707923.617      861768.5881      -1125.474          18.530  
R15  22568963.831     6784727.2890      -3893.319          33.581  
R17  21775534.011     1496924.1101       -801.912          26.901  
R03  20026994.500    -3397755.1080       1503.867          43.152  
R04  22598102.459    -5556265.6710       3965.398          28.940  
J01  37912787.024     1559701.5290       -983.303          37.604  
E014131145501.620     2587518.8651      -1865.913          21.910  
> 2018  4 30 12  5 37.9995649  0 18
G02  23289230.501    -4233490.7100        771.484          32.044  
G03  24418122.086     6537973.3191      -3636.060          19.176  
G06  21179018.970      472163.9000       -429.665          40.037  
G09  23394142.872    -2619592.8420       1484.669          41.343  
G17  21260495.665    -1306653.5260        563.119          41.959  
G19  21247542.832    -1958935.9420        970.439          40.595  
G23  24734322.185     -412048.7241        -22.802          19.302  
G28  21419542.160     4050019.3061      -2824.119          22.194  
G30  25707709.023     3088310.3471      -1999.022           7.000  
R02  21450302.065     2963464.1591      -2293.062          14.838  
R18  21404706.330     -912414.3180        624.811          34.674  
R16  21708176.042      862895.7151      -1126.892          18.992  
R15  22569679.436     6788621.0270      -3893.833          33.364  
R17  21775698.598     1497724.3541       -800.643          25.120  
R03  20026713.295    -3399258.7500       1503.232          43.369  
R04  22597393.750    -5560230.9080       3965.219          27.954  
J01  37912977.092     1560684.6380       -983.168          37.638  
E014430938311.875     2589384.7041      -1863.718          22.814  
> 2018  4 30 12  5 38.9995649  0 18
G02  23289087.500    -4234262.1000        771.377          31.615  
G03  24418806.812     6541608.4601      -3635.109          16.477  
G06  21179099.315      472593.9170       -429.984          39.398  
G09  23393859.268    -2621077.4860       1484.547          41.913  
G17  21260386.541    -1307216.4620        563.018          40.565  
G19  21247355.162    -1959906.1940        970.160          40.291  
G23  24734356.062     -412030.4621        -20.821          18.588  
G28  21420079.687     4052843.8321      -2825.792          19.996  
G30  25708089.160     3090308.1801      -1998.047           7.000  
R02  21450686.998     2965760.0641      -2293.950          11.536  
R18  21404559.732     -913039.0250        624.572          34.468  
R16  21708384.698      864024.6281      -1128.264          17.285  
R15  22570413.628     6792514.7880      -3893.976          34.860  
R17  21775806.523     1498524.7260       -800.261          26.204  
R03  20026432.090    -3400761.6820       1502.572          43.405  
R04  22596664.954    -5564196.0690       3965.507          27.826  
J01  37913160.565     1561667.7880       -983.124          38.566  
E014730731140.720     2591239.6471      -1854.678          21.474  
> 2018  4 30 12  5 39.9995649  0 18
G02  23288929.510    -4235033.5110        771.717          31.234  
G03  24419496.634     6545239.2011      -3634.114          14.073  
G06  21179182.057      473023.8570       -429.931          40.298  
G09  23393580.461    -2622562.1090       1484.571          42.240  
G17  21260276.217    -1307779.3940        563.116          40.602  
G19  21247168.092    -1960876.5530        970.185          40.487  
G23  24734395.634     -412012.0611        -19.631          19.800  
G28  21420623.511     4055668.5291      -2823.754          18.817  
G30  25708469.297     3092306.3931      -1998.047           7.000  
R02  21451136.387     2968052.8541      -2295.267          12.840  
R18  21404451.806     -913664.0210        624.891          35.726  
R16  21708625.132      865149.2491      -1129.125          15.915  
R15  22571129.232     6796408.3890      -3893.660          34.376  
R17  21775958.817     1499324.9580       -799.938          26.855  
R03  20026155.681    -3402264.0040       1502.068          43.821  
R04  22595954.746    -5568161.2600       3965.576          27.633  
J01  37913353.631     1562650.8000       -982.865          38.703  
E015030523952.770     2593105.3971      -1855.044          20.168  
> 2018  4 30 12  5 40.9995649  0 18
G02  23288789.207    -4235804.6950        771.026          31.722  
G03  24420181.660     6548874.7841      -3633.343          17.375  
G06  21179265.100      473454.0680       -430.377          40.865  
G09  23393296.558    -2624046.4290       1484.136          42.449  
G17  21260173.688    -1308342.0680        562.534          40.966  
G19  21246987.617    -1961846.5170        969.883          40.822  
G23  24734377.647     -411993.2131        -19.086          21.229  
G28  21421146.049     4058489.7121      -2824.830          18.960  
G30  25708849.134     3094303.4721      -1998.047           7.000  
R02  21451597.468     2970343.2641      -2295.205          16.643  
R18  21404333.089     -914288.9780        624.932          36.691  
R16  21708828.691      866273.3111      -1127.886          17.284  
R15  22571854.131     6800302.1700      -3893.994          34.968  
R17  21776115.609     1500125.2960       -800.326          27.906  
R03  20025877.174    -3403765.4930       1500.830          44.597  
R04  22595185.778    -5572126.2250       3964.608          28.724  
J01  37913534.706     1563633.9670       -983.371          38.989  
E015330316764.530     2594970.8961      -1879.312          20.052  
> 2018  4 30 12  5 41.9995649  0 18
G02  23288637.512    -4236575.6100        770.773          31.518  
G03  24420857.692     6552510.6751      -3633.393          14.775  
G06  21179343.645      473884.6220       -430.764          40.404  
G09  23393008.457    -2625530.3920       1483.992          42.525  
G17  21260061.266    -1308904.3550        562.227          40.956  
G19  21246797.248    -1962816.2800        969.596          40.520  
G23  24734442.102     -411973.7831        -18.766          22.341  
G28  21421667.388     4061307.1761      -2826.091          17.754  
G30  25709229.271     3096300.6961      -1997.071           7.000  
R02  21451966.513     2972633.4291      -2297.241          16.543  
R18  21404207.176     -914913.8080        624.909          36.407  
R16  21709068.824      867406.3731      -1127.646          14.621  
R15  22572575.131     6804196.1870      -3893.866          34.238  
R17  21776233.727     1500925.8710       -800.358          27.967  
R03  20025596.568    -3405266.0840       1500.141          44.318  
R04  22594473.172    -5576090.9470       3963.999          28.970  
J01  37913721.177     1564617.3130       -983.429          38.770  
E015630109581.080     2596836.7181      -1872.590          20.093  
> 2018  4 30 12  5 42.9995649  0 18
G02  23288487.316    -4237346.2990        770.689          31.662  
G03  24421551.712     6556146.7561      -3634.209          16.347  
G06  21179425.189      474315.3970       -430.780          40.189  
G09  23392728.451    -2627014.0250       1483.513          42.019  
G17  21259955.439    -1309466.3800        562.029          41.071  
G19  21246610.777    -1963785.7200        969.186          40.307  
G23  24734452.295     -411953.9981        -19.943          23.117  
G28  21422193.824     4064133.8661      -2828.618          19.400  
G30  25709609.108     3098297.7621      -1997.071           7.000  
R02  21452401.511     2974928.2421      -2297.686          13.184  
R18  21404107.645     -915538.6550        624.666          35.805  
R16  21709238.207      868530.9281      -1128.331          13.761  
R15  22573303.927     6808090.4180      -3894.513          32.905  
R17  21776399.213     1501726.5630       -800.815          27.530  
R03  20025319.260    -3406765.7990       1499.283          44.054  
R04  22593707.502    -5580055.5320       3964.171          27.913  
J01  37913912.744     1565600.8350       -983.550          38.752  
E015929902392.234     2598711.9991      -1860.684          20.390  
> 2018  4 30 12  5 43.9995649  0 18
G02  23288350.910    -4238116.7570        770.294          34.765  
G03  24422254.425     6559783.1221      -3635.140          17.590  
G06  21179505.833      474746.4480       -431.314          40.023  
G09  23392440.650    -2628497.4260       1483.010          40.791  
G17  21259849.013    -1310028.1700        561.552          41.552  
G19  21246425.506    -1964755.0090        969.019          40.457  
G23  24734552.426     -411933.6971        -20.664          21.050  
G28  21422770.025     4066960.7571      -2827.739          21.995  
G30  25709988.945     3100294.2321      -1997.071           7.000  
R02  21452789.443     2977221.8131      -2298.727          14.116  
R18  21403984.130     -916163.4830        624.780          34.694  
R16  21709416.284      869664.6901      -1131.474          13.291  
R15  22574045.314     6811984.6990      -3894.364          31.455  
R17  21776559.901     1502527.3360       -800.971          27.610  
R03  20025041.352    -3408264.6960       1498.375          44.027  
R04  22592962.518    -5584020.0580       3964.183          29.341  
J01  37914094.419     1566584.4590       -983.757          38.097  
E016229695211.484     2600574.8521      -1850.913          20.111  
> 2018  4 30 12  5 44.9995649  0 18
G02  23288196.817    -4238886.9740        769.872          34.956  
G03  24422957.438     6563419.5681      -3634.811          16.899  
G06  21179595.471      475177.6440       -430.959          40.092  
G09  23392158.246    -2629980.5580       1483.073          40.714  
G17  21259737.490    -1310589.6560        561.357          41.134  
G19  21246240.234    -1965723.9860        969.236          39.759  
G23  24734552.725     -411912.9091        -18.821          20.376  
G28  21423298.859     4069788.3980      -2828.317          23.675  
G30  25710369.082     3102290.1141      -1996.096           7.000  
R02  21453216.347     2979507.3021      -2293.460          14.560  
R18  21403852.221     -916788.3470        624.869          34.738  
R16  21709589.564      870796.6881      -1131.252          12.772  
R15  22574785.201     6815879.2680      -3894.926          31.574  
R17  21776658.533     1503328.1750       -800.704          26.599  
R03  20024753.552    -3409762.7410       1497.660          43.658  
R04  22592213.336    -5587984.2750       3964.551          28.406  
J01  37914282.089     1567568.2170       -983.705          37.572  
E016529488019.945     2602451.8541      -1879.632          21.255  
> 2018  4 30 12  5 45.9995649  0 18
G02  23288048.420    -4239657.0390        769.940          32.333  
G03  24423652.058     6567060.9661      -3636.029          13.236  
G06  21179679.713      475609.2230       -431.757          39.815  
G09  23391876.741    -2631463.5030       1483.118          41.900  
G17  21259631.363    -1311150.8950        561.260          40.705  
G19  21246064.256    -1966692.6750        968.701          39.768  
G23  24734550.927     -411891.7651        -18.116          19.826  
G28  21423854.074     4072616.1681      -2826.597          21.962  
G30  25710748.919     3104285.6081      -1996.096           7.000  
R02  21453672.332     2981802.3691      -2296.766          16.096  
R18  21403753.890     -917413.1120        624.539          35.934  
R16  21709800.918      871927.1791      -1131.754          13.899  
R15  22575505.003     6819773.8750      -3894.404          34.270  
R17  21776792.840     1504129.1851       -802.325          24.125  
R03  20024471.747    -3411259.9780       1496.891          43.912  
R04  22591495.033    -5591948.4000       3964.260          28.365  
J01  37914473.656     1568552.0520       -983.659          38.763  
E016829280846.390     2604321.5971      -1870.135          22.009  
> 2018  4 30 12  5 46.9995649  0 18
G02  23287899.722    -4240427.1420        769.958          33.253  
G03  24424341.880     6570697.0541      -3636.521          16.008  
G06  21179759.757      476040.7140       -431.538          40.547  
G09  23391594.636    -2632946.3440       1482.554          41.367  
G17  21259528.834    -1311712.1530        561.207          40.647  
G19  21245880.183    -1967661.4860        968.840          40.724  
G23  24734468.784     -411870.1481        -20.069          18.661  
G28  21424400.896     4075444.3301      -2827.537          22.611  
G30  25711129.056     3106280.5151      -1995.120           7.000  
R02  21454101.934     2984102.4161      -2292.570          14.536  
R18  21403639.369     -918038.1500        625.226          36.041  
R16  21710044.049      873059.6531      -1134.078          14.836  
R15  22576231.100     6823668.3730      -3894.632          32.485  
R17  21776943.036     1504930.0731       -800.556          23.414  
R03  20024190.541    -3412756.6060       1496.248          43.948  
R04  22590757.244    -5595912.6890       3964.086          27.674  
J01  37914658.628     1569535.8080       -983.955          38.217  
E017129073683.625     2606196.4921      -1881.614          22.049  
> 2018  4 30 12  5 47.9995649  0 18
G02  23287764.216    -4241197.2380        769.827          34.567  
G03  24425032.602     6574335.4671      -3637.946          17.560  
G06  21179843.100      476472.2910       -431.629          40.748  
G09  23391310.433    -2634429.1180       1482.642          40.949  
G17  21259416.712    -1312273.3230        561.107          40.725  
G19  21245695.211    -1968630.2040        968.565          40.138  
G23  24734403.729     -411848.6091        -20.559          18.840  
G28  21424945.319     4078272.9190      -2828.539          23.954  
G30  25711507.993     3108275.8011      -1995.120           7.000  
R02  21454520.145     2986397.3501      -2296.888          17.735  
R18  21403516.454     -918663.4830        625.412          35.247  
R16  21710240.114      874192.2771      -1134.272          18.419  
R15  22576964.693     6827562.8620      -3894.856          32.408  
R17  21777124.111     1505730.9471       -801.142          23.482  
R03  20023918.030    -3414252.5110       1495.194          44.234  
R04  22590001.467    -5599876.8620       3963.914          28.362  
J01  37914843.600     1570519.4700       -983.772          37.464  
E017428866497.780     2608065.0981      -1878.672          22.146  
> 2018  4 30 12  5 48.9995649  0 18
G02  23287613.720    -4241967.2100        769.398          35.016  
G03  24425730.519     6577973.4091      -3638.272          18.148  
G06  21179921.046      476903.8210       -431.577          41.039  
G09  23391029.527    -2635911.7460       1482.423          41.017  
G17  21259316.282    -1312834.4340        560.951          41.639  
G19  21245512.338    -1969598.8260        968.478          40.376  
G23  24734386.640     -411826.8201        -21.251          18.217  
G28  21425475.952     4081101.7300      -2828.663          23.279  
G30  25711887.830     3110269.9521      -1995.120           7.000  
R02  21454930.261     2988700.1981      -2296.775          20.547  
R18  21403405.231     -919288.9480        625.602          35.372  
R16  21710422.387      875326.5441      -1135.627          18.255  
R15  22577691.090     6831457.2470      -3894.596          34.236  
R17  21777275.806     1506531.6110       -800.668          26.185  
R03  20023633.227    -3415747.8560       1494.948          44.541  
R04  22589278.368    -5603841.0760       3963.751          29.995  
J01  37915030.071     1571503.1070       -983.800          38.419  
E017728659296.340     2609938.2971      -1870.227          22.777  
> 2018  4 30 12  5 49.9995649  0 18
G02  23287469.820    -4242737.0210        769.535          32.656  
G03  24426415.544     6581604.5701      -3637.229          15.616  
G06  21180008.885      477335.6690       -432.085          41.111  
G09  23390739.628    -2637394.2120       1481.991          39.397  
G17  21259211.054    -1313395.2160        560.163          40.979  
G19  21245326.766    -1970567.2020        967.668          39.275  
G23  24734374.049     -411807.3971        -21.707          16.368  
G28  21426012.280     4083931.0291      -2829.292          22.833  
G30  25712266.768     3112264.2501      -1994.144           7.000  
R02  21455332.882     2991008.2581      -2311.015          29.984  
R18  21403281.117     -919914.2840        624.961          33.707  
R16  21710613.655      876461.3061      -1136.116          18.075  
R15  22578420.485     6835351.8190      -3894.901          35.362  
R17  21777429.000     1507332.4501       -800.327          25.474  
R03  20023353.221    -3417242.4890       1494.235          43.544  
R04  22588515.996    -5607805.2670       3963.811          31.734  
J01  37915221.338     1572486.8150       -983.981          39.314  
E018028452095.805     2611807.5351      -1872.971          20.888  
> 2018  4 30 12  5 50.9995649  0 18
G02  23287328.618    -4243506.4630        769.228          31.762  
G03  24427101.170     6585237.2141      -3633.991          10.550  
G06  21180085.632      477767.9450       -432.639          39.627  
G09  23390465.618    -2638876.2240       1481.647          41.522  
G17  21259098.632    -1313955.6260        560.307          39.942  
G19  21245145.392    -1971535.2390        967.810          39.211  
G23  24734373.749     -411792.2831        -20.884          15.789  
G28  21426577.089     4086760.9821      -2826.068          21.765  
G30  25712646.605     3114257.4261      -1994.144           7.000  
R02  21455812.850     2993323.1171      -2315.819          25.455  
R18  21403160.600     -920539.5260        625.051          34.722  
R16  21710811.818      877597.2701      -1137.717          17.274  
R15  22579151.379     6839246.7440      -3895.572          35.242  
R17  21777572.600     1508133.5570       -801.056          26.198  
R03  20023084.007    -3418736.0180       1492.877          43.913  
R04  22587796.794    -5611768.9570       3962.953          30.889  
J01  37915404.512     1573470.8300       -984.254          39.810  
E018328244930.945     2613678.7781      -1871.263          20.834  
> 2018  4 30 12  5 51.9995649  0 18
G02  23287175.124    -4244275.3680        768.427          31.252  
G03  24427799.986     6588871.8271      -3634.695          10.814  
G06  21180167.475      478200.6690       -433.045          39.830  
G09  23390176.618    -2640357.6080       1480.924          41.574  
G17  21258994.604    -1314515.4550        559.427          39.814  
G19  21244958.921    -1972502.7460        967.390          39.317  
G23  24734371.951     -411778.0501        -21.041          16.278  
G28  21427124.510     4089591.8251      -2830.366          19.719  
G30  25713025.543     3116250.7481      -1993.169           7.000  
R02  21456288.920     2995643.0831      -2317.232          23.198  
R18  21403056.572     -921164.5790        625.210          36.351  
R16  21711048.354      878732.9911      -1138.247          15.629  
R15  22579879.575     6843142.0010      -3895.570          35.192  
R17  21777722.197     1508935.2321       -802.416          25.693  
R03  20022803.402    -3420228.4080       1491.835          43.841  
R04  22587072.195    -5615732.2490       3962.666          29.160  
J01  37915595.180     1574455.2720       -984.764          39.631  
E018628037719.914     2615550.4831      -1863.840          19.099  
> 2018  4 30 12  5 52.9995649  0 18
G02  23287019.832    -4245043.9470        768.537          31.075  
G03  24428506.597     6592505.7521      -3635.925           9.954  
G06  21180248.419      478633.8820       -433.511          38.940  
G09  23389897.811    -2641838.6020       1480.879          40.234  
G17  21258889.377    -1315074.8570        559.056          40.743  
G19  21244774.249    -1973469.8350        966.668          38.561  
G23  24734361.758     -411759.9661        -21.815          15.438  
G28  21427632.059     4092423.3191      -2836.518          21.266  
G30  25713405.380     3118243.9121      -1993.169           7.000  
R02  21456656.766     2997958.6281      -2319.314          20.503  
R18  21402921.666     -921789.4590        624.955          37.621  
R16  21711270.500      879875.1561      -1139.985          14.445  
R15  22580602.974     6847037.5600      -3895.699          34.283  
R17  21777920.060     1509736.9991       -804.098          26.765  
R03  20022516.200    -3421719.7640       1490.661          42.608  
R04  22586301.729    -5619695.2520       3962.797          32.117  
J01  37915777.753     1575440.0080       -984.965          39.326  
E018927830555.950     2617418.5231      -1870.318          21.226  
> 2018  4 30 12  5 53.9995649  0 18
G02  23286877.430    -4245811.9590        767.642          32.484  
G03  24429199.117     6596141.2531      -3636.911           9.822  
G06  21180334.759      479067.5730       -433.683          39.555  
G09  23389612.108    -2643318.9610       1480.104          41.309  
G17  21258789.546    -1315633.6960        558.500          40.565  
G19  21244588.378    -1974436.3760        966.133          38.467  
G23  24734283.512     -411742.8401        -22.459          15.328  
G28  21428171.386     4095255.2421      -2836.846          19.826  
G30  25713784.318     3120236.4791      -1993.169           7.000  
R02  21457074.377     3000260.9891      -2304.816          22.331  
R18  21402813.141     -922413.9820        624.702          34.960  
R16  21711514.231      881010.9291      -1140.804          14.484  
R15  22581334.767     6850933.6120      -3896.472          35.041  
R17  21778035.480     1510539.2640       -802.121          28.349  
R03  20022230.498    -3423209.9310       1489.635          43.276  
R04  22585563.640    -5623657.7760       3962.080          33.137  
J01  37915970.520     1576425.1610       -985.252          39.394  
E019227623375.200     2619284.5501      -1867.849          20.716  
> 2018  4 30 12  5 54.9995649  0 18
G02  23286729.932    -4246579.4730        767.221          32.678  
G03  24429891.638     6599783.5791      -3638.303          11.843  
G06  21180413.905      479501.9250       -434.810          39.333  
G09  23389336.299    -2644798.7970       1479.639          41.354  
G17  21258679.822    -1316191.9080        557.811          40.781  
G19  21244409.701    -1975402.2860        965.806          38.859  
G23  24734232.547     -411704.4261        -23.204          14.673  
G28  21428734.696     4098088.3711      -2835.612          20.515  
G30  25714164.155     3122228.4591      -1992.193           7.000  
R02  21457518.669     3002567.8991      -2301.779          29.637  
R18  21402692.025     -923038.0300        623.976          33.808  
R16  21711778.349      882149.1261      -1138.723          15.211  
R15  22582080.051     6854830.1660      -3896.739          35.913  
R17  21778200.066     1511342.0650       -802.762          27.857  
R03  20021963.983    -3424698.9640       1488.357          43.539  
R04  22584841.440    -5627619.7700       3961.363          31.736  
J01  37916154.892     1577410.7750       -985.714          39.717  
E019527416180.960     2621154.6111      -1872.391          20.711  
> 2018  4 30 12  5 55.9995649  0 18
G02  23286592.627    -4247346.5990        766.732          32.656  
G03  24430584.159     6603419.4041      -3638.534          12.766  
G06  21180492.150      479936.6470       -435.001          39.203  
G09  23389053.595    -2646278.1490       1478.991          41.678  
G17  21258568.599    -1316749.7030        557.326          40.307  
G19  21244228.926    -1976367.8120        965.211          39.441  
G23  24734431.310     -411680.1701        -23.815          14.130  
G28  21429280.618     4100922.0801      -2835.285          19.061  
G30  25714543.092     3124220.8181      -1992.193           7.000  
R02  21457946.473     3004873.9940      -2306.679          30.149  
R18  21402581.701     -923661.9280        623.915          34.184  
R16  21711977.111      883285.7021      -1138.001          15.035  
R15  22582798.054     6858727.0410      -3896.880          36.094  
R17  21778373.945     1512144.9961       -801.328          26.621  
R03  20021684.576    -3426187.0220       1487.395          43.349  
R04  22584073.371    -5631581.4320       3961.209          30.206  
J01  37916342.262     1578396.6850       -986.081          39.747  
E019827208977.130     2623028.6961      -1870.669          21.160  
> 2018  4 30 12  5 56.9995649  0 18
G02  23286448.427    -4248113.3660        766.640          33.198  
G03  24431261.989     6607055.5801      -3635.727          13.523  
G06  21180576.692      480371.8880       -435.199          39.930  
G09  23388773.589    -2647757.0670       1478.347          40.902  
G17  21258462.473    -1317307.0420        556.840          39.709  
G19  21244044.254    -1977332.9240        964.953          39.856  
G23  24734433.708     -411652.9521        -23.427          14.171  
G28  21429824.741     4103756.5631      -2834.993          20.194  
G30  25714922.030     3126212.0431      -1992.193           7.000  
R02  21458374.876     3007181.0410      -2307.673          30.277  
R18  21402456.987     -924285.5420        623.671          34.579  
R16  21712183.068      884428.8081      -1142.502          18.822  
R15  22583545.737     6862624.1790      -3897.223          36.990  
R17  21778516.347     1512948.3310       -802.306          26.426  
R03  20021403.071    -3427674.0390       1486.448          43.724  
R04  22583340.679    -5635542.7010       3960.862          30.247  
J01  37916533.830     1579382.8730       -986.219          40.303  
E010127001804.480     2624896.4801      -1873.779          22.024  
> 2018  4 30 12  5 57.9995649  0 18
G02  23286312.921    -4248879.5711        765.485          31.331  
G03  24431969.799     6610693.3001      -3638.078          12.663  
G06  21180675.024      480807.4161       -437.733          36.112  
G09  23388485.788    -2649235.4380       1478.452          38.125  
G17  21258365.040    -1317864.0290        556.910          38.721  
G19  21243876.370    -1978297.9601        962.532          34.900  
G23  24734474.180     -411629.5801        -24.968          13.311  
G28  21430350.277     4106591.8291      -2835.692          19.471  
G30  25715302.167     3128204.1821      -1991.218           7.000  
R02  21458803.280     3009489.1730      -2308.284          29.794  
R18  21402356.257     -924909.2570        623.455          32.281  
R16  21712421.403      885573.5161      -1141.221          18.822  
R15  22584274.532     6866521.8310      -3897.306          37.454  
R17  21778670.140     1513751.9410       -803.455          29.676  
R03  20021121.866    -3429160.0350       1485.443          37.783  
R04  22582577.707    -5639503.6630       3961.427          32.803  
J01  37916715.204     1580369.4530       -986.488          37.481  
E010426794606.336     2626767.1671      -1873.580          20.218  
> 2018  4 30 12  5 58.9995649  0 18
G02  23286150.134    -4249647.9220        770.374          35.392  
G03  24432662.320     6614332.0031      -3639.993          12.498  
G06  21180735.882      481243.0140       -434.894          37.808  
G09  23388219.573    -2650714.1880       1478.552          38.105  
G17  21258246.023    -1318422.2230        560.316          38.149  
G19  21243672.811    -1979263.9240        966.043          38.659  
G23  24734433.108     -411604.8101        -25.298          19.641  
G28  21430887.206     4109426.9231      -2834.807          23.389  
G30  25715681.104     3130196.5771      -1992.193           7.000  
R02  21459237.079     3011796.6121      -2308.376          30.086  
R18  21402221.950     -925533.4651        623.777          32.802  
R16  21712604.277      886718.9101      -1142.904          23.036  
R15  22584996.432     6870416.8820      -3891.041          35.136  
R17  21778807.745     1514553.8121       -800.681          30.335  
R03  20020855.050    -3430645.2220       1484.991          40.988  
R04  22581845.314    -5643466.1190       3964.905          32.736  
J01  37916911.269     1581355.2140       -982.566          35.624  
E010726587418.690     2628641.4641      -1875.379          21.437  
> 2018  4 30 12  5 59.9995649  0 18
G02  23286013.428    -4250417.9780        768.967          37.464  
G03  24433354.840     6617969.0981      -3637.949          12.579  
G06  21180830.916      481678.3441       -435.414          37.320  
G09  23387930.872    -2652193.8840       1478.734          37.853  
G17  21258144.093    -1318980.5701        560.057          37.409  
G19  21243494.735    -1980230.6151        966.936          38.620  
G23  24734396.234     -411581.7641        -23.052          18.803  
G28  21431396.853     4112260.6741      -2835.070          22.624  
G30  25716060.042     3132188.9361      -1992.193           7.000  
R02  21459632.506     3014103.8261      -2305.365          29.507  
R18  21402106.230     -926158.4001        624.836          35.720  
R16  21712776.358      887859.3791      -1138.015          24.377  
R15  22585722.230     6874309.2821      -3890.596          33.654  
R17  21778990.619     1515351.4211       -797.929          28.061  
R03  20020578.042    -3432130.8990       1484.889          39.899  
R04  22581126.411    -5647431.1661       3966.629          35.406  
J01  37917095.341     1582340.2711       -985.714          33.862  
E011026380226.250     2630522.0661      -1875.516          21.760  
> 2018  4 30 12  6  0.9995649  0 18
G02  23285866.230    -4251188.4020        768.239          35.525  
G03  24434047.661     6621613.6291      -3640.760          12.412  
G06  21180915.757      482112.5411       -437.529          36.825  
G09  23387652.665    -2653673.5630       1479.928          38.598  
G17  21258036.168    -1319540.8931        556.109          34.477  
G19  21243318.157    -1981195.6911        964.007          38.088  
G23  24734441.203     -411554.9921        -24.331          17.502  
G28  21431959.863     4115097.7931      -2839.067          25.141  
G30  25716438.680     3134180.1611      -1992.193           7.000  
R02  21460091.788     3016410.1201      -2303.911          35.228  
R18  21401982.716     -926784.8621        625.300          35.239  
R16  21713050.368      889000.2091      -1139.129          24.985  
R15  22586457.021     6878200.8750      -3891.780          34.614  
R17  21779143.213     1516144.8261       -800.161          28.209  
R03  20020299.535    -3433614.8121       1483.363          38.987  
R04  22580370.934    -5651388.5571       3960.482          33.254  
J01  37917286.609     1583324.4271       -981.034          34.351  
E011326173066.190     2632384.0581      -1881.904          23.186  
> 2018  4 30 12  6  1.9995649  0 18
G02  23285700.445    -4251959.4751        768.739          33.593  
G03  24434740.181     6625253.4371      -3641.409          12.468  
G06  21181000.598      482549.4201       -436.199          35.772  
G09  23387373.258    -2655153.1310       1479.947          38.466  
G17  21257930.341    -1320099.8261        560.388          36.942  
G19  21243125.390    -1982162.0251        966.038          35.590  
G23  24734420.517     -411526.6711        -25.524          20.345  
G28  21432482.701     4117938.7751      -2839.026          23.268  
G30  25716817.618     3136171.5321      -1991.218           7.000  
R02  21460523.189     3018718.8291      -2304.999          33.770  
R18  21401880.786     -927411.1181        625.946          36.353  
R16  21713231.443      890142.0061      -1143.138          24.542  
R15  22587172.326     6882093.0641      -3892.566          31.840  
R17  21779271.824     1516943.1021       -801.506          28.175  
R03  20020013.833    -3435098.5250       1482.014          39.348  
R04  22579629.848    -5655349.5831       3964.970          31.977  
J01  37917467.683     1584309.3850       -985.484          34.508  
E011625965888.130     2634259.7591      -1878.291          21.482  
> 2018  4 30 12  6  2.9995649  0 18
G02  23285574.232    -4252724.8781        768.874          33.826  
G03  24435515.744     6628887.9971      -3641.414          13.063  
G06  21181076.146      482987.2091       -437.530          36.671  
G09  23387089.055    -2656632.4320       1477.738          39.630  
G17  21257828.112    -1320657.5421        557.543          33.853  
G19  21242944.615    -1983128.0491        967.509          35.944  
G23  24734428.312     -411501.5731        -26.765          20.131  
G28  21433039.416     4120770.4081      -2833.418          22.836  
G30  25717196.256     3138160.8181      -1991.218           7.000  
R02  21460964.483     3021028.7161      -2308.523          31.214  
R18  21401771.062     -928034.6001        622.210          33.802  
R16  21713444.895      891287.8471      -1144.041          24.988  
R15  22587923.606     6885985.5421      -3896.030          30.768  
R17  21779420.821     1517747.8641       -799.984          28.848  
R03  20019735.326    -3436581.6160       1482.348          38.847  
R04  22578913.643    -5659312.2261       3961.301          30.760  
J01  37917655.353     1585294.3820       -985.278          34.180  
E011925758698.984     2636129.9821      -1882.224          20.830  
> 2018  4 30 12  6  3.9995649  0 18
G02  23285420.139    -4253494.2420        768.412          39.221  
G03  24436216.659     6632525.7731      -3638.765          12.905  
G06  21181156.490      483423.5161       -438.200          35.608  
G09  23386810.848    -2658110.9790       1476.968          39.752  
G17  21257713.591    -1321216.0871        556.104          33.929  
G19  21242756.945    -1984093.9321        963.646          35.571  
G23  24734421.117     -411469.0431        -28.418          20.836  
G28  21433608.721     4123606.2271      -2837.298          21.326  
G30  25717573.694     3140149.4581      -1989.266           7.000  
R02  21461381.795     3023339.0151      -2308.939          33.944  
R18  21401666.135     -928657.9871        620.320          31.344  
R16  21713668.540      892431.9180      -1145.153          30.267  
R15  22588647.904     6889883.2851      -3894.236          29.971  
R17  21779560.824     1518547.1791       -799.936          29.885  
R03  20019470.309    -3438063.2250       1482.529          38.326  
R04  22578114.397    -5663277.3941       3959.826          28.791  
J01  37917853.216     1586279.5051       -987.213          32.858  
E012225551481.960     2638002.4241      -1881.340          20.071  
> 2018  4 30 12  6  4.9995649  0 18
G02  23285266.945    -4254261.3691        770.005          35.135  
G03  24436907.981     6636163.6441      -3639.136          12.803  
G06  21181252.124      483860.5501       -438.784          35.110  
G09  23386522.148    -2659589.7001       1477.442          36.364  
G17  21257605.666    -1321774.8840        559.073          36.613  
G19  21242572.873    -1985059.7481        964.393          35.087  
G23  24734397.733     -411443.5691        -27.241          21.565  
G28  21434103.079     4126448.2741      -2835.435          22.810  
G30  25717952.932     3142138.4981      -1988.291           7.000  
R02  21461818.892     3025646.4481      -2309.455          31.934  
R18  21401554.612     -929276.6531        623.174          30.205  
R16  21713904.177      893576.4051      -1144.514          29.435  
R15  22589381.497     6893776.3061      -3893.274          28.079  
R17  21779748.194     1519349.8481       -800.853          27.215  
R03  20019184.307    -3439543.7461       1481.762          36.253  
R04  22577418.578    -5667231.1031       3955.350          28.079  
J01  37918033.991     1587264.7291       -986.118          31.009  
E012525344323.695     2639873.2581      -1862.940          20.431  
> 2018  4 30 12  6  5.9995649  0 18
G02  23285127.841    -4255031.4971        768.320          34.174  
G03  24437566.325     6639807.5861      -3640.225          13.913  
G06  21181326.773      484297.2951       -434.802          33.002  
G09  23386241.842    -2661068.2950       1478.499          37.457  
G17  21257502.237    -1322329.2951        558.132          37.004  
G19  21242401.092    -1986024.5711        963.158          34.823  
G23  24734437.006     -411416.6441        -25.561          20.229  
G28  21434638.209     4129286.2731      -2838.540          21.672  
G30  25718331.869     3144127.9431      -1989.266           7.000  
R02  21462256.289     3027954.7571      -2308.856          30.745  
R18  21401428.999     -929900.4951        622.788          31.701  
R16  21714100.541      894721.1671      -1145.441          26.162  
R15  22590077.914     6897673.2091      -3895.385          24.940  
R17  21779848.325     1520150.7831       -803.849          29.143  
R03  20018912.695    -3441024.2611       1480.268          35.733  
R04  22576676.592    -5671185.4031       3956.032          28.106  
J01  37918223.460     1588249.9431       -984.965          33.158  
E012825137150.140     2641743.7751      -1853.123          21.533  
> 2018  4 30 12  6  6.9995649  0 18
G02  23284991.136    -4255801.4861        769.498          38.400  
G03  24438262.443     6643444.8841      -3639.127          14.493  
G06  21181408.016      484734.4651       -437.041          35.052  
G09  23385963.934    -2662546.5341       1478.292          38.253  
G17  21257391.914    -1322885.8671        558.728          37.842  
G19  21242205.327    -1986986.6721        967.023          36.090  
G23  24734440.003     -411394.9851        -27.952          21.405  
G28  21435191.925     4132125.1851      -2842.946          22.101  
G30  25718710.807     3146118.1671      -1989.266           7.000  
R02  21462687.990     3030261.1081      -2311.459          30.333  
R18  21401300.088     -930523.2341        624.692          29.942  
R16  21714305.299      895866.6311      -1147.430          26.229  
R15  22590878.061     6901568.3091      -3899.198          23.360  
R17  21780036.894     1520951.5421       -806.010          29.837  
R03  20018636.886    -3442504.0561       1478.423          36.980  
R04  22575948.396    -5675139.9581       3959.069          28.238  
J01  37918419.524     1589236.0041       -987.306          30.706  
E013124929971.790     2643623.6101      -1881.218          19.955  
> 2018  4 30 12  6  7.9995649  0 18
G02  23284814.858    -4256571.5440        771.653          35.472  
G03  24438955.563     6647080.1791      -3638.888          14.330  
G06  21181503.650      485173.3511       -435.014          32.906  
G09  23385681.230    -2664025.1880       1478.018          36.537  
G17  21257286.986    -1323444.0751        559.540          34.304  
G19  21242023.053    -1987951.2081        966.679          36.636  
G23  24734478.677     -411364.2671        -34.218          22.672  
G28  21435721.359     4134970.5721      -2839.897          22.995  
G30  25719089.745     3148108.5881      -1990.242           7.000  
R02  21463125.987     3032572.0941      -2312.498          30.192  
R18  21401178.073     -931152.8381        627.085          30.223  
R16  21714512.156      897012.6530      -1144.692          28.304  
R15  22591555.891     6905460.2341      -3893.948          26.494  
R17  21780160.708     1521751.6581       -802.042          29.444  
R03  20018374.268    -3443982.2151       1476.958          35.241  
R04  22575214.204    -5679098.3831       3961.364          25.705  
J01  37918594.004     1590229.3701       -986.765          28.716  
E013424722803.030     2645497.5441      -1871.233          20.790  
> 2018  4 30 12  6  8.9995649  0 18
G02  23284668.260    -4257341.1501        770.954          33.686  
G03  24439644.486     6650718.0361      -3638.797          14.112  
G06  21181586.393      485610.7251       -434.994          33.589  
G09  23385405.421    -2665504.3741       1478.891          34.326  
G17  21257183.258    -1324002.6431        556.798          37.081  
G19  21241830.287    -1988914.6731        961.177          34.267  
G23  24734487.071     -411329.7451        -25.393          20.618  
G28  21436266.082     4137811.1321      -2842.847          23.594  
G30  25719469.882     3150098.8241      -1990.242           7.000  
R02  21463572.678     3034883.8251      -2315.254          30.412  
R18  21401061.453     -931779.5451        628.048          30.709  
R16  21714736.401      898158.9650      -1145.679          28.838  
R15  22592324.559     6909351.4851      -3894.016          24.188  
R17  21780308.506     1522552.2971       -797.884          27.465  
R03  20018071.777    -3445458.9661       1477.889          33.720  
R04  22574453.031    -5683053.3481       3959.701          25.973  
J01  37918783.772     1591220.2141       -983.559          28.472  
E013724515597.400     2647382.4541      -1891.462          21.729  
> 2018  4 30 12  6  9.9995649  0 18
G02  23284538.449    -4258110.5870        770.118          36.364  
G03  24440376.280     6654359.2781      -3638.056          13.685  
G06  21181665.838      486047.7061       -437.864          34.674  
G09  23385113.123    -2666982.4011       1475.517          34.919  
G17  21257077.432    -1324561.5271        556.923          37.629  
G19  21241660.305    -1989880.3111        965.477          36.894  
G23  24734483.174     -411297.5571        -26.534          23.748  
G28  21436812.004     4140657.6771      -2841.591          25.160  
G30  25719848.819     3152089.2321      -1990.242           7.000  
R02  21464010.375     3037200.8321      -2317.476          28.507  
R18  21400936.440     -932407.2431        626.041          33.459  
R16  21714971.738      899306.6231      -1147.501          26.504  
R15  22592994.895     6913243.8211      -3895.525          24.063  
R17  21780463.199     1523351.1011       -798.049          30.460  
R03  20017823.249    -3446934.3221       1477.452          34.145  
R04  22573698.454    -5687012.9451       3961.209          27.002  
J01  37918969.344     1592205.8681       -983.431          34.048  
E014024308411.555     2649262.2171      -1881.111          20.414  
> 2018  4 30 12  6 10.9995649  0 18
G02  23284382.258    -4258880.5560        770.513          40.307  
G03  24441065.203     6657991.6301      -3637.383          13.854  
G06  21181743.184      486485.0820       -436.879          36.331  
G09  23384837.914    -2668460.9441       1479.760          36.465  
G17  21256967.408    -1325119.8461        559.342          39.223  
G19  21241465.739    -1990845.8780        965.677          37.568  
G23  24734487.071     -411265.6911        -26.092          25.733  
G28  21437330.645     4143501.8831      -2840.439          27.464  
G30  25720228.656     3154079.4691      -1990.242           7.000  
R02  21464406.101     3039514.1241      -2310.832          34.391  
R18  21400816.523     -933035.1581        627.728          34.739  
R16  21715153.712      900454.0640      -1146.232          30.948  
R15  22593769.859     6917136.3031      -3897.369          20.993  
R17  21780615.793     1524157.9001       -802.406          29.160  
R03  20017522.557    -3448411.9271       1478.394          36.819  
R04  22572979.851    -5690979.7381       3964.447          27.294  
J01  37919163.010     1593190.3270       -982.824          35.476  
E014324101233.500     2651135.1991      -1880.303          19.361  
> 2018  4 30 12  6 11.9995649  0 18
G02  23284249.749    -4259649.9251        773.446          35.668  
G03  24441748.430     6661630.8761      -3638.057          13.611  
G06  21181827.126      486923.1791       -438.842          34.977  
G09  23384560.606    -2669939.2001       1479.995          36.344  
G17  21256866.378    -1325678.1880        559.452          41.334  
G19  21241283.166    -1991811.3030        966.674          36.341  
G23  24734472.381     -411239.8691        -25.409          28.282  
G28  21437869.372     4146344.8451      -2842.972          31.566  
G30  25720608.793     3156069.8771      -1990.242           7.000  
R02  21464861.186     3041825.9451      -2314.969          32.971  
R18  21400705.300     -933662.7921        625.945          33.790  
R16  21715383.053      901601.9331      -1149.715          30.402  
R15  22594532.830     6921038.2331      -3895.362          22.090  
R17  21780770.786     1524962.0291       -804.430          30.566  
R03  20017249.447    -3449888.9241       1476.497          37.602  
R04  22572215.680    -5694949.5691       3962.262          26.591  
J01  37919345.883     1594174.7201       -983.989          35.838  
E014623894075.836     2653013.8151      -1891.492          19.178  
> 2018  4 30 12  6 12.9995649  0 18
G02  23284083.065    -4260420.3290        771.016          35.225  
G03  24442466.732     6665266.4261      -3637.535          13.182  
G06  21181913.766      487359.8141       -434.479          34.683  
G09  23384281.799    -2671417.0031       1474.753          36.290  
G17  21256761.450    -1326236.4311        557.552          38.718  
G19  21241106.288    -1992777.0950        967.075          38.884  
G23  24734502.960     -411212.9511        -27.239          28.507  
G28  21438403.602     4149189.0151      -2844.319          39.419  
G30  25720989.829     3158059.1501      -1990.242           7.000  
R02  21465289.889     3044141.2331      -2320.665          31.159  
R18  21400591.978     -934291.2901        630.113          36.698  
R16  21715616.591      902752.0121      -1151.719          26.379  
R15  22595202.867     6924936.2941      -3894.664          24.644  
R17  21780903.894     1525770.2001       -801.824          30.590  
R03  20016980.833    -3451365.4410       1476.585          37.840  
R04  22571506.072    -5698915.2511       3960.573          26.588  
J01  37919534.752     1595162.7791       -988.071          32.943  
E014923686895.086     2654894.8101      -1869.678          19.037  
> 2018  4 30 12  6 13.9995649  0 18
G02  23283940.364    -4261189.7000        769.943          39.360  
G03  24443168.247     6668901.1121      -3640.555          12.322  
G06  21182001.306      487795.4571       -434.749          34.214  
G09  23383993.398    -2672894.8951       1476.342          35.791  
G17  21256654.125    -1326794.4941        557.518          37.230  
G19  21240924.314    -1993743.6251        965.398          37.228  
G23  24734506.557     -411185.5431        -30.127          29.037  
G28  21438945.327     4152033.8030      -2845.075          40.994  
G30  25721369.966     3160048.5701      -1989.266           7.000  
R02  21465723.689     3046457.2111      -2314.925          31.253  
R18  21400468.764     -934919.6290        628.070          36.475  
R16  21715804.262      903901.6760      -1149.412          34.247  
R15  22595895.987     6928832.2411      -3897.218          21.814  
R17  21781060.386     1526571.4551       -804.388          29.591  
R03  20016706.522    -3452841.4821       1474.018          37.971  
R04  22570775.777    -5702875.1761       3961.172          27.143  
J01  37919722.722     1596154.9631       -985.378          32.711  
E015223479693.050     2656771.5841      -1859.770          18.550  
> 2018  4 30 12  6 14.9995649  0 18
G02  23283795.864    -4261959.3630        770.386          36.265  
G03  24443895.243     6672542.2271      -3637.208          11.583  
G06  21182084.648      488235.3401       -439.702          31.342  
G09  23383718.788    -2674372.3651       1480.129          35.358  
G17  21256542.602    -1327352.6401        557.683          39.281  
G19  21240734.545    -1994708.6011        963.983          36.174  
G23  24734487.970     -411154.1301        -29.049          26.223  
G28  21439489.450     4154878.7750      -2844.883          40.788  
G30  25721748.904     3162037.8311      -1989.266           7.000  
R02  21466180.872     3048772.2361      -2315.744          30.938  
R18  21400353.044     -935547.8731        626.344          35.304  
R16  21716021.911      905052.4331      -1152.461          31.959  
R15  22596692.235     6932724.3011      -3898.051          21.260  
R17  21781210.881     1527376.6431       -805.396          29.423  
R03  20016422.619    -3454316.1421       1474.324          35.026  
R04  22570029.294    -5706831.6021       3963.587          26.611  
J01  37919908.893     1597139.7371       -984.568          34.589  
E015523272496.710     2658648.9501      -1873.276          19.242  
> 2018  4 30 12  6 15.9995649  0 18
G02  23283660.357    -4262724.4541        770.501          32.515  
G03  24444597.657     6676177.1281      -3638.576          11.806  
G06  21182156.898      488672.4371       -437.126          35.374  
G09  23383438.183    -2675849.2381       1473.674          35.053  
G17  21256437.974    -1327909.8231        557.363          40.387  
G19  21240550.173    -1995673.3191        964.200          37.200  
G23  24734526.943     -411122.5531        -31.375          26.104  
G28  21440029.077     4157724.5580      -2845.843          41.801  
G30  25722128.741     3164027.2641      -1989.266           7.000  
R02  21466567.005     3051091.9151      -2315.094          34.610  
R18  21400233.427     -936176.0441        629.217          35.475  
R16  21716233.265      906203.5310      -1151.170          31.841  
R15  22597352.079     6936620.6351      -3898.376          22.226  
R17  21781344.889     1528184.2671       -798.742          31.219  
R03  20016151.906    -3455789.3481       1473.402          38.907  
R04  22569302.597    -5710791.7771       3961.116          24.764  
J01  37920098.362     1598125.2840       -986.462          34.331  
E015823065334.840     2660532.1131      -1877.513          22.173  
> 2018  4 30 12  6 16.9995649  0 18
G02  23283488.876    -4263499.4811        769.948          31.444  
G03  24445293.475     6679809.2181      -3642.165          11.240  
G06  21182250.133      489111.1700       -439.292          36.992  
G09  23383159.376    -2677326.1461       1477.227          33.569  
G17  21256334.846    -1328466.5920        556.475          40.673  
G19  21240368.799    -1996637.5971        963.305          39.151  
G23  24734517.650     -411091.2491        -35.465          25.214  
G28  21440575.299     4160570.8440      -2847.337          43.332  
G30  25722509.177     3166018.4501      -1989.266           7.000  
R02  21467037.679     3053410.1981      -2315.294          33.562  
R18  21400115.608     -936803.9791        627.332          35.453  
R16  21716445.817      907355.8421      -1153.212          29.862  
R15  22598195.395     6940520.8691      -3897.257          21.322  
R17  21781498.382     1528983.4361       -799.159          34.042  
R03  20015879.995    -3457262.0031       1472.361          38.068  
R04  22568620.269    -5714754.9611       3957.862          23.841  
J01  37920284.233     1599112.8781       -981.168          32.386  
E016122858138.805     2662412.4461      -1874.617          23.877  
> 2018  4 30 12  6 17.9995649  0 18
G02  23283360.565    -4264267.8740        769.319          36.422  
G03  24445983.598     6683449.6891      -3638.475          10.382  
G06  21182314.589      489550.8051       -441.474          36.307  
G09  23382872.174    -2678802.3781       1477.655          32.178  
G17  21256231.117    -1329019.3271        553.467          36.590  
G19  21240180.529    -1997601.5500        964.662          38.622  
G23  24734511.654     -411052.5331        -32.911          26.395  
G28  21441111.028     4163417.8840      -2848.307          42.839  
G30  25722889.314     3168009.8591      -1991.218           7.000  
R02  21467441.200     3055727.3060      -2318.209          36.967  
R18  21400004.385     -937431.5231        625.751          35.123  
R16  21716640.982      908509.4371      -1157.044          28.309  
R15  22598915.197     6944423.9011      -3897.651          19.514  
R17  21781650.377     1529781.9430       -798.202          36.772  
R03  20015598.490    -3458733.2251       1471.085          37.520  
R04  22567837.511    -5718711.0941       3956.146          24.100  
J01  37920471.604     1600098.3391       -985.022          31.557  
E016422650971.250     2664297.5401      -1877.520          24.300  
> 2018  4 30 12  6 18.9995649  0 18
G02  23283204.073    -4265035.5280        768.438          39.095  
G03  24446663.527     6687081.0781      -3641.006          10.611  
G06  21182414.420      489990.1421       -439.444          37.975  
G09  23382602.061    -2680277.8011       1471.795          31.157  
G17  21256128.888    -1329575.0381        556.682          35.208  
G19  21240008.748    -1998564.1951        963.068          37.140  
G23  24734527.543     -411021.6171        -34.315          24.366  
G28  21441659.048     4166264.9641      -2846.685          39.023  
G30  25723269.151     3170000.1081      -1991.218           7.000  
R02  21467889.389     3058045.0530      -2317.554          37.599  
R18  21399900.957     -938058.9111        628.289          32.220  
R16  21716878.418      909673.5461      -1161.364          25.394  
R15  22599597.524     6948329.4591      -3898.606          18.627  
R17  21781787.083     1530580.6480       -797.396          37.239  
R03  20015324.479    -3460203.6001       1467.595          35.932  
R04  22567034.967    -5722670.6301       3961.471          24.865  
J01  37920663.771     1601085.6871       -988.613          31.361  
E016722443770.710     2666188.9011      -1876.498          24.840  
> 2018  4 30 12  6 19.9995649  0 18
G02  23283067.068    -4265803.5251        768.923          33.695  
G03  24447362.643     6690721.8781      -3640.598          10.391  
G06  21182491.167      490429.6331       -439.580          38.134  
G09  23382323.854    -2681752.0921       1471.633          30.777  
G17  21256018.565    -1330131.0140        555.385          38.855  
G19  21239819.879    -1999521.8171        963.426          36.882  
G23  24734523.346     -410985.9911        -36.506          25.978  
G28  21442201.073     4169112.8850      -2847.771          42.678  
G30  25723648.089     3171990.5041      -1990.242           7.000  
R02  21468315.095     3060363.4390      -2318.546          38.143  
R18  21399775.644     -938683.4531        621.670          31.513  
R16  21717099.365      910833.9681      -1154.849          28.752  
R15  22600357.498     6952227.5661      -3899.468          20.162  
R17  21781932.482     1531379.0660       -798.383          37.250  
R03  20015054.966    -3461673.3930       1468.863          39.545  
R04  22566339.448    -5726634.9041       3957.333          26.146  
J01  37920853.539     1602073.8301       -988.330          30.210  
E017022236597.760     2668070.7251      -1879.548          24.474  
> 2018  4 30 12  6 20.9995649  0 18
G02  23282919.570    -4266571.4261        766.388          30.596  
G03  24448047.969     6694364.4981      -3640.513           9.613  
G06  21182578.706      490868.5031       -441.065          36.690  
G09  23382019.864    -2683227.5651       1477.614          31.747  
G17  21255913.337    -1330686.6690        555.818          41.297  
G19  21239638.204    -2000484.9090        962.634          37.635  
G23  24734525.444     -410944.5871        -37.300          24.694  
G28  21442734.404     4171961.5090      -2848.991          42.512  
G30  25724028.226     3173981.7031      -1990.242           7.000  
R02  21468752.492     3062682.7570      -2319.415          39.029  
R18  21399678.511     -939306.0721        625.890          29.686  
R16  21717326.907      911992.4871      -1154.325          26.868  
R15  22601085.394     6956123.0471      -3899.367          18.325  
R17  21782089.273     1532177.8401       -801.702          33.180  
R03  20014779.157    -3463142.1880       1469.228          41.176  
R04  22565597.162    -5730588.7711       3951.785          23.751  
J01  37921024.121     1603059.7001       -984.891          31.297  
E017322029424.500     2669952.5801      -1880.506          27.298  
> 2018  4 30 12  6 21.9995649  0 18
G02  23282759.181    -4267338.6931        764.459          29.586  
G03  24448727.298     6697999.5761      -3642.064           9.353  
G06  21182655.753      491308.3611       -439.340          34.084  
G09  23381747.653    -2684701.8921       1475.967          31.699  
G17  21255806.311    -1331241.9220        554.567          40.082  
G19  21239455.031    -2001447.3261        961.784          36.584  
G23  24734506.557     -410901.7041        -37.862          25.136  
G28  21443281.225     4174810.7770      -2850.088          42.553  
G30  25724408.363     3175973.1001      -1991.218           7.000  
R02  21469185.392     3065002.8710      -2320.983          38.538  
R18  21399595.169     -939926.2331        625.188          26.827  
R16  21717523.571      913149.2780      -1155.823          32.645  
R15  22601795.902     6960025.6501      -3899.214          20.509  
R17  21782223.580     1532972.5031       -799.966          31.841  
R03  20014517.138    -3464609.9930       1468.533          38.201  
R04  22564888.153    -5734536.3181       3957.670          22.651  
J01  37921227.381     1604046.0620       -986.476          32.405  
E017621822229.060     2671826.2691      -1881.999          29.009  
> 2018  4 30 12  6 22.9995649  0 18
G02  23282615.281    -4268103.2621        764.937          28.537  
G03  24449439.006     6701637.0071      -3641.182           9.563  
G06  21182748.688      491748.2661       -443.159          35.127  
G09  23381465.248    -2686176.9381       1474.777          34.236  
G17  21255701.384    -1331797.0570        554.333          41.202  
G19  21239270.659    -2002410.1170        962.444          39.007  
G23  24734505.058     -410863.5541        -39.644          23.708  
G28  21443829.546     4177660.5070      -2849.425          42.232  
G30  25724787.001     3177963.3491      -1991.218           7.000  
R02  21469615.894     3067323.6070      -2320.498          36.662  
R18  21399480.048     -940550.8311        623.421          25.630  
R16  21717719.036      914308.5821      -1164.160          28.428  
R15  22602558.574     6963928.5151      -3899.342          18.414  
R17  21782393.263     1533768.0031       -799.827          34.909  
R03  20014232.335    -3466077.1051       1465.985          39.236  
R04  22564079.013    -5738501.2071       3963.402          26.072  
J01  37921412.353     1605032.1221       -988.824          32.589  
E017921615042.914     2673688.8291      -1884.218          28.091  
> 2018  4 30 12  6 23.9995649  0 18
G02  23282474.978    -4268868.1231        765.695          27.871  
G03  24450106.044     6705271.4291      -3641.469           9.175  
G06  21182827.833      492188.7461       -439.362          37.071  
G09  23381196.934    -2687649.3721       1473.286          32.223  
G17  21255590.161    -1332352.1250        554.445          43.476  
G19  21239081.790    -2003372.6550        962.162          38.440  
G23  24734553.925     -410830.9651        -36.736          24.568  
G28  21444364.076     4180510.5080      -2850.876          43.527  
G30  25725165.938     3179953.7441      -1990.242           7.000  
R02  21470058.388     3069645.2610      -2322.427          37.556  
R18  21399348.439     -941175.1911        623.056          26.127  
R16  21717928.891      915477.1321      -1162.230          24.897  
R15  22603297.563     6967832.7721      -3898.549          19.799  
R17  21782562.646     1534570.2051       -801.804          32.223  
R03  20013954.128    -3467543.5670       1465.273          39.986  
R04  22563341.224    -5742464.3621       3960.982          26.487  
J01  37921588.930     1606018.0511       -987.640          33.191  
E018221407863.960     2675574.1241      -1884.834          25.941  
> 2018  4 30 12  6 24.9995649  0 18
G02  23282316.088    -4269627.9961        764.392          26.077  
G03  24450786.573     6708917.3311      -3643.225           9.146  
G06  21182918.371      492628.8861       -439.821          36.260  
G09  23380934.016    -2689124.0711       1472.457          28.629  
G17  21255487.632    -1332906.7400        554.275          42.325  
G19  21238900.715    -2004334.7490        961.919          37.705  
G23  24734528.742     -410799.5821        -39.442          25.264  
G28  21444908.199     4183360.8350      -2851.032          42.574  
G30  25725544.576     3181943.0181      -1990.242           7.000  
R02  21470499.383     3071967.7620      -2323.867          34.478  
R18  21399223.126     -941794.9821        619.300          25.063  
R16  21718119.559      916634.1351      -1158.918          22.352  
R15  22604013.167     6971731.7871      -3899.973          18.632  
R17  21782694.255     1535377.6041       -803.351          31.914  
R03  20013691.510    -3469009.2550       1464.597          39.977  
R04  22562603.734    -5746426.4351       3962.697          26.447  
J01  37921783.795     1607004.3180       -986.834          35.915  
E018521200670.625     2677457.6861      -1880.903          29.804  
> 2018  4 30 12  6 25.9995649  0 18
G02  23282171.288    -4270389.8301        764.775          25.306  
G03  24451474.896     6712546.3451      -3640.627           8.313  
G06  21182990.321      493069.6871       -442.411          34.719  
G09  23380645.316    -2690599.2281       1467.419          28.183  
G17  21255386.002    -1333461.1380        553.503          38.189  
G19  21238719.341    -2005296.9410        961.592          36.982  
G23  24734548.828     -410762.1721        -43.776          25.358  
G28  21445447.226     4186211.7720      -2851.636          42.601  
G30  25725924.713     3183932.4381      -1989.266           7.000  
R02  21470921.790     3074290.9580      -2323.853          33.638  
R18  21399128.392     -942413.4431        618.716          22.895  
R16  21718344.703      917791.2061      -1158.479          21.013  
R15  22604711.984     6975626.5361      -3898.366          17.041  
R17  21782851.346     1536176.6971       -800.417          30.331  
R03  20013405.508    -3470474.1460       1463.946          39.659  
R04  22561888.729    -5750388.0841       3961.816          25.471  
J01  37921970.866     1607990.7270       -986.980          35.173  
E018820993500.960     2679334.2221      -1877.796          26.495  
> 2018  4 30 12  6 26.9995649  0 18
G02  23282041.778    -4271155.0101        764.492          25.209  
G03  24452162.320     6716191.3951      -3639.970           7.453  
G06  21183075.762      493510.6510       -441.521          35.620  
G09  23380381.798    -2692066.2761       1469.206          25.374  
G17  21255279.876    -1334015.4711        555.871          33.836  
G19  21238533.769    -2006259.0080        961.297          38.203  
G23  24734565.617     -410713.6551        -41.443          24.242  
G28  21445993.148     4189062.7910      -2851.290          43.394  
G30  25726303.651     3185921.6981      -1989.266           7.000  
R02  21471356.489     3076614.9841      -2325.325          33.543  
R18  21398972.500     -943031.0901        626.845          21.987  
R16  21718577.342      918954.0421      -1160.004          18.968  
R15  22605345.445     6979520.0971      -3898.019          17.034  
R17  21783010.236     1536982.3181       -799.460          27.911  
R03  20013133.896    -3471938.5230       1464.185          39.501  
R04  22561135.351    -5754350.2091       3961.994          28.917  
J01  37922161.234     1608976.9441       -985.815          35.547  
E019120786312.120     2681199.0401      -1879.109          26.387  
> 2018  4 30 12  6 27.9995649  0 18
G02  23281864.900    -4271912.8671        760.988          25.681  
G03  24452869.531     6719827.5671      -3639.805           7.644  
G06  21183165.400      493951.5761       -440.004          35.807  
G09  23380104.790    -2693534.0351       1470.354          23.923  
G17  21255175.248    -1334569.8071        556.871          31.712  
G19  21238355.393    -2007221.1620        961.552          36.538  
G23  24734562.918     -410669.1741        -41.158          28.152  
G28  21446534.273     4191913.9100      -2851.072          42.417  
G30  25726682.288     3187910.3631      -1989.266           7.000  
R02  21471811.274     3078939.2681      -2328.263          34.545  
R18  21398874.467     -943650.4251        623.664          23.507  
R16  21718802.486      920119.2021      -1163.768          21.273  
R15  22606125.805     6983413.6981      -3897.849          16.612  
R17  21783178.719     1537782.5041       -801.516          27.626  
R03  20012863.483    -3473402.4450       1463.927          39.890  
R04  22560393.065    -5758310.9721       3961.226          29.633  
J01  37922348.904     1609962.9641       -987.193          35.942  
E019420579113.984     2683071.9951      -1886.824          29.376  
> 2018  4 30 12  6 28.9995649  0 18
G02  23281726.696    -4272671.3431        762.446          25.782  
G03  24453432.541     6723473.7601      -3641.709           7.000  
G06  21183250.841      494391.9081       -441.282          35.061  
G09  23379859.560    -2695001.4381       1466.826          22.813  
G17  21255079.615    -1335122.3731        552.501          29.071  
G19  21238181.513    -2008182.7531        960.293          33.153  
G23  24734573.411     -410625.5691        -43.893          25.974  
G28  21447080.495     4194765.3801      -2852.208          40.021  
G30  25727060.627     3189895.5521      -1988.291           7.000  
R02  21472265.460     3081264.4471      -2325.218          33.707  
R18  21398801.918     -944270.7201        623.496          21.811  
R16  21719006.645      921286.1961      -1163.072          23.605  
R15  22606863.594     6987310.2561      -3896.878          15.200  
R17  21783263.860     1538584.5721       -800.869          29.011  
R03  20012595.768    -3474865.4211       1460.732          36.711  
R04  22559656.475    -5762265.2461       3961.155          31.603  
J01  37922540.472     1610948.9421       -986.403          34.802  
E019720371915.550     2684957.9521      -1889.611          31.951  
> 2018  4 30 12  6 29.9995649  0 19
G02  23281558.812    -4273432.5841        761.736          28.314  
G03  24454309.734     6727110.6411      -3640.188           7.000  
G06  21183338.680      494834.4421       -439.600          34.143  
G09  23379560.667    -2696464.6621       1467.678          22.060  
G17  21254993.874    -1335673.5181        548.924          27.216  
G19  21237990.545    -2009138.9011        960.616          30.162  
G23  24734579.107     -410580.7021        -44.559          29.557  
G28  21447623.719     4197617.4400      -2852.381          42.648  
G30  25727437.466     3191881.0441      -1985.364           7.000  
R02  21472656.389     3083590.2090      -2325.811          36.342  
R18  21398711.380     -944899.1521        624.827          21.793  
R16  21719223.395      922455.7511      -1167.746          23.765  
R15  22607620.270     6991206.9121      -3896.708          17.003  
R17  21783471.317     1539384.3081       -802.004          28.132  
R03  20012324.156    -3476327.8031       1463.890          36.784  
R04  22558916.587    -5766226.3441       3961.163          30.284  
J01  37922720.647     1611935.1491       -984.403          33.195  
J029972293670.340         129.682        -815.609          25.096  
E010020164734.490     2686847.1201      -1890.955          34.338  
> 2018  4 30 12  6 30.9995649  0 19
G02  23281403.220    -4274192.4781        758.986          28.406  
G03  24455010.948     6730751.8011      -3641.163           7.000  
G06  21183420.223      495275.0071       -440.821          35.781  
G09  23379284.258    -2697932.3951       1470.931          20.504  
G17  21254898.540    -1336222.7831        550.111          24.284  
G19  21237832.854    -2010098.5661        959.986          27.117  
G23  24734584.803     -410534.5251        -45.850          28.842  
G28  21448165.144     4200470.3720      -2855.543          41.168  
G30  25727815.204     3193866.4021      -1985.364           7.000  
R02  21473144.152     3085919.2061      -2333.691          32.933  
R18  21398565.082     -945526.4951        619.965          22.688  
R16  21719419.459      923632.7181      -1171.450          23.599  
R15  22608369.452     6995100.5551      -3898.929          16.098  
R17  21783573.846     1540179.6511       -798.810          29.239  
R03  20012035.456    -3477788.9021       1461.145          36.139  
R04  22558162.609    -5770186.6931       3960.937          31.462  
J01  37922914.613     1612921.5801       -988.753          33.042  
J020320352907.445           2.5551       -859.388          31.475  
E010319957549.250     2688738.4220      -1892.225          36.176  
> 2018  4 30 12  6 31.9995649  0 19
G02  23281280.005    -4274949.1191        758.193          29.161  
G03  24455686.081     6734394.6451      -3647.021           7.968  
G06  21183505.364      495716.7611       -439.546          34.199  
G09  23379012.347    -2699400.2751       1469.827          20.805  
G17  21254792.114    -1336769.8851        547.899          26.431  
G19  21237653.878    -2011059.7721        957.570          25.551  
G23  24734604.889     -410492.7011        -44.652          27.145  
G28  21448705.370     4203324.0551      -2853.131          42.120  
G30  25728193.842     3195851.1641      -1985.364           7.000  
R02  21473566.559     3088255.0991      -2332.831          29.683  
R18  21398446.364     -946143.2391        621.459          22.200  
R16  21719656.595      924798.3451      -1171.667          24.817  
R15  22609149.811     6998995.0801      -3899.674          16.049  
R17  21783724.641     1540977.7591       -799.484          29.083  
R03  20011771.039    -3479249.0251       1459.435          39.718  
R04  22557438.310    -5774145.9811       3958.965          33.009  
J01  37923099.884     1613908.2931       -987.307          35.367  
J020616248207.390         857.0171       -865.320          33.503  
E010619750368.800     2690629.8581      -1890.460          35.997  
> 2018  4 30 12  6 32.9995649  0 19
G02  23281107.025    -4275702.9291        758.113          29.982  
G03  24456360.314     6738035.2441      -3639.873           9.468  
G06  21183589.906      496158.3051       -442.755          31.859  
G09  23378677.179    -2700869.6701       1465.994          21.755  
G17  21254705.773    -1337316.5511        546.378          25.166  
G19  21237497.386    -2012021.5891        953.631          22.987  
G23  24734605.789     -410455.1921        -43.827          29.390  
G28  21449247.095     4206175.6761      -2853.467          41.645  
G30  25728571.581     3197835.3391      -1984.388           7.000  
R02  21474001.558     3090589.0221      -2328.533          29.324  
R18  21398304.562     -946768.2511        623.892          21.593  
R16  21719874.544      925974.7941      -1174.529          27.748  
R15  22609868.414     7002901.7421      -3901.681          17.021  
R17  21783956.681     1541781.3451       -806.279          27.177  
R03  20011499.127    -3480708.4370       1459.062          39.575  
R04  22556664.246    -5778109.3211       3958.539          31.041  
J01  37923287.255     1614894.3261       -987.514          32.872  
J020916040834.480        1714.3581       -858.911          32.278  
E010919543200.336     2692519.6491      -1889.709          34.569  
> 2018  4 30 12  6 33.9995649  0 19
G02  23280966.422    -4276458.8041        756.666          31.882  
G03  24457063.028     6741671.9341      -3640.439          10.111  
G06  21183687.338      496606.9761       -449.169          29.241  
G09  23378407.365    -2702338.5711       1462.228          20.165  
G17  21254553.179    -1337860.3551        549.442          25.621  
G19  21237290.530    -2012979.8771        961.337          25.085  
G23  24734622.277     -410416.3431        -38.463          27.199  
G28  21449793.917     4209029.8991      -2854.635          43.092  
G30  25728950.518     3199819.8941      -1984.388           7.000  
R02  21474454.844     3092917.3471      -2330.978          26.440  
R18  21398140.276     -947388.9471        625.241          20.648  
R16  21720056.518      927149.8821      -1176.185          30.090  
R15  22610621.792     7006810.6971      -3904.022          14.894  
R17  21784080.195     1542589.6541       -808.466          26.841  
R03  20011228.715    -3482167.0820       1457.439          36.977  
R04  22555999.906    -5782064.0531       3956.715          27.807  
J01  37923483.619     1615884.2391       -986.750          30.727  
J021215833470.555        2572.8841       -861.868          32.351  
E011219336019.290     2694406.2511      -1892.754          31.894  
> 2018  4 30 12  6 34.9995649  0 19
G02  23280844.407    -4277215.6921        757.474          29.188  
G03  24457751.051     6745317.0401      -3640.483           9.251  
G06  21183784.471      497060.1861       -446.444          25.968  
G09  23378152.542    -2703809.3911       1466.675          20.573  
G17  21254493.820    -1338407.7751        551.951          25.005  
G19  21237107.357    -2013940.0691        960.626          26.751  
G23  24734618.680     -410369.6931        -45.375          25.621  
G28  21450332.944     4211885.0130      -2855.456          41.519  
G30  25729327.957     3201803.3141      -1984.388           7.000  
R02  21474836.480     3095247.2011      -2334.799          26.094  
R18  21398024.556     -948014.2971        626.882          19.617  
R16  21720315.838      928324.2961      -1172.636          26.419  
R15  22611369.475     7010715.2791      -3903.292          16.351  
R17  21784181.525     1543392.1401       -799.723          25.731  
R03  20010966.996    -3483625.3531       1457.512          33.726  
R04  22555191.066    -5786017.9651       3955.788          26.211  
J01  37923670.389     1616870.7341       -988.562          29.455  
J021515626082.340        3434.1211       -862.369          35.719  
E011519128822.650     2696298.0991      -1893.787          35.388  
> 2018  4 30 12  6 35.9995649  0 19
G02  23280687.016    -4277979.9931        759.201          28.311  
G03  24458450.167     6748951.8281      -3641.098           8.911  
G06  21183859.419      497498.4191       -440.048          25.531  
G09  23377857.846    -2705282.5961       1467.291          21.137  
G17  21254355.016    -1338953.3481        551.311          23.620  
G19  21236915.789    -2014899.8341        958.199          28.156  
G23  24734616.581     -410320.2661        -50.036          23.415  
G28  21450879.465     4214737.4401      -2856.185          40.349  
G30  25729706.295     3203788.4161      -1983.413           7.000  
R02  21475279.573     3097578.7011      -2332.454          29.633  
R18  21397940.014     -948634.2481        626.105          19.380  
R16  21720546.379      929496.2131      -1171.850          23.024  
R15  22612100.968     7014618.5581      -3902.826          15.422  
R17  21784350.308     1544192.8001       -798.716          28.701  
R03  20010681.593    -3485082.4491       1456.524          33.566  
R04  22554448.180    -5789970.2141       3952.951          25.135  
J01  37923849.066     1617858.2661       -986.881          35.021  
J021815418698.630        4295.5610       -857.769          37.412  
E011818921641.600     2698191.6510      -1893.864          36.230  
> 2018  4 30 12  6 36.9995649  0 19
G02  23280569.497    -4278743.3321        762.981          26.697  
G03  24459113.608     6752593.6531      -3645.824          11.050  
G06  21183936.766      497940.7191       -439.521          25.799  
G09  23377572.443    -2706751.8061       1468.135          19.190  
G17  21254250.688    -1339504.8171        548.055          24.219  
G19  21236747.306    -2015855.4141        954.835          24.912  
G23  24734645.961     -410273.0251        -47.467          23.911  
G28  21451427.486     4217592.4851      -2856.067          37.376  
G30  25730083.734     3205772.2641      -1985.364           7.000  
R02  21475752.646     3099911.7721      -2332.247          28.585  
R18  21397838.685     -949256.6201        627.149          19.413  
R16  21720782.315      930669.5831      -1178.427          20.960  
R15  22612838.757     7018527.7001      -3903.419          16.198  
R17  21784493.909     1544993.1171       -801.374          29.294  
R03  20010423.172    -3486538.4871       1455.988          36.514  
R04  22553749.964    -5793925.5711       3952.058          23.882  
J01  37924034.937     1618847.7891       -982.997          31.862  
J022115211320.920        5158.7741       -861.098          34.861  
E012118714462.650     2700085.3631      -1892.767          35.547  
> 2018  4 30 12  6 37.9995649  0 19
G02  23280440.287    -4279501.8401        762.492          25.296  
G03  24459797.135     6756234.9991      -3645.104          10.560  
G06  21184007.217      498384.3041       -443.168          28.027  
G09  23377289.739    -2708215.7981       1467.975          18.794  
G17  21254160.451    -1340044.4151        543.985          21.750  
G19  21236566.831    -2016814.7971        956.367          22.368  
G23  24734654.955     -410223.5261        -45.109          28.452  
G28  21451966.513     4220448.3021      -2856.210          39.483  
G30  25730461.172     3207755.0491      -1983.413           7.000  
R02  21476162.462     3102244.0431      -2333.855          29.776  
R18  21397665.704     -949879.0411        626.698          19.318  
R16  21720999.665      931849.7371      -1177.906          20.480  
R15  22613500.999     7022439.5491      -3903.458          17.232  
R17  21784642.306     1545792.7541       -803.821          29.254  
R03  20010133.573    -3487990.1101       1452.153          33.106  
R04  22552964.807    -5797877.0321       3950.798          28.656  
J01  37924231.001     1619837.3781       -987.229          27.090  
J022415003947.410        6020.4990       -861.310          36.602  
E012418507278.000     2701979.3131      -1892.779          33.853  
> 2018  4 30 12  6 38.9995649  0 19
G02  23280286.193    -4280267.8981        760.501          25.945  
G03  24460498.050     6759873.6511      -3640.339           9.818  
G06  21184130.731      498833.9681       -444.397          25.018  
G09  23377050.804    -2709677.6891       1466.091          21.824  
G17  21254057.622    -1340593.9131        546.981          22.131  
G19  21236388.154    -2017778.4381        961.958          25.922  
G23  24734651.657     -410178.1381        -47.278          29.403  
G28  21452511.835     4223304.6751      -2856.936          39.578  
G30  25730838.911     3209737.2731      -1982.437           7.000  
R02  21476584.270     3104576.3141      -2334.506          33.629  
R18  21397594.354     -950508.2421        626.835          22.836  
R16  21721247.293      933028.9221      -1169.593          23.426  
R15  22614191.721     7026344.7441      -3902.880          17.985  
R17  21784779.611     1546592.7771       -801.948          28.414  
R03  20009864.059    -3489440.3651       1447.910          29.868  
R04  22552237.511    -5801829.0941       3952.744          29.148  
J01  37924415.673     1620828.5381       -994.647          24.596  
J022714796570.290        6881.7040       -860.666          34.897  
E012718300107.445     2703872.2791      -1892.299          31.783  
> 2018  4 30 12  6 39.9995649  0 19
G02  23280156.383    -4281033.0431        761.093          29.131  
G03  24461225.946     6763518.6231      -3642.135           9.881  
G06  21184208.378      499279.4051       -443.242          23.984  
G09  23376786.987    -2711145.8771       1466.034          20.400  
G17  21253943.701    -1341145.6261        548.753          23.889  
G19  21236215.774    -2018735.2601        958.643          26.057  
G23  24734650.758     -410131.1941        -49.700          30.194  
G28  21453056.558     4226161.6460      -2857.048          37.484  
G30  25731215.450     3211719.8761      -1982.437           7.000  
R02  21477039.655     3106909.5920      -2333.383          36.961  
R18  21397486.728     -951139.5531        631.844          21.942  
R16  21721469.739      934205.7711      -1169.256          22.910  
R15  22614874.948     7030251.8471      -3903.364          19.134  
R17  21784925.010     1547392.3350       -800.008          36.199  
R03  20009614.932    -3490891.4571       1445.720          26.811  
R04  22551503.919    -5805780.1831       3952.624          31.471  
J01  37924605.742     1621826.7861       -990.924          24.704  
J023014589188.680        7741.1381       -864.998          34.736  
E013018092941.086     2705767.4251      -1889.877          29.784  
> 2018  4 30 12  6 40.9995649  0 19
G02  23280037.365    -4281799.2511        764.161          27.268  
G03  24461917.267     6767157.7021      -3644.866          10.906  
G06  21184308.508      499721.8131       -443.406          26.833  
G09  23376494.689    -2712613.5781       1464.571          22.227  
G17  21253862.157    -1341700.4911        550.507          25.209  
G19  21235997.525    -2019693.9781        958.144          27.222  
G23  24734678.938     -410085.3971        -50.068          30.460  
G28  21453606.377     4229018.2301      -2857.937          34.950  
G30  25731592.289     3213702.3081      -1982.437           7.000  
R02  21477474.654     3109243.5850      -2334.886          37.763  
R18  21397375.205     -951775.8861        629.129          23.770  
R16  21721655.611      935378.1481      -1173.336          24.754  
R15  22615697.878     7034153.0891      -3901.704          19.588  
R17  21785065.313     1548191.9210       -799.626          37.663  
R03  20009377.796    -3492345.3871       1449.730          24.970  
R04  22550761.333    -5809731.9340       3952.187          33.831  
J01  37924797.309     1622815.0551       -985.676          28.477  
J023314381820.860        8602.6151       -857.382          33.098  
E013317885759.734     2707660.1801      -1888.346          27.888  
> 2018  4 30 12  6 41.9995649  0 19
G02  23279832.907    -4282563.1661        762.340          26.176  
G03  24462438.306     6770794.2971      -3643.673          11.768  
G06  21184383.457      500161.0321       -440.644          26.510  
G09  23376214.683    -2714084.0751       1467.588          22.274  
G17  21253735.045    -1342253.1031        549.465          26.082  
G19  21235830.840    -2020652.2911        959.237          29.072  
G23  24734692.129     -410033.9510        -51.429          33.077  
G28  21454151.100     4231871.9331      -2858.118          33.158  
G30  25731968.829     3215684.9111      -1982.437           7.000  
R02  21477918.047     3111580.0591      -2336.621          35.028  
R18  21397222.311     -952407.5691        626.809          23.491  
R16  21721885.552      936551.0311      -1178.115          24.396  
R15  22616476.439     7038051.1161      -3902.065          19.231  
R17  21785222.704     1548991.8820       -799.879          37.032  
R03  20009030.037    -3493796.8931       1451.719          23.151  
R04  22550013.950    -5813683.0551       3952.988          36.967  
J01  37924973.587     1623800.0761       -984.222          27.862  
J023614174438.945        9463.9830       -861.833          32.356  
E013617678575.380     2709546.3221      -1890.328          25.724  
> 2018  4 30 12  6 42.9995649  0 19
G02  23279706.095    -4283319.4511        756.037          28.386  
G03  24463267.532     6774436.1191      -3642.166          11.269  
G06  21184452.709      500606.9251       -442.237          26.172  
G09  23375933.178    -2715560.4191       1471.184          19.484  
G17  21253649.305    -1342796.0961        547.934          24.167  
G19  21235639.273    -2021610.2101        958.133          27.683  
G23  24734694.527     -409981.8200        -52.026          37.757  
G28  21454698.521     4234726.9101      -2859.362          33.098  
G30  25732346.267     3217666.3801      -1982.437           7.000  
R02  21478356.044     3113916.3491      -2334.840          32.789  
R18  21397096.099     -953037.0551        627.432          26.075  
R16  21722124.186      937725.7911      -1174.207          27.556  
R15  22617188.446     7041951.6851      -3903.966          19.509  
R17  21785369.303     1549791.5721       -800.828          35.288  
R03  20008786.006    -3495255.6991       1454.961          22.448  
R04  22549277.060    -5817633.6700       3951.028          38.309  
J01  37925166.653     1624787.0771       -987.398          30.485  
J023913967063.930       10319.8431       -862.592          30.584  
E013917471400.930     2711420.8981      -1888.296          24.707  
> 2018  4 30 12  6 43.9995649  0 19
G02  23279543.907    -4284076.4801        757.194          28.807  
G03  24463958.854     6778078.1451      -3644.441          11.675  
G06  21184551.640      501054.7861       -445.899          28.089  
G09  23375649.874    -2717024.6951       1470.569          17.660  
G17  21253510.201    -1343348.3761        550.221          24.776  
G19  21235439.611    -2022572.8321        958.073          28.570  
G23  24734702.022     -409929.4760        -51.824          36.185  
G28  21455236.349     4237581.5151      -2855.458          32.482  
G30  25732724.006     3219647.9951      -1981.462           7.000  
R02  21478773.654     3116254.0511      -2338.285          34.928  
R18  21396973.184     -953666.6821        629.975          25.807  
R16  21722350.230      938900.9441      -1173.796          28.527  
R15  22617930.133     7045851.0521      -3902.862          16.725  
R17  21785522.197     1550591.7090       -800.830          36.043  
R03  20008563.560    -3496715.6711       1447.062          23.116  
R04  22548546.766    -5821585.3071       3953.390          35.184  
J01  37925358.820     1625774.5751       -990.089          28.632  
J024213759683.520       11179.5661       -863.496          28.237  
E014217264227.980     2713301.0661      -1886.895          23.486  
> 2018  4 30 12  6 44.9995649  0 19
G02  23279435.082    -4284836.2671        758.913          27.283  
G03  24464654.372     6781721.4141      -3643.085          10.814  
G06  21184620.592      501496.3121       -446.165          27.799  
G09  23375380.960    -2718501.8431       1469.732          18.528  
G17  21253402.276    -1343893.7371        550.114          24.794  
G19  21235278.023    -2023527.0301        957.780          29.277  
G23  24734720.909     -409876.6260        -51.720          36.121  
G28  21455775.975     4240441.0781      -2860.721          35.489  
G30  25733100.545     3221628.4881      -1981.462           7.000  
R02  21479229.039     3118591.2380      -2337.505          39.347  
R18  21396867.657     -954299.7821        627.867          25.076  
R16  21722563.682      940076.0671      -1176.140          29.483  
R15  22618649.335     7049754.9211      -3902.364          16.742  
R17  21785669.695     1551391.7061       -801.877          35.439  
R03  20008276.658    -3498158.5301       1443.850          24.105  
R04  22547803.281    -5825536.1001       3952.328          35.108  
J01  37925540.794     1626761.9881       -987.775          33.324  
J024513552315.400       12041.5001       -861.467          28.931  
E014517057028.040     2715196.3381      -1897.364          26.037  
> 2018  4 30 12  6 45.9995649  0 19
G02  23279269.297    -4285593.2221        756.797          28.377  
G03  24465325.608     6785364.9761      -3644.226          11.935  
G06  21184704.234      501944.9701       -444.601          29.683  
G09  23375111.147    -2719975.2711       1468.798          17.456  
G17  21253291.053    -1344440.5891        548.646          25.388  
G19  21235095.749    -2024477.1161        957.545          27.413  
G23  24734725.706     -409823.0230        -53.404          37.504  
G28  21456318.600     4243301.3111      -2862.295          40.638  
G30  25733477.085     3223609.1271      -1980.486           7.000  
R02  21479662.839     3120929.5390      -2338.284          37.844  
R18  21396763.029     -954927.5641        627.494          26.553  
R16  21722767.241      941253.8951      -1178.669          27.166  
R15  22619315.774     7053663.0291      -3902.995          19.385  
R17  21785819.591     1552195.7561       -802.098          33.928  
R03  20008013.441    -3499608.1771       1445.541          23.201  
R04  22547059.795    -5829485.8800       3950.336          37.161  
J01  37925730.563     1627751.5381       -991.421          30.992  
J024813344944.586       12905.3101       -859.068          25.441  
E014816849846.390     2717093.1221      -1894.909          28.695  
> 2018  4 30 12  6 46.9995649  0 19
G02  23279172.464    -4286355.0511        761.114          30.735  
G03  24466009.134     6789006.3081      -3644.815          11.741  
G06  21184800.468      502391.4461       -444.937          30.509  
G09  23374832.041    -2721448.3481       1467.643          19.000  
G17  21253182.228    -1344991.8811        547.635          25.767  
G19  21234894.888    -2025429.7421        954.716          28.136  
G23  24734725.406     -409768.7871        -50.113          34.300  
G28  21456858.826     4246162.0921      -2859.384          38.477  
G30  25733852.425     3225588.6451      -1980.486           7.000  
R02  21480111.628     3123268.6240      -2338.717          37.131  
R18  21396614.032     -955557.0551        630.188          29.140  
R16  21723016.369      942436.9511      -1183.131          24.680  
R15  22620088.039     7057571.7151      -3904.154          19.569  
R17  21786006.961     1553001.7241       -804.157          31.654  
R03  20007665.681    -3501051.6541       1445.432          21.813  
R04  22546345.090    -5833435.4071       3945.728          35.624  
J01  37925914.935     1628740.3561       -989.570          32.593  
J025113137538.690       13766.6901       -858.617          24.134  
E015116642655.750     2718989.9811      -1894.889          30.435  
> 2018  4 30 12  6 47.9995649  0 19
G02  23278971.603    -4287119.3821        759.634          26.882  
G03  24466692.961     6792644.9761      -3646.347          10.881  
G06  21184882.611      502835.4041       -446.229          30.061  
G09  23374546.039    -2722912.5571       1467.626          19.334  
G17  21253084.196    -1345530.8551        547.827          26.510  
G19  21234723.107    -2026387.1341        952.272          28.732  
G23  24734745.492     -409714.8591        -49.297          31.021  
G28  21457406.846     4249023.5921      -2862.097          37.794  
G30  25734228.964     3227568.3081      -1979.510           7.000  
R02  21480546.327     3125608.6051      -2340.348          33.517  
R18  21396513.602     -956181.8061        629.569          25.907  
R16  21723227.722      943620.6961      -1179.333          24.260  
R15  22620846.814     7061483.2311      -3903.830          17.685  
R17  21786161.354     1553814.6891       -809.427          29.209  
R03  20007472.915    -3502499.2631       1445.801          21.672  
R04  22545616.295    -5837385.7231       3948.631          31.838  
J01  37926113.098     1629729.1821       -986.355          30.028  
J025412930173.870       14626.3391       -860.826          22.135  
E015416435466.600     2720887.6721      -1897.711          32.560  
> 2018  4 30 12  6 48.9995649  0 19
G02  23278884.064    -4287881.6391        757.442          24.745  
G03  24467377.687     6796293.1481      -3642.839          10.020  
G06  21184957.859      503279.4881       -446.430          31.303  
G09  23374288.217    -2724385.2281       1471.482          20.114  
G17  21252979.568    -1346085.7881        549.962          27.729  
G19  21234553.724    -2027342.3121        954.031          28.218  
G23  24734752.087     -409660.6571        -51.899          28.746  
G28  21457949.770     4251884.9721      -2862.048          38.422  
G30  25734605.803     3229547.8131      -1979.510           7.000  
R02  21480991.519     3127950.8351      -2342.492          31.698  
R18  21396406.576     -956810.5241        628.535          25.147  
R16  21723426.485      944800.3671      -1175.313          21.758  
R15  22621578.607     7065388.3961      -3902.959          16.529  
R17  21786277.074     1554625.8891       -807.355          28.009  
R03  20007177.020    -3503948.5061       1454.756          20.486  
R04  22544897.093    -5841344.0701       3953.419          28.805  
J01  37926292.074     1630719.6371       -987.084          30.986  
J025712722788.660       15487.6681       -861.204          21.396  
E015716228284.660     2722785.3391      -1898.906          32.073  
> 2018  4 30 12  6 49.9995649  0 19
G02  23278725.174    -4288645.7601        758.906          26.820  
G03  24467983.268     6799933.6961      -3647.972          10.315  
G06  21185055.291      503722.7081       -441.231          30.307  
G09  23374007.311    -2725856.5651       1469.917          18.107  
G17  21252877.639    -1346631.4971        547.416          26.934  
G19  21234353.463    -2028295.9941        957.595          30.892  
G23  24734747.890     -409605.9761        -54.396          29.803  
G28  21458499.590     4254746.4861      -2861.252          40.809  
G30  25734982.043     3231526.7221      -1979.510           7.000  
R02  21481411.828     3130292.0270      -2342.132          34.765  
R18  21396236.294     -957441.2261        627.551          24.290  
R16  21723676.811      945975.0271      -1175.678          20.597  
R15  22622316.996     7069291.9551      -3902.622          15.905  
R17  21786417.077     1555429.3851       -800.123          29.125  
R03  20006924.594    -3505409.4091       1455.988          19.462  
R04  22544105.640    -5845293.2441       3950.794          28.348  
J01  37926479.445     1631707.3730       -987.889          34.317  
J026012515403.445       16349.3871       -864.532          23.525  
E016016021107.500     2724682.7871      -1895.514          29.618  
> 2018  4 30 12  6 50.9995649  0 19
G02  23278567.183    -4289406.9821        758.780          25.731  
G03  24468793.906     6803568.4711      -3646.243          11.120  
G06  21185129.640      504169.8171       -443.496          29.573  
G09  23373696.127    -2727326.2461       1469.219          17.460  
G17  21252783.504    -1347182.2191        546.352          26.164  
G19  21234174.787    -2029251.3551        958.455          32.233  
G23  24734764.679     -409551.1971        -56.040          30.392  
G28  21459037.717     4257608.2040      -2866.607          39.114  
G30  25735357.683     3233505.0431      -1978.535           7.000  
R02  21481860.018     3132633.9820      -2342.419          36.647  
R18  21396150.253     -958071.1430        630.271          33.027  
R16  21723909.750      947155.6891      -1176.300          20.042  
R15  22623059.882     7073198.1681      -3900.749          19.810  
R17  21786570.571     1556230.7811       -801.866          33.235  
R03  20006650.284    -3506865.3561       1446.585          22.731  
R04  22543372.348    -5849246.0061       3951.987          28.631  
J01  37926673.111     1632696.2141       -989.014          33.344  
J026312308038.330       17211.0441       -861.217          22.043  
E016315813928.550     2726581.1781      -1896.472          28.937  
> 2018  4 30 12  6 51.9995649  0 19
G02  23278426.281    -4290164.3721        756.990          26.940  
G03  24469501.716     6807214.5571      -3644.596          10.260  
G06  21185216.580      504618.6631       -447.557          32.824  
G09  23373404.429    -2728790.0831       1467.800          18.040  
G17  21252658.790    -1347732.7471        547.685          26.351  
G19  21234000.008    -2030208.1001        955.606          29.304  
G23  24734782.966     -409500.6661        -54.430          32.282  
G28  21459587.836     4260470.3651      -2862.643          40.041  
G30  25735733.023     3235483.7441      -1978.535           7.000  
R02  21482300.713     3134976.7761      -2344.264          36.529  
R18  21396054.919     -958699.1541        629.477          29.484  
R16  21724139.691      948330.9931      -1179.309          20.956  
R15  22623803.367     7077104.0651      -3901.558          20.728  
R17  21786734.558     1557031.3411       -805.170          31.841  
R03  20006351.691    -3508307.8151       1437.504          23.424  
R04  22542653.746    -5853196.0151       3951.565          31.153  
J01  37926858.382     1633687.1771       -987.287          33.140  
J026612100659.414       18072.9161       -855.583          23.297  
E016615606760.390     2728476.4411      -1897.652          28.771  
> 2018  4 30 12  6 52.9995649  0 19
G02  23278304.565    -4290921.6411        758.367          24.595  
G03  24470199.034     6810859.4501      -3644.125           9.400  
G06  21185302.021      505066.7311       -446.997          32.414  
G09  23373114.530    -2730254.6171       1467.237          16.523  
G17  21252557.461    -1348276.8041        549.214          27.024  
G19  21233815.036    -2031165.2551        955.461          33.357  
G23  24734767.976     -409445.9151        -50.114          30.304  
G28  21460132.559     4263333.2401      -2862.247          39.231  
G30  25736110.761     3237461.3101      -1978.535           7.000  
R02  21482736.911     3137320.7941      -2342.317          34.018  
R18  21395911.019     -959327.5991        627.195          27.347  
R16  21724340.552      949504.2421      -1181.164          20.592  
R15  22624588.223     7081005.5771      -3902.063          20.094  
R17  21786866.766     1557839.7431       -800.303          34.685  
R03  20006080.978    -3509752.0591       1442.314          21.503  
R04  22541915.657    -5857145.6081       3949.406          31.813  
J01  37927042.755     1634674.7970       -987.205          32.442  
J026911893329.664       18923.6641       -859.428          21.598  
E016915399581.140     2730371.1811      -1895.239          28.402  
> 2018  4 30 12  6 53.9995649  0 19
G02  23278136.382    -4291679.1481        755.312          23.178  
G03  24470928.429     6814499.1951      -3648.599           9.118  
G06  21185385.063      505515.2171       -444.521          30.684  
G09  23372834.523    -2731717.7351       1464.439          14.725  
G17  21252479.814    -1348825.5141        545.970          26.923  
G19  21233635.460    -2032122.9111        956.777          29.239  
G23  24734805.750     -409398.9481        -51.808          27.408  
G28  21460679.681     4266195.1640      -2859.751          36.016  
G30  25736487.301     3239439.0231      -1977.559           7.000  
R02  21483176.406     3139665.0080      -2345.306          38.163  
R18  21395822.580     -959948.6081        627.380          26.372  
R16  21724512.633      950688.3001      -1183.371          20.013  
R15  22625244.769     7084906.4701      -3898.798          20.563  
R17  21787016.362     1558640.3360       -801.345          34.060  
R03  20005863.029    -3511199.6471       1442.419          20.894  
R04  22541166.175    -5861095.3420       3948.429          35.425  
J01  37927229.525     1635662.4281       -986.815          35.680  
J027211685923.170       19779.9971       -860.552          21.412  
E017215192388.090     2732269.1861      -1896.578          28.543  
> 2018  4 30 12  6 54.9995649  0 19
G02  23277978.691    -4292436.1341        751.492          25.094  
G03  24471450.967     6818142.9241      -3646.227           8.301  
G06  21185483.395      505961.0021       -446.312          30.462  
G09  23372576.702    -2733183.2881       1465.329          19.199  
G17  21252345.807    -1349367.8251        547.598          26.554  
G19  21233442.993    -2033075.7401        955.255          29.125  
G23  24734816.543     -409342.0931        -58.703          30.650  
G28  21461235.496     4269057.6101      -2863.511          32.582  
G30  25736863.540     3241415.6131      -1977.559           7.000  
R02  21483603.311     3142009.9041      -2347.070          36.782  
R18  21395707.460     -960583.1461        628.458          23.931  
R16  21724763.559      951874.5951      -1183.966          20.195  
R15  22625985.556     7088806.3411      -3898.092          20.936  
R17  21787177.651     1559441.3700       -801.708          34.846  
R03  20005588.120    -3512646.2681       1441.030          21.781  
R04  22540439.179    -5865044.5541       3947.906          32.089  
J01  37927419.294     1636650.7411       -989.701          34.135  
J027511478560.150       20641.8431       -857.638          20.401  
E017514985207.650     2734171.9201      -1897.428          27.315  
> 2018  4 30 12  6 55.9995649  0 19
G02  23277852.478    -4293189.1741        755.337          26.819  
G03  24472322.763     6821788.3541      -3644.090           7.441  
G06  21185560.142      506407.3121       -448.781          31.796  
G09  23372298.494    -2734653.8211       1465.826          18.961  
G17  21252237.882    -1349911.6371        546.593          26.276  
G19  21233274.810    -2034032.2981        954.436          31.641  
G23  24734806.350     -409280.7271        -57.759          27.772  
G28  21461789.212     4271921.1391      -2865.692          30.094  
G30  25737238.880     3243391.5821      -1976.583           7.000  
R02  21484057.496     3144355.7501      -2346.384          33.970  
R18  21395583.346     -961210.7371        628.038          25.429  
R16  21724964.420      953066.4951      -1185.365          21.204  
R15  22626756.323     7092702.5691      -3899.096          21.190  
R17  21787299.067     1560242.6081       -806.132          33.022  
R03  20005301.218    -3514084.0991       1439.654          22.017  
R04  22539692.396    -5868994.7471       3947.613          31.516  
J01  37927601.568     1637639.5471       -990.416          32.746  
J027811271129.375       21503.7491       -861.529          24.476  
E017814778027.500     2736079.8551      -1900.469          29.077  
> 2018  4 30 12  6 56.9995649  0 19
G02  23277694.787    -4293943.3171        754.034          28.773  
G03  24472964.619     6825439.8621      -3642.204           8.446  
G06  21185658.174      506855.9031       -448.626          29.367  
G09  23372022.685    -2736117.5321       1466.254          19.016  
G17  21252140.150    -1350458.1581        545.962          30.638  
G19  21233088.639    -2034979.3581        949.182          29.660  
G23  24734817.742     -409227.9091        -55.510          26.367  
G28  21462321.344     4274784.7231      -2866.293          27.816  
G30  25737615.719     3245366.9771      -1975.608           7.000  
R02  21484482.302     3146703.3901      -2350.158          35.251  
R18  21395439.146     -961843.3851        628.564          23.808  
R16  21725230.936      954258.1011      -1190.239          22.937  
R15  22627506.403     7096600.7161      -3901.902          23.795  
R17  21787475.944     1561045.2361       -803.431          32.301  
R03  20005107.852    -3515515.9181       1435.704          20.675  
R04  22538961.502    -5872943.8420       3948.562          33.092  
J01  37927795.534     1638629.4121       -989.379          31.503  
J028111063781.336       22365.0301       -865.444          23.890  
E018114570840.450     2737985.7741      -1901.274          30.482  
> 2018  4 30 12  6 57.9995649  0 19
G02  23277557.482    -4294691.0501        751.646          27.734  
G03  24473661.337     6829086.6091      -3645.153           7.586  
G06  21185721.430      507304.1181       -445.678          31.616  
G09  23371752.273    -2737580.8621       1465.584          19.675  
G17  21252038.220    -1350999.7881        543.949          30.005  
G19  21232909.063    -2035930.2141        953.038          29.001  
G23  24734855.816     -409168.5980        -59.753          29.773  
G28  21462883.755     4277651.9381      -2864.598          25.472  
G30  25737992.259     3247343.5191      -1975.608           7.000  
R02  21484925.096     3149051.3171      -2350.104          34.481  
R18  21395312.933     -962471.1701        625.756          24.339  
R16  21725467.472      955450.0101      -1190.780          20.546  
R15  22628346.722     7100500.8371      -3902.106          22.632  
R17  21787606.054     1561852.3771       -803.087          31.071  
R03  20004814.655    -3516950.4811       1433.327          19.624  
R04  22538231.207    -5876891.2500       3949.181          31.110  
J01  37927985.302     1639618.9841       -991.028          33.704  
J028410856421.610       23227.8011       -863.311          22.850  
E018414363678.890     2739880.9191      -1899.844          28.541  
> 2018  4 30 12  6 58.9995649  0 19
G02  23277395.894    -4295440.9371        751.156          31.095  
G03  24474226.146     6832723.7391      -3648.727           7.220  
G06  21185809.269      507751.9721       -447.743          32.698  
G09  23371453.080    -2739044.6181       1465.129          19.705  
G17  21251948.582    -1351546.7571        544.086          27.785  
G19  21232723.491    -2036889.5691        954.543          28.576  
G23  24734853.717     -409109.2801        -60.159          30.703  
G28  21463429.377     4280512.0001      -2864.587          26.093  
G30  25738369.098     3249320.3041      -1976.583           7.000  
R02  21485370.587     3151400.2211      -2346.437          32.625  
R18  21395208.006     -963102.2801        628.035          23.100  
R16  21725645.249      956637.2951      -1190.790          23.808  
R15  22629019.456     7104398.1441      -3902.183          22.657  
R17  21787762.846     1562654.8481       -802.564          31.922  
R03  20004505.869    -3518384.6371       1434.868          20.692  
R04  22537481.726    -5880843.5491       3949.926          29.770  
J01  37928169.075     1640608.3981       -987.827          33.311  
J028710649027.410       24091.3071       -858.340          19.749  
E018714156479.550     2741768.5501      -1900.735          27.581  
> 2018  4 30 12  6 59.9995649  0 19
G02  23277258.589    -4296191.8140        749.918          33.829  
G03  24474921.065     6836373.2251      -3647.016           7.000  
G06  21185897.109      508195.6331       -448.670          31.021  
G09  23371170.675    -2740509.6801       1464.973          19.325  
G17  21251826.866    -1352099.9481        543.895          27.112  
G19  21232547.813    -2037845.0491        952.785          28.461  
G23  24734881.598     -409050.2911        -57.689          27.420  
G28  21463983.094     4283377.1421      -2864.301          25.845  
G30  25738743.239     3251296.2861      -1976.583           7.000  
R02  21485830.469     3153750.0031      -2350.381          32.382  
R18  21395127.661     -963735.2991        628.462          21.868  
R16  21725884.183      957824.6151      -1194.352          26.387  
R15  22629682.297     7108300.7881      -3901.732          22.322  
R17  21787935.226     1563457.7541       -801.526          30.106  
R03  20004261.838    -3519820.1991       1439.612          21.734  
R04  22536750.232    -5884793.5121       3950.138          29.263  
J01  37928365.739     1641601.8971       -991.376          31.860  
J029010441642.200       24953.8501       -859.664          20.546  
E019013949317.984     2743652.6931      -1900.515          27.139  
> 2018  4 30 12  7  0.9995649  0 19
G02  23277121.584    -4296942.4801        748.744          33.034  
G03  24475919.973     6840020.7291      -3647.017           7.000  
G06  21185986.447      508642.0471       -447.381          30.654  
G09  23370893.967    -2741972.0471       1464.824          18.413  
G17  21251732.432    -1352641.7611        542.762          28.142  
G19  21232358.344    -2038799.1041        949.753          28.832  
G23  24734863.310     -408993.3761        -55.083          26.520  
G28  21464515.825     4286245.6521      -2863.884          24.017  
G30  25739120.977     3253271.6811      -1975.608           7.000  
R02  21486269.065     3156109.5791      -2359.161          29.362  
R18  21394979.264     -964356.6321        621.002          21.176  
R16  21726109.627      959017.7001      -1193.822          25.180  
R15  22630533.108     7112208.3011      -3902.666          21.738  
R17  21788079.726     1564260.2121       -801.418          32.919  
R03  20003948.255    -3521258.3351       1433.127          22.780  
R04  22536070.303    -5888750.9731       3950.435          25.750  
J01  37928553.409     1642590.7541       -991.938          32.105  
J029310234275.875       25817.1851       -859.593          18.587  
E019313742136.336     2745536.4911      -1897.930          24.740  
> 2018  4 30 12  7  1.9995649  0 19
G02  23276989.376    -4297693.2931        754.554          32.766  
G03  24476478.187     6843669.8551      -3647.995           7.000  
G06  21186061.095      509089.7761       -447.652          31.655  
G09  23370611.562    -2743430.9941       1466.469          19.702  
G17  21251634.100    -1353185.8661        541.693          26.100  
G19  21232171.873    -2039752.5951        950.675          29.937  
G23  24734898.386     -408941.9491        -55.581          24.280  
G28  21465077.936     4289114.8221      -2867.981          23.002  
G30  25739496.018     3255245.9191      -1975.608           7.000  
R02  21486686.976     3158472.5321      -2354.383          31.078  
R18  21394828.169     -964969.5651        617.470          20.967  
R16  21726321.880      960215.8091      -1194.925          27.867  
R15  22631179.161     7116107.7481      -3901.430          19.799  
R17  21788225.725     1565062.4501       -804.176          33.993  
R03  20003649.062    -3522690.6121       1432.947          22.328  
R04  22535291.143    -5892704.9381       3946.533          24.276  
J01  37928734.783     1643580.6670       -990.490          35.423  
J029610026900.266       26680.8031       -860.462          16.950  
E019613534944.800     2747420.5381      -1899.286          25.287  
> 2018  4 30 12  7  2.9995649  0 19
G02  23276826.888    -4298443.8170        749.937          33.414  
G03  24477122.141     6847326.7001      -3649.875           7.918  
G06  21186160.027      509540.0561       -450.623          31.071  
G09  23370340.250    -2744897.2941       1467.470          18.325  
G17  21251538.766    -1353723.2631        542.510          23.980  
G19  21231991.698    -2040707.5451        951.346          28.538  
G23  24734861.811     -408885.8041        -56.992          24.890  
G28  21465626.256     4291986.2311      -2866.164          23.373  
G30  25739872.557     3257219.1541      -1973.657           7.000  
R02  21487133.667     3160824.2451      -2347.856          34.887  
R18  21394697.759     -965585.1281        621.425          20.538  
R16  21726569.209      961414.7101      -1194.977          25.632  
R15  22631802.129     7120008.5971      -3901.769          20.922  
R17  21788354.936     1565870.8061       -806.666          31.544  
R03  20003440.706    -3524127.2231       1431.416          22.627  
R04  22534575.838    -5896648.0431       3948.919          23.708  
J01  37928931.747     1644573.6711       -991.478          34.063  
J029909819528.840       27547.1061       -859.666          15.826  
E019913327763.150     2749306.6941      -1902.363          26.862  
> 2018  4 30 12  7  3.9995649  0 19
G02  23276684.786    -4299194.4781        746.484          32.250  
G03  24477792.777     6850968.2671      -3648.837           7.058  
G06  21186238.272      509988.5491       -450.191          31.202  
G09  23370072.535    -2746362.4541       1468.348          18.849  
G17  21251400.861    -1354267.7021        542.366          25.386  
G19  21231810.923    -2041662.2141        950.236          28.345  
G23  24734903.183     -408825.9361        -56.810          24.008  
G28  21466160.786     4294855.0141      -2867.980          23.166  
G30  25740247.897     3259192.2091      -1973.657           7.000  
R02  21487581.257     3163177.8281      -2353.714          35.111  
R18  21394603.924     -966208.9131        623.786          19.485  
R16  21726784.160      962612.5241      -1197.354          24.891  
R15  22632507.841     7123908.5051      -3906.642          22.816  
R17  21788521.620     1566673.9921       -804.703          30.481  
R03  20003194.577    -3525558.4621       1434.838          21.268  
R04  22533831.753    -5900602.8671       3953.821          23.773  
J01  37929112.522     1645569.8001       -989.915          31.497  
J020209612185.010       28409.7911       -860.738          19.952  
E010213120597.086     2751196.9151      -1900.092          25.595  
> 2018  4 30 12  7  4.9995649  0 19
G02  23276558.574    -4299945.5781        750.248          33.292  
G03  24478482.000     6854621.8281      -3649.943           7.000  
G06  21186322.814      510435.4621       -448.468          32.233  
G09  23369812.615    -2747833.6501       1466.718          17.992  
G17  21251325.314    -1354809.9031        541.088          26.513  
G19  21231635.245    -2042612.4151        952.623          31.806  
G23  24734913.676     -408760.6281        -59.788          23.685  
G28  21466727.394     4297726.0951      -2869.027          23.744  
G30  25740623.537     3261164.6771      -1972.681           7.000  
R02  21488002.166     3165531.3950      -2353.838          34.429  
R18  21394521.481     -966839.4181        624.277          19.099  
R16  21726973.629      963809.8121      -1199.732          23.417  
R15  22633236.636     7127819.1471      -3902.643          25.992  
R17  21788689.204     1567476.6741       -803.915          31.647  
R03  20002854.612    -3526987.7061       1430.052          22.340  
R04  22533135.635    -5904559.8681       3952.995          21.961  
J01  37929302.590     1646559.3150       -990.070          32.794  
J020509404832.480       29278.1481       -867.135          17.624  
E010512913426.530     2753088.9381      -1901.239          24.869  
> 2018  4 30 12  7  5.9995649  0 19
G02  23276404.181    -4300692.4221        752.374          31.202  
G03  24479088.180     6858270.5771      -3648.777           7.000  
G06  21186423.844      510879.9861       -449.389          32.989  
G09  23369527.513    -2749296.0111       1465.417          14.130  
G17  21251228.481    -1355349.4991        539.380          26.780  
G19  21231460.166    -2043561.9701        953.286          28.959  
G23  24734915.774     -408700.2501        -61.187          24.512  
G28  21467262.224     4300588.8161      -2866.903          26.834  
G30  25741000.076     3263137.5241      -1972.681           7.000  
R02  21488453.953     3167886.0210      -2354.484          33.598  
R18  21394387.774     -967464.5901        625.928          20.135  
R16  21727210.765      965007.6021      -1199.263          28.100  
R15  22633971.428     7131722.8681      -3901.139          26.005  
R17  21788821.413     1568279.6251       -803.343          31.808  
R03  20002600.987    -3528424.4031       1429.006          19.935  
R04  22532394.248    -5908509.3181       3954.995          21.052  
J01  37929488.162     1647549.6651       -990.462          33.666  
J020809197432.875       30148.4711       -864.614          17.345  
E010812706239.780     2754983.0361      -1902.576          25.730  
> 2018  4 30 12  7  6.9995649  0 19
G02  23276255.184    -4301442.8691        751.400          34.935  
G03  24479781.000     6861919.2371      -3649.016           7.000  
G06  21186494.295      511322.9441       -446.858          32.278  
G09  23369235.815    -2750761.2261       1464.849          18.156  
G17  21251133.147    -1355886.6441        539.834          24.925  
G19  21231278.192    -2044511.3901        948.669          28.244  
G23  24734847.721     -408636.4731        -57.148          25.061  
G28  21467805.148     4303453.8501      -2867.571          26.760  
G30  25741374.217     3265110.2001      -1972.681           7.000  
R02  21488899.145     3170241.4610      -2357.751          33.507  
R18  21394261.261     -968091.8161        624.147          21.722  
R16  21727437.708      966207.4911      -1198.189          27.607  
R15  22634717.911     7135625.3401      -3901.072          25.821  
R17  21788975.506     1569086.9581       -803.406          31.828  
R03  20002377.942    -3529852.2631       1429.150          19.037  
R04  22531663.354    -5912456.2211       3951.450          21.919  
J01  37929680.928     1648539.1820       -987.897          36.035  
J021108990046.170       31010.9411       -862.231          21.181  
E011112499051.234     2756885.8781      -1897.736          25.788  
> 2018  4 30 12  7  7.9995649  0 19
G02  23276125.674    -4302193.4141        750.955          35.967  
G03  24480474.120     6865566.0551      -3646.826           7.000  
G06  21186575.839      511776.5491       -448.171          31.121  
G09  23368960.605    -2752229.7521       1463.596          18.962  
G17  21251011.431    -1356424.5131        544.072          25.415  
G19  21231112.407    -2045460.0711        947.770          26.745  
G23  24734873.803     -408579.1361        -57.062          24.011  
G28  21468351.669     4306329.0761      -2870.383          25.994  
G30  25741749.558     3267082.8791      -1972.681           7.000  
R02  21489332.645     3172597.0071      -2355.274          31.416  
R18  21394149.738     -968721.7931        621.961          21.950  
R16  21727644.265      967404.5951      -1198.545          26.097  
R15  22635425.121     7139530.0191      -3905.239          26.679  
R17  21789109.214     1569894.4671       -803.513          30.889  
R03  20002125.816    -3531281.9751       1429.744          19.936  
R04  22530904.879    -5916407.1741       3952.549          22.400  
J01  37929868.898     1649534.4831       -988.845          32.458  
J021408782643.270       31873.1571       -859.838          23.251  
E011412291884.580     2758801.7391      -1902.086          25.398  
> 2018  4 30 12  7  8.9995649  0 18
G02  23275997.362    -4302942.1001        757.062          32.205  
G03  24481167.840     6869212.7631      -3647.064           7.000  
G06  21186662.779      512223.0031       -446.886          33.267  
G09  23368684.197    -2753690.4291       1463.010          17.775  
G17  21250905.604    -1356967.4511        544.712          27.221  
G19  21230919.940    -2046414.3731        952.477          26.939  
G23  24734954.148     -408515.8421        -61.190          24.953  
G28  21468889.197     4309200.6741      -2871.995          28.092  
R02  21489778.736     3174953.9120      -2357.951          37.762  
R18  21394083.784     -969349.2041        625.235          20.874  
R16  21727893.692      968604.3691      -1200.246          30.015  
R15  22636187.793     7143439.6051      -3904.100          25.120  
R17  21789260.609     1570697.6781       -803.707          32.313  
R03  20001832.619    -3532717.5781       1429.454          19.546  
R04  22530197.369    -5920359.4271       3950.692          23.011  
J01  37930053.271     1650523.7991       -990.117          32.392  
J021708575258.370       32737.8781       -859.807          19.916  
E011712084708.330     2760708.9771      -1898.585          24.577  
> 2018  4 30 12  7  9.9995649  0 18
G02  23275829.778    -4303691.9560        748.934          37.333  
G03  24481861.860     6872860.0731      -3646.826           7.000  
G06  21186750.918      512673.2621       -450.260          33.948  
G09  23368403.891    -2755153.9881       1463.621          16.937  
G17  21250821.063    -1357507.2631        542.997          25.250  
G19  21230737.966    -2047362.8151        952.266          28.709  
G23  24734875.302     -408454.2081        -55.555          25.242  
G28  21469434.220     4312073.2021      -2870.880          27.128  
R02  21490225.726     3177311.2360      -2358.141          35.114  
R18  21393918.598     -969975.3131        622.813          23.319  
R16  21728108.943      969806.0651      -1202.527          31.333  
R15  22636883.312     7147336.4461      -3903.219          24.893  
R17  21789421.897     1571501.2491       -805.439          31.007  
R03  20001524.733    -3534152.1381       1427.860          20.134  
R04  22529423.904    -5924304.8171       3950.939          22.899  
J01  37930245.138     1651513.7510       -989.740          36.193  
J022008367901.336       33599.6241       -858.521          22.556  
E012011877517.080     2762607.5861      -1901.964          25.916  
> 2018  4 30 12  7 10.9995649  0 18
G02  23275687.977    -4304441.4581        747.190          34.310  
G03  24482681.492     6876508.5341      -3647.801           7.000  
G06  21186821.069      513123.5181       -453.778          31.209  
G09  23368125.683    -2756617.8101       1464.436          19.582  
G17  21250731.125    -1358051.4651        535.433          25.587  
G19  21230554.493    -2048312.9181        947.601          27.631  
G23  24734887.594     -408404.3701        -53.870          25.465  
G28  21469980.742     4314939.0681      -2869.340          25.927  
R02  21490668.520     3179669.2461      -2357.698          35.679  
R18  21393801.679     -970598.9281        623.107          23.752  
R16  21728346.379      971007.9651      -1201.946          29.812  
R15  22637600.415     7151245.4331      -3908.383          24.162  
R17  21789579.588     1572304.2471       -805.565          30.916  
R03  20001232.435    -3535580.9771       1426.321          21.679  
R04  22528693.910    -5928255.6771       3952.415          23.448  
J01  37930440.602     1652505.0901       -990.642          33.448  
J022308160514.930       34461.8821       -862.249          24.202  
E012311670344.430     2764516.1901      -1903.387          27.183  
> 2018  4 30 12  7 11.9995649  0 18
G02  23275553.669    -4305190.2761        753.186          34.114  
G03  24483363.520     6880157.5191      -3648.777           7.000  
G06  21186904.411      513573.1121       -450.604          30.945  
G09  23367862.765    -2758079.1951       1466.192          21.522  
G17  21250603.413    -1358591.6571        536.480          25.895  
G19  21230360.227    -2049263.4801        947.173          27.500  
G23  24734910.977     -408343.7681        -57.152          26.070  
G28  21470520.068     4317811.5431      -2870.693          25.838  
R02  21491103.219     3182028.1570      -2359.133          37.540  
R18  21393679.364     -971220.5061        624.566          23.565  
R16  21728565.227      972211.1131      -1200.161          27.811  
R15  22638440.134     7155151.1221      -3907.114          23.581  
R17  21789726.786     1573108.8021       -805.381          30.009  
R03  20001003.993    -3537010.7411       1433.719          21.116  
R04  22528003.488    -5932209.8941       3949.215          24.760  
J01  37930627.673     1653495.6421       -988.752          32.427  
J022607953159.100       35324.3631       -864.186          22.140  
E012611463166.375     2766432.0911      -1902.213          26.309  
> 2018  4 30 12  7 12.9995649  0 18
G02  23275423.260    -4305943.2801        753.406          32.208  
G03  24483943.319     6883806.9391      -3648.777           7.000  
G06  21186987.154      514023.6760       -451.713          36.353  
G09  23367550.381    -2759544.1581       1469.251          22.259  
G17  21250506.580    -1359131.3621        539.393          24.164  
G19  21230174.956    -2050214.5391        952.580          31.828  
G23  24735005.412     -408281.3211        -59.574          24.243  
G28  21471065.691     4320682.4721      -2869.617          26.575  
R02  21491545.113     3184388.0230      -2360.657          36.098  
R18  21393550.153     -971841.6551        627.647          24.316  
R16  21728806.260      973414.3101      -1199.071          28.448  
R15  22639053.210     7159052.9681      -3906.812          24.832  
R17  21789866.489     1573912.7990       -804.110          36.023  
R03  20000750.069    -3538443.5101       1428.504          24.260  
R04  22527217.132    -5936158.3561       3950.072          23.123  
J01  37930807.548     1654487.0221       -989.817          31.467  
J022907745782.880       36189.1231       -862.772          19.647  
E012911255982.920     2768354.3301      -1903.272          26.607  
> 2018  4 30 12  7 13.9995649  0 18
G02  23275274.863    -4306696.6301        750.443          30.629  
G03  24484749.461     6887455.8901      -3649.752           8.590  
G06  21187075.293      514473.8611       -450.769          37.814  
G09  23367305.151    -2761006.9591       1464.310          21.810  
G17  21250408.248    -1359671.2411        541.302          25.770  
G19  21230003.774    -2051162.9571        951.150          31.025  
G23  24735014.106     -408229.5841        -62.274          21.207  
G28  21471633.198     4323548.1481      -2870.438          26.986  
R02  21492000.797     3186748.7320      -2360.859          36.776  
R18  21393445.826     -972464.6961        623.977          23.235  
R16  21729018.214      974618.8561      -1202.795          28.712  
R15  22639913.014     7162955.6111      -3903.160          24.140  
R17  21790034.973     1574716.4571       -805.220          33.203  
R03  20000469.463    -3539869.8311       1425.689          25.872  
R04  22526503.926    -5940108.3851       3948.520          24.970  
J01  37930999.116     1655477.7531       -991.924          33.603  
J023207538376.090       37053.5041       -862.433          22.620  
E013211048806.375     2770272.1381      -1906.621          24.952  
> 2018  4 30 12  7 14.9995649  0 18
G02  23275144.753    -4307445.8361        746.320          29.441  
G03  24485449.776     6891105.2811      -3648.777           8.643  
G06  21187163.732      514925.2140       -450.400          35.430  
G09  23366966.086    -2762468.4321       1460.898          20.706  
G17  21250292.529    -1360212.8071        539.997          25.095  
G19  21229809.808    -2052112.9181        949.070          29.987  
G23  24734981.129     -408172.4211        -61.939          22.120  
G28  21472162.032     4326423.1451      -2873.034          25.334  
R02  21492434.897     3189110.0921      -2362.302          34.396  
R18  21393321.712     -973091.9361        624.911          23.002  
R16  21729252.651      975821.5541      -1204.460          28.665  
R15  22640560.266     7166857.5521      -3903.623          25.207  
R17  21790165.682     1575520.0621       -807.136          31.472  
R03  20000182.562    -3541297.4711       1426.082          27.996  
R04  22525718.170    -5944055.0021       3947.713          28.457  
J01  37931183.788     1656468.7690       -990.595          34.713  
J023507331001.375       37916.7151       -863.397          19.093  
E013510841629.820     2772175.9121      -1904.939          22.790  
> 2018  4 30 12  7 15.9995649  0 18
G02  23275010.446    -4308193.3951        748.645          31.449  
G03  24486140.498     6894754.5691      -3648.777           9.473  
G06  21187236.581      515375.0321       -449.234          37.945  
G09  23366722.055    -2763931.3911       1460.022          23.824  
G17  21250189.400    -1360748.1091        540.982          26.405  
G19  21229632.331    -2053062.2061        949.291          30.805  
G23  24734954.447     -408108.1591        -57.021          22.344  
G28  21472717.547     4329294.9401      -2873.720          25.831  
R02  21492880.988     3191472.1481      -2360.230          34.785  
R18  21393214.985     -973714.1081        623.224          27.527  
R16  21729523.664      977023.9651      -1202.761          26.399  
R15  22641363.410     7170765.0041      -3905.917          25.494  
R17  21790342.260     1576324.7961       -805.177          31.623  
R03  19999939.130    -3542721.8601       1422.550          32.854  
R04  22525025.050    -5947999.1831       3948.929          27.385  
J01  37931370.858     1657460.2511       -990.742          33.529  
J023807123651.840       38779.5581       -861.969          17.682  
E013810634431.984     2774072.3071      -1903.661          21.277  
> 2018  4 30 12  7 16.9995649  0 18
G02  23274875.239    -4308939.2661        752.898          29.047  
G03  24486835.417     6898407.5631      -3649.752           9.236  
G06  21187329.217      515825.4291       -451.343          36.639  
G09  23366469.030    -2765393.8921       1462.357          22.530  
G17  21250065.586    -1361290.7151        541.123          25.131  
G19  21229458.152    -2054012.8101        947.095          28.709  
G23  24735000.615     -408047.1231        -56.460          23.133  
G28  21473270.664     4332166.9531      -2875.868          25.401  
R02  21493317.486     3193839.3181      -2364.142          33.818  
R18  21393066.288     -974333.4481        624.460          24.856  
R16  21729708.036      978229.2931      -1201.758          27.195  
R15  22642005.566     7174669.0001      -3905.376          24.869  
R17  21790459.179     1577125.2481       -802.953          31.381  
R03  19999653.128    -3544139.5151       1422.858          35.263  
R04  22524240.193    -5951944.8051       3944.753          33.788  
J01  37931572.619     1658454.8101       -993.186          31.989  
J024106916282.520       39643.7331       -862.799          19.087  
E014110427274.914     2775959.3381      -1906.687          24.138  
> 2018  4 30 12  7 17.9995649  0 18
G02  23274729.240    -4309692.7151        755.159          27.730  
G03  24487527.338     6902053.5911      -3649.752           8.375  
G06  21187422.752      516276.3801       -456.184          33.777  
G09  23366182.429    -2766856.1811       1461.841          22.280  
G17  21249987.640    -1361827.4401        536.034          25.145  
G19  21229278.876    -2054954.9431        945.929          26.768  
G23  24735043.786     -407993.3741        -59.603          23.534  
G28  21473831.276     4335041.6691      -2878.853          23.139  
R02  21493738.395     3196206.6401      -2372.529          30.769  
R18  21392945.772     -974966.5601        627.304          27.344  
R16  21729912.794      979432.1451      -1201.875          25.711  
R15  22642763.141     7178570.2711      -3903.868          25.608  
R17  21790615.371     1577929.1610       -804.504          37.333  
R03  19999385.114    -3545561.3481       1423.418          30.886  
R04  22523534.781    -5955889.8921       3944.761          30.754  
J01  37931757.890     1659445.4461       -994.325          34.951  
J024406708900.914       40511.5501       -862.635          16.354  
E014410220093.870     2777863.0561      -1903.822          24.967  
> 2018  4 30 12  7 18.9995649  0 18
G02  23274609.623    -4310444.9091        752.773          28.325  
G03  24488224.355     6905705.0891      -3649.752           7.515  
G06  21187540.271      516738.4041       -454.518          30.000  
G09  23365910.817    -2768316.3061       1460.712          22.982  
G17  21249883.612    -1362365.4981        537.212          27.090  
G19  21229099.900    -2055909.2221        951.306          27.172  
G23  24735073.165     -407929.2601        -62.261          21.869  
G28  21474364.307     4337917.6681      -2878.211          22.332  
R02  21494205.771     3198573.3331      -2367.037          30.178  
R18  21392844.442     -975595.7391        624.896          27.342  
R16  21730195.199      980632.3571      -1204.088          22.559  
R15  22643433.777     7182472.7761      -3904.222          24.463  
R17  21790774.561     1578734.0870       -804.522          37.263  
R03  19999127.892    -3546982.7311       1418.963          28.229  
R04  22522797.292    -5959836.4701       3947.882          27.813  
J01  37931935.667     1660437.2161       -988.570          33.185  
J024706501519.600       41380.0851       -862.048          11.961  
E014710012918.810     2779766.2761      -1904.812          24.053  
> 2018  4 30 12  7 19.9995649  0 18
G02  23274467.821    -4311201.1051        756.397          33.006  
G03  24488926.769     6909352.4181      -3650.728           7.114  
G06  21187601.429      517193.6411       -449.917          29.109  
G09  23365599.032    -2769777.5571       1459.355          25.552  
G17  21249775.387    -1362902.5811        540.148          27.487  
G19  21228906.534    -2056861.1821        948.266          31.723  
G23  24735079.461     -407869.2221        -65.258          19.111  
G28  21474901.835     4340799.3541      -2874.505          24.041  
R02  21494662.055     3200942.2281      -2365.927          31.010  
R18  21392738.615     -976225.1041        625.591          24.521  
R16  21730407.152      981826.9531      -1199.277          23.196  
R15  22644150.581     7186379.6111      -3910.080          28.436  
R17  21790922.059     1579541.5261       -808.008          33.110  
R03  19998886.559    -3548404.3431       1419.449          27.481  
R04  22522032.521    -5963784.1131       3948.670          29.871  
J01  37932132.331     1661428.2061       -991.306          35.817  
J025006294155.380       42247.8731       -861.791          13.559  
E015009805747.055     2781672.0341      -1910.726          23.912  
> 2018  4 30 12  7 20.9995649  0 18
G02  23274322.722    -4311956.4961        750.537          32.740  
G03  24489501.471     6912998.4681      -3650.728           8.087  
G06  21187687.469      517648.6491       -451.393          27.433  
G09  23365328.620    -2771230.7191       1456.836          25.246  
G17  21249662.065    -1363440.0481        537.777          27.828  
G19  21228731.755    -2057807.9221        943.172          30.939  
G23  24735021.601     -407808.5301        -66.231          19.100  
G28  21475464.245     4343675.1871      -2876.364          24.034  
R02  21495099.452     3203311.9961      -2367.683          28.616  
R18  21392620.497     -976848.6601        621.338          24.902  
R16  21730643.688      983028.4441      -1203.325          27.507  
R15  22644913.852     7190287.6881      -3909.495          28.275  
R17  21791064.460     1580347.9111       -807.401          32.572  
R03  19998605.054    -3549823.8711       1419.721          27.218  
R04  22521317.217    -5967728.7251       3944.644          30.144  
J01  37932319.102     1662419.8751       -993.797          36.349  
J025306086741.990       43110.4411       -861.888          13.645  
E015309598558.510     2783581.7411      -1906.112          24.691  
> 2018  4 30 12  7 21.9995649  0 18
G02  23274158.435    -4312709.4531        751.226          31.045  
G03  24490197.289     6916653.8741      -3651.704           8.207  
G06  21187787.900      518106.3331       -453.468          29.576  
G09  23365060.605    -2772682.9671       1459.036          25.528  
G17  21249570.029    -1363980.4791        536.366          31.596  
G19  21228554.877    -2058755.7681        945.129          29.951  
G23  24735039.888     -407745.9121        -64.218          21.866  
G28  21475999.675     4346547.2101      -2877.746          24.546  
R02  21495556.636     3205688.7651      -2373.175          26.586  
R18  21392510.173     -977471.9721        625.994          25.010  
R16  21730906.606      984231.7651      -1206.267          26.271  
R15  22645642.348     7194184.4861      -3901.809          29.734  
R17  21791220.352     1581151.9381       -807.506          30.480  
R03  19998330.444    -3551236.3801       1417.681          30.136  
R04  22520590.819    -5971673.8851       3943.196          28.557  
J01  37932505.573     1663410.9920       -988.886          36.240  
J025605879342.090       43920.1631       -860.775          13.374  
E015609391386.160     2785490.4051      -1906.177          25.688  
> 2018  4 30 12  7 22.9995649  0 18
G02  23274006.441    -4313460.3651        751.943          29.275  
G03  24490893.407     6920301.0631      -3651.704           7.346  
G06  21187872.741      518557.0031       -450.073          32.908  
G09  23364765.609    -2774144.5501       1462.442          25.035  
G17  21249459.106    -1364517.8161        537.437          28.935  
G19  21228370.205    -2059699.8341        945.471          31.491  
G23  24735049.781     -407677.6321        -65.501          21.690  
G28  21476559.987     4349424.1211      -2875.871          26.320  
R02  21496004.526     3208061.0061      -2371.823          28.069  
R18  21392356.979     -978097.7871        628.860          25.316  
R16  21731090.679      985439.4741      -1207.518          24.761  
R15  22646343.263     7198080.5551      -3903.312          28.728  
R17  21791379.842     1581955.1291       -806.123          29.842  
R03  19998077.119    -3552648.8381       1418.296          28.770  
R04  22519826.948    -5975618.1361       3944.115          30.327  
J01  37932698.939     1664402.7231       -992.847          35.811  
J025905671975.470       44780.2681       -858.712          12.956  
E015909184211.400     2787395.6791      -1901.867          25.270  
> 2018  4 30 12  7 23.9995649  0 18
G02  23273871.534    -4314213.0851        750.549          30.250  
G03  24491721.434     6923957.2461      -3651.704           7.000  
G06  21187953.385      519014.8581       -452.773          32.450  
G09  23364488.901    -2775601.0211       1461.523          24.659  
G17  21249356.277    -1365051.6921        536.591          29.513  
G19  21228189.130    -2060639.8291        944.463          28.931  
G23  24735054.278     -407615.9521        -63.900          18.646  
G28  21477111.905     4352304.5331      -2873.685          23.732  
R02  21496465.906     3210435.6371      -2373.779          27.551  
R18  21392294.023     -978726.8991        623.171          24.420  
R16  21731313.125      986643.4581      -1207.720          25.132  
R15  22647082.551     7201991.7771      -3914.099          29.444  
R17  21791535.434     1582762.6571       -806.995          28.690  
R03  19997806.107    -3554061.9321       1417.597          28.917  
R04  22519093.956    -5979563.0680       3946.510          31.772  
J01  37932884.211     1665393.6980       -990.567          36.710  
J026205464590.560       45637.1391       -860.422          12.268  
E016208977019.860     2789305.0261      -1905.870          26.049  
> 2018  4 30 12  7 24.9995649  0 18
G02  23273786.393    -4314969.9951        752.701          28.114  
G03  24492284.444     6927609.5921      -3651.704           7.000  
G06  21188043.623      519467.2201       -453.160          29.616  
G09  23364194.805    -2777066.6991       1460.149          24.005  
G17  21249253.148    -1365588.5891        534.251          29.801  
G19  21228031.739    -2061589.3111        944.997          26.563  
G23  24735130.725     -407553.8051        -64.748          18.242  
G28  21477644.036     4355179.4201      -2873.678          22.906  
R02  21496859.834     3212810.5021      -2372.157          27.615  
R18  21392139.630     -979353.1251        622.236          22.615  
R16  21731552.060      987845.6591      -1208.711          22.682  
R15  22647768.476     7205904.4501      -3919.280          30.830  
R17  21791706.915     1583572.3551       -808.263          27.160  
R03  19997532.097    -3555471.6011       1416.853          26.611  
R04  22518363.361    -5983508.6791       3946.781          29.668  
J01  37933065.585     1666384.6251       -991.511          33.939  
J026505257262.310       46498.1131       -858.918          12.116  
E016508769844.500     2791220.1881      -1909.430          24.758  
> 2018  4 30 12  7 25.9995649  0 18
G02  23273617.010    -4315726.2401        752.077          27.047  
G03  24492979.363     6931263.4381      -3652.679           7.000  
G06  21188130.263      519926.5081       -453.374          28.415  
G09  23363940.880    -2778523.7461       1459.191          22.905  
G17  21249166.508    -1366128.4761        535.254          30.047  
G19  21227841.971    -2062536.9321        946.148          26.916  
G23  24735138.520     -407490.9571        -64.683          17.400  
G28  21478192.357     4358052.5391      -2879.890          21.912  
R02  21497335.904     3215181.1231      -2373.575          23.654  
R18  21392087.466     -979976.3691        622.614          22.690  
R16  21731771.508      989059.1991      -1205.608          21.394  
R15  22648554.832     7209822.0091      -3909.293          27.635  
R17  21791794.455     1584377.0761       -809.718          25.552  
R03  19997288.665    -3556889.4641       1420.424          26.432  
R04  22517605.486    -5987454.0690       3944.198          30.554  
J01  37933259.551     1667375.3931       -993.576          35.101  
J026805049905.880       47352.2731       -858.771          11.788  
E016808562679.340     2793135.6361      -1911.953          24.689  
> 2018  4 30 12  7 26.9995649  0 18
G02  23273454.523    -4316480.9311        751.745          27.611  
G03  24493675.481     6934917.7531      -3653.655           7.000  
G06  21188213.605      520381.1911       -452.806          34.889  
G09  23363664.771    -2779982.2571       1459.333          22.153  
G17  21249063.380    -1366659.0391        536.392          27.947  
G19  21227676.785    -2063481.0351        947.425          24.786  
G23  24735110.939     -407427.1831        -63.245          17.988  
G28  21478722.690     4360930.3751      -2882.632          23.573  
R02  21497802.381     3217556.2551      -2376.563          23.059  
R18  21391913.586     -980594.0341        624.355          22.387  
R16  21732005.945      990269.3861      -1207.622          22.479  
R15  22649373.265     7213728.1261      -3902.379          24.625  
R17  21792003.410     1585184.3181       -806.052          25.258  
R03  19997028.145    -3558314.6211       1419.670          26.257  
R04  22516874.592    -5991399.1121       3942.636          29.097  
J01  37933440.925     1668366.1820       -991.943          34.228  
J027104842517.680       48212.2851       -857.353          10.928  
E017108355485.400     2795047.9761      -1911.691          26.801  
> 2018  4 30 12  7 27.9995649  0 18
G02  23273330.409    -4317232.6761        754.293          27.798  
G03  24494372.799     6938572.5911      -3654.631           7.000  
G06  21188296.048      520829.0531       -450.308          33.734  
G09  23363364.379    -2781442.0521       1459.300          22.327  
G17  21248948.259    -1367194.7311        536.847          28.288  
G19  21227471.427    -2064427.5791        946.031          27.336  
G23  24735139.719     -407364.7631        -64.254          18.522  
G28  21479256.320     4363807.1511      -2876.678          24.520  
R02  21498216.394     3219927.4991      -2372.554          26.502  
R18  21391784.975     -981222.1411        624.700          22.124  
R16  21732257.471      991481.9741      -1209.118          21.589  
R15  22649994.435     7217639.0791      -3910.229          25.989  
R17  21792150.608     1585989.6941       -807.739          24.755  
R03  19996748.439    -3559726.4181       1415.908          26.169  
R04  22516167.981    -5995344.5391       3946.439          26.896  
J01  37933642.086     1669356.6210       -990.570          34.602  
J027404635152.555       49070.5801       -861.211          10.068  
E017408148314.240     2796955.2611      -1909.758          27.229  
> 2018  4 30 12  7 28.9995649  0 18
G02  23273161.925    -4317986.5291        753.995          27.922  
G03  24495169.947     6942227.1011      -3654.631           7.000  
G06  21188389.883      521281.8621       -453.362          34.117  
G09  23363115.252    -2782908.5981       1464.845          23.552  
G17  21248845.730    -1367736.4261        537.803          27.498  
G19  21227295.149    -2065372.0341        947.696          27.627  
G23  24735152.610     -407302.4121        -63.698          18.291  
G28  21479816.932     4366683.1381      -2875.294          29.666  
R02  21498638.202     3222298.0721      -2372.270          28.097  
R18  21391768.487     -981854.4551        629.117          21.126  
R16  21732466.726      992690.2251      -1207.164          20.728  
R15  22650799.678     7221549.7311      -3913.159          25.281  
R17  21792268.726     1586800.0071       -806.105          24.966  
R03  19996482.223    -3561138.6771       1413.348          27.170  
R04  22515413.703    -5999293.5411       3948.067          24.838  
J01  37933832.154     1670346.7400       -989.823          34.085  
J027704427776.940       49931.1721       -859.396           9.854  
E017707941137.390     2798867.4031      -1911.910          27.706  
> 2018  4 30 12  7 29.9995649  0 18
G02  23273034.513    -4318740.8771        750.658          28.096  
G03  24495876.558     6945881.7281      -3654.631           7.000  
G06  21188481.020      521735.3531       -451.805          32.671  
G09  23362841.541    -2784369.4611       1460.713          23.976  
G17  21248736.006    -1368272.4981        538.481          27.458  
G19  21227120.970    -2066318.3941        946.826          28.303  
G23  24735077.662     -407240.3991        -65.383          21.408  
G28  21480355.959     4369562.1931      -2876.668          28.837  
R02  21499098.384     3224669.2311      -2373.273          30.489  
R18  21391597.605     -982481.9341        629.514          20.627  
R16  21732689.472      993902.6591      -1206.949          21.097  
R15  22651543.163     7225460.8971      -3908.618          23.276  
R17  21792482.478     1587610.4571       -805.429          25.739  
R03  19996251.083    -3562550.9841       1414.029          27.447  
R04  22514669.918    -6003240.0281       3946.887          31.688  
J01  37934016.227     1671341.8221       -990.274          32.456  
J028004220277.510       50785.7871       -859.306           9.805  
E018007733956.640     2800785.5771      -1910.232          30.252  
> 2018  4 30 12  7 30.9995649  0 18
G02  23272901.106    -4319496.3421        755.591          26.035  
G03  24496636.531     6949536.2371      -3654.631           7.000  
G06  21188548.173      522189.2431       -451.193          30.777  
G09  23362579.823    -2785820.2761       1455.801          22.908  
G17  21248643.071    -1368810.6411        536.963          25.848  
G19  21226940.495    -2067265.7081        946.102          26.574  
G23  24735120.233     -407177.7211        -63.068          20.480  
G28  21480913.573     4372440.6711      -2879.874          28.898  
R02  21499517.494     3227041.1841      -2373.401          31.507  
R18  21391454.304     -983110.3351        629.436          18.661  
R16  21732899.327      995113.0671      -1212.763          20.789  
R15  22652306.135     7229370.3461      -3903.941          22.590  
R17  21792634.773     1588415.0931       -804.605          30.130  
R03  19995979.471    -3563965.7791       1414.410          26.785  
R04  22513974.100    -6007184.0621       3942.664          29.570  
J01  37934202.098     1672331.9960       -990.097          33.687  
J028304013024.810       51647.1411       -860.011           9.423  
E018307526783.984     2802704.9291      -1908.720          26.874  
> 2018  4 30 12  7 31.9995649  0 18
G02  23272764.101    -4320250.0121        752.573          24.571  
G03  24497326.354     6953189.9051      -3654.631           7.000  
G06  21188645.306      522640.6101       -453.504          28.610  
G09  23362253.648    -2787280.5321       1457.940          23.528  
G17  21248523.154    -1369352.2161        538.113          26.379  
G19  21226750.726    -2068214.7361        945.583          25.456  
G23  24735111.539     -407103.9481        -65.012          21.510  
G28  21481496.969     4375315.7571      -2880.643          24.614  
R02  21499973.178     3229413.5930      -2373.160          33.189  
R18  21391361.369     -983738.2261        628.889          21.730  
R16  21733157.448      996326.9581      -1215.849          22.192  
R15  22653021.739     7233276.0021      -3905.582          23.127  
R17  21792767.881     1589219.8151       -805.693          29.667  
R03  19995680.279    -3565387.1911       1411.907          31.617  
R04  22513235.711    -6011134.3541       3946.637          27.430  
J01  37934393.066     1673322.5371       -990.114          34.081  
J028603805650.990       52509.1721       -853.843           9.626  
E018607319609.234     2804625.3881      -1908.099          25.398  
> 2018  4 30 12  7 32.9995649  0 18
G02  23272625.896    -4321007.0331        750.043          23.869  
G03  24498001.486     6956842.1541      -3653.655           7.400  
G06  21188737.043      523089.8461       -453.747          28.729  
G09  23362000.024    -2788741.3211       1462.366          23.641  
G17  21248456.300    -1369891.0351        536.476          26.005  
G19  21226569.951    -2069162.6531        947.647          28.183  
G23  24735098.348     -407032.6311        -62.937          23.185  
G28  21482013.811     4378189.3811      -2877.557          24.437  
R02  21500430.662     3231786.4631      -2371.118          33.428  
R18  21391209.674     -984367.1141        626.150          24.537  
R16  21733362.806      997547.5611      -1215.541          20.988  
R15  22653729.549     7237190.2621      -3907.263          22.885  
R17  21792950.454     1590024.4841       -806.374          28.248  
R03  19995413.463    -3566800.6001       1411.951          35.533  
R04  22512458.050    -6015081.1111       3948.805          27.454  
J01  37934592.428     1674317.0761       -989.890          33.387  
J028903598275.980       53367.0521       -857.101           9.794  
E018907112419.190     2806547.6921      -1908.353          25.917  
> 2018  4 30 12  7 33.9995649  0 18
G02  23272493.688    -4321751.7731        750.357          24.774  
G03  24498678.118     6960495.2941      -3652.679           7.000  
G06  21188813.789      523543.8231       -452.491          29.102  
G09  23361732.309    -2790198.0171       1453.276          23.934  
G17  21248327.389    -1370428.2751        537.196          28.679  
G19  21226392.474    -2070110.1231        947.731          27.925  
G23  24735122.331     -406962.4791        -62.959          24.362  
G28  21482567.828     4381067.5071      -2878.249          24.026  
R02  21500890.843     3234161.0301      -2375.965          31.946  
R18  21391117.937     -984995.9731        625.916          23.542  
R16  21733595.445      998760.0441      -1214.433          19.988  
R15  22654549.482     7241095.2501      -3907.566          23.210  
R17  21793083.262     1590830.1831       -809.987          27.277  
R03  19995147.547    -3568212.7070       1411.453          40.913  
R04  22511731.952    -6019027.7331       3948.366          25.437  
J01  37934772.004     1675307.5071       -990.682          34.782  
J029203390898.266       54222.0721       -854.920           9.787  
E019206905247.430     2808471.7821      -1906.123          25.230  
> 2018  4 30 12  7 34.9995649  0 18
G02  23272302.120    -4322498.4131        748.646          25.574  
G03  24499364.943     6964155.6771      -3653.655           7.000  
G06  21188921.715      523997.5971       -455.434          26.861  
G09  23361453.802    -2791653.2501       1456.327          25.507  
G17  21248236.552    -1370968.4231        539.353          28.640  
G19  21226210.200    -2071051.6741        946.248          26.221  
G23  24735114.537     -406901.2341        -63.815          26.415  
G28  21483123.043     4383949.9301      -2880.740          24.248  
R02  21501332.437     3236536.6021      -2379.812          30.118  
R18  21391021.104     -985620.5301        626.522          23.698  
R16  21733841.575      999974.6781      -1214.783          19.370  
R15  22655208.426     7245000.1941      -3908.187          23.464  
R17  21793242.152     1591642.8601       -810.246          26.762  
R03  19994895.722    -3569623.7871       1410.518          37.122  
R04  22510995.062    -6022975.9951       3942.904          24.507  
J01  37934954.278     1676298.1110       -991.345          34.803  
J029503183527.150       55080.8011       -857.328           9.011  
E019506698063.984     2810395.3391      -1909.447          25.257  
> 2018  4 30 12  7 35.9995649  0 18
G02  23272193.895    -4323247.1991        746.935          24.412  
G03  24500048.769     6967804.4591      -3654.631           8.551  
G06  21188993.965      524453.1311       -456.702          27.583  
G09  23361165.402    -2793108.8271       1461.701          25.159  
G17  21248109.140    -1371507.7341        540.327          28.141  
G19  21226038.419    -2071995.1391        943.252          26.248  
G23  24735134.922     -406831.3181        -65.260          24.766  
G28  21483668.965     4386832.7911      -2882.879          25.382  
R02  21501767.136     3238913.2821      -2380.193          30.675  
R18  21390890.395     -986243.2761        624.559          24.856  
R16  21734048.431     1001183.3661      -1216.306          20.271  
R15  22655968.699     7248901.4011      -3905.297          21.335  
R17  21793372.862     1592450.6051       -811.030          26.745  
R03  19994634.303    -3571033.9201       1408.654          35.424  
R04  22510367.297    -6026919.2941       3942.383          22.100  
J01  37935141.948     1677289.6200       -992.060          34.227  
J029802976147.940       55940.8531       -857.015           9.848  
E019806490882.030     2812313.8001      -1913.005          26.744  
> 2018  4 30 12  7 36.9995649  0 18
G02  23272067.683    -4323997.7811        755.355          23.748  
G03  24500757.179     6971463.2511      -3654.631           8.138  
G06  21189068.913      524906.6031       -456.603          27.332  
G09  23360908.180    -2794565.6321       1456.782          26.639  
G17  21248020.102    -1372045.8381        538.278          28.181  
G19  21225870.236    -2072939.2501        943.821          25.735  
G23  24735152.910     -406773.7761        -64.803          26.723  
G28  21484224.781     4389713.3341      -2880.792          25.048  
R02  21502216.525     3241289.8391      -2379.171          29.689  
R18  21390783.069     -986867.6291        622.777          22.964  
R16  21734264.582     1002401.3631      -1219.600          22.666  
R15  22656633.639     7252802.8591      -3905.334          21.084  
R17  21793576.421     1593260.4391       -810.388          24.848  
R03  19994352.498    -3572441.7361       1406.629          34.698  
R04  22509523.681    -6030862.5561       3942.518          25.291  
J01  37935338.612     1678280.2131       -994.018          32.327  
J020102768771.120       56794.0241       -856.724           9.970  
E010106283711.480     2814224.2761      -1911.423          26.623  
> 2018  4 30 12  7 37.9995649  0 18
G02  23271885.109    -4324746.9571        750.328          26.204  
G03  24501449.699     6975114.4301      -3654.631           9.836  
G06  21189198.123      525367.4861       -454.556          24.879  
G09  23360589.800    -2796024.0501       1456.983          26.224  
G17  21247923.569    -1372582.5971        532.841          28.217  
G19  21225683.765    -2073885.9141        943.832          25.210  
G23  24735141.818     -406711.7321        -62.238          27.078  
G28  21484799.783     4392599.5121      -2881.568          22.653  
R02  21502687.499     3243671.3161      -2380.540          26.745  
R18  21390610.988     -987494.2961        626.871          25.716  
R16  21734485.229     1003622.7181      -1223.194          26.930  
R15  22657389.116     7256707.4951      -3911.563          24.111  
R17  21793706.231     1594075.9031       -811.553          25.301  
R03  19994110.865    -3573849.5410       1406.875          37.658  
R04  22508859.641    -6034805.8681       3944.974          23.301  
J01  37935524.783     1679271.8651       -991.845          31.485  
J020402561418.586       57654.6081       -858.429           9.479  
E010406076525.630     2816126.6621      -1913.812          27.842  
> 2018  4 30 12  7 38.9995649  0 18
G02  23271734.314    -4325492.1151        741.673          27.680  
G03  24502142.220     6978773.5721      -3656.582          11.415  
G06  21189236.497      525826.6211       -454.397          27.002  
G09  23360324.784    -2797484.7791       1459.445          28.761  
G17  21247809.048    -1373120.9001        537.181          30.852  
G19  21225489.499    -2074836.9571        942.820          25.110  
G23  24735160.405     -406643.3811        -65.013          26.943  
G28  21485320.222     4395476.3901      -2877.187          24.180  
R02  21503103.012     3246057.0521      -2382.602          24.471  
R18  21390516.853     -988120.3141        628.188          23.428  
R16  21734707.675     1004844.7211      -1223.357          23.845  
R15  22658104.421     7260611.2421      -3906.718          19.779  
R17  21793883.708     1594884.4041       -808.859          23.597  
R03  19993849.446    -3575254.6231       1405.665          34.933  
R04  22508075.384    -6038747.5101       3949.504          23.566  
J01  37935716.050     1680263.1141       -991.369          30.528  
J020702354041.170       58516.7411       -859.505           9.399  
E010705869370.664     2818023.4371      -1915.473          25.739  
> 2018  4 30 12  7 39.9995649  0 18
G02  23271615.296    -4326236.8141        747.380          27.085  
G03  24502839.237     6982427.6211      -3657.557          11.671  
G06  21189338.426      526286.0451       -457.193          27.930  
G09  23360047.176    -2798943.2491       1456.350          29.723  
G17  21247713.714    -1373656.8221        539.117          28.373  
G19  21225306.026    -2075783.7261        945.848          28.128  
G23  24735168.199     -406580.1201        -66.780          27.392  
G28  21485882.033     4398353.0281      -2878.981          23.740  
R02  21503583.279     3248447.4171      -2385.899          24.286  
R18  21390420.620     -988741.2181        622.310          25.306  
R16  21734938.215     1006067.6311      -1223.091          24.799  
R15  22658851.204     7264519.9621      -3907.658          17.279  
R17  21794038.101     1595691.0531       -812.715          22.536  
R03  19993578.134    -3576660.2811       1404.845          37.521  
R04  22507307.016    -6042691.0371       3947.004          23.265  
J01  37935905.219     1681255.0371       -992.337          32.926  
J021002146666.160       59370.7751       -858.163           9.080  
E011005662188.710     2819917.8471      -1912.603          25.255  
> 2018  4 30 12  7 40.9995649  0 18
G02  23271480.090    -4326984.1681        749.814          28.095  
G03  24503534.456     6986086.4091      -3656.582          11.831  
G06  21189419.370      526739.0071       -457.619          27.870  
G09  23359728.496    -2800399.7811       1458.336          30.820  
G17  21247610.585    -1374191.5371        534.317          27.953  
G19  21225138.742    -2076728.2171        946.009          29.930  
G23  24735193.082     -406522.6291        -62.706          28.930  
G28  21486410.867     4401237.2781      -2883.703          26.293  
R02  21504059.649     3250834.4151      -2388.980          23.711  
R18  21390299.804     -989370.9311        624.194          24.342  
R16  21735188.242     1007283.1441      -1220.617          22.607  
R15  22659606.981     7268433.3641      -3906.149          15.203  
R17  21794157.119     1596502.1911       -811.495          21.688  
R03  19993311.319    -3578065.9251       1404.897          38.178  
R04  22506624.388    -6046639.6871       3941.123          24.832  
J01  37936089.292     1682250.7141       -996.526          31.579  
J021301939296.540       60236.1591       -858.520           9.155  
E011305455002.266     2821810.6331      -1920.524          25.280  
> 2018  4 30 12  7 41.9995649  0 18
G02  23271312.506    -4327727.9081        742.721          33.005  
G03  24504235.671     6989740.0791      -3656.582          11.450  
G06  21189511.107      527188.6641       -455.869          27.318  
G09  23359476.671    -2801860.6921       1460.005          32.237  
G17  21247508.956    -1374718.7801        534.246          25.150  
G19  21224957.368    -2077674.5361        944.049          29.325  
G23  24735181.090     -406457.6461        -63.661          28.079  
G28  21486955.890     4404119.0051      -2885.705          25.977  
R02  21504488.352     3253222.6381      -2382.621          24.684  
R18  21390189.180     -989994.6931        623.512          23.940  
R16  21735431.374     1008504.6981      -1220.939          22.493  
R15  22660332.178     7272343.8941      -3905.053          10.668  
R17  21794314.210     1597313.4111       -808.661          21.579  
R03  19993054.696    -3579470.8081       1402.668          37.662  
R04  22505886.299    -6050580.9601       3940.375          26.087  
J01  37936284.757     1683245.7931       -993.492          31.883  
J021601731904.734       61098.2891       -856.750           9.783  
E011605247829.610     2823730.9691      -1918.406          23.072  
> 2018  4 30 12  7 42.9995649  0 18
G02  23271161.710    -4328470.8061        741.952          32.433  
G03  24504942.281     6993400.1931      -3657.557          10.660  
G06  21189601.044      527648.0171       -456.377          26.437  
G09  23359182.874    -2803321.3651       1457.179          32.754  
G17  21247399.831    -1375249.3041        533.667          25.400  
G19  21224766.100    -2078613.6881        943.781          27.798  
G23  24735174.195     -406394.0101        -68.450          29.033  
G28  21487509.607     4407003.2241      -2885.250          27.734  
R02  21504912.559     3255607.4491      -2385.167          26.518  
R18  21390047.079     -990622.0761        624.950          23.501  
R16  21735655.019     1009726.7831      -1221.449          24.445  
R15  22661074.465     7276256.0731      -3904.779          10.986  
R17  21794476.098     1598124.0371       -811.463          22.917  
R03  19992795.975    -3580874.5731       1403.134          37.297  
R04  22505213.865    -6054523.5671       3946.513          23.275  
J01  37936472.726     1684238.2541       -990.588          34.580  
J021901524533.914       61952.2931       -857.297           9.082  
E011905040656.950     2825649.7421      -1914.777          23.715  
> 2018  4 30 12  7 43.9995649  0 18
G02  23271043.592    -4329214.2061        746.333          31.553  
G03  24505504.392     6997053.6791      -3656.582          11.119  
G06  21189694.280      528105.5511       -457.664          29.010  
G09  23358911.862    -2804781.2631       1456.587          30.994  
G17  21247306.596    -1375779.7721        535.447          25.028  
G19  21224570.935    -2079560.2741        948.358          33.021  
G23  24735189.784     -406329.9810        -64.339          33.233  
G28  21488047.135     4409885.0291      -2883.100          28.598  
R02  21505417.409     3258001.8301      -2392.226          25.426  
R18  21389913.971     -991252.7271        625.340          23.496  
R16  21735880.163     1010947.6381      -1222.948          22.686  
R15  22661818.549     7280163.8211      -3910.465          11.323  
R17  21794636.487     1598938.4591       -814.392          21.553  
R03  19992526.162    -3582276.9801       1402.164          36.438  
R04  22504424.211    -6058464.9481       3946.002          22.836  
J01  37936657.998     1685230.8881       -993.254          35.194  
J022201317156.500       62809.8941       -859.133           8.904  
E012204833473.210     2827563.3041      -1911.995          23.960  
> 2018  4 30 12  7 44.9995649  0 18
G02  23270911.383    -4329961.8991        748.815          30.813  
G03  24506361.799     7000712.4191      -3656.582          11.968  
G06  21189771.926      528566.2521       -457.367          26.818  
G09  23358620.164    -2806236.5131       1459.540          31.629  
G17  21247208.863    -1376314.8471        533.140          26.609  
G19  21224399.754    -2080505.9461        944.006          34.184  
G23  24735206.873     -406265.2631        -63.472          34.230  
G28  21488614.941     4412764.2081      -2883.463          27.795  
R02  21505845.513     3260396.1681      -2394.070          24.299  
R18  21389818.637     -991880.3511        625.362          25.280  
R16  21736143.681     1012175.2051      -1224.273          23.674  
R15  22662553.940     7284074.4331      -3912.447          11.692  
R17  21794714.133     1599754.6291       -809.769          23.244  
R03  19992271.039    -3583678.8921       1400.913          38.966  
R04  22503706.808    -6062411.9641       3948.674          20.207  
J01  37936851.964     1686223.3021       -993.985          35.713  
J022501109780.586       63670.5241       -855.411           8.044  
E012504626294.860     2829475.9661      -1910.886          24.357  
> 2018  4 30 12  7 45.9995649  0 18
G02  23270768.682    -4330709.4511        749.505          29.560  
G03  24507051.621     7004370.3121      -3657.557          11.713  
G06  21189848.073      529024.5281       -458.995          28.428  
G09  23358360.843    -2807694.2001       1460.350          30.687  
G17  21247103.936    -1376856.0791        536.903          27.143  
G19  21224224.375    -2081451.6901        943.962          35.360  
G23  24735213.468     -406200.5270        -63.853          35.442  
G28  21489141.977     4415646.4681      -2884.497          30.460  
R02  21506333.275     3262785.4781      -2393.282          23.832  
R18  21389696.621     -992508.8911        625.205          24.570  
R16  21736319.959     1013396.3451      -1219.879          22.434  
R15  22663257.253     7287982.8951      -3909.296          12.451  
R17  21794952.468     1600556.7661       -807.916          21.895  
R03  19991999.127    -3585080.7031       1402.785          38.323  
R04  22502957.027    -6066361.0181       3948.386          20.455  
J01  37937032.739     1687215.0451       -993.181          33.150  
J022800902240.690       64526.9401       -858.536           7.184  
E012804419106.016     2831394.3751      -1915.596          23.781  
> 2018  4 30 12  7 46.9995649  0 18
G02  23270629.878    -4331453.5971        749.202          28.610  
G03  24507724.056     7008032.9651      -3658.533          11.319  
G06  21189944.906      529483.9521       -458.732          30.026  
G09  23358074.541    -2809149.3481       1456.124          30.054  
G17  21247014.298    -1377388.2501        535.474          24.900  
G19  21224039.703    -2082396.9341        945.590          37.494  
G23  24735266.531     -406134.9861        -69.956          33.502  
G28  21489709.783     4418534.3961      -2884.204          29.279  
R02  21506708.915     3265184.8971      -2393.649          22.419  
R18  21389594.692     -993135.4761        625.744          23.057  
R16  21736554.097     1014620.8221      -1216.307          20.833  
R15  22664085.280     7291893.3751      -3911.153          11.886  
R17  21795108.660     1601360.3721       -805.259          22.584  
R03  19991743.404    -3586481.2110       1401.475          42.557  
R04  22502187.760    -6070302.5081       3941.900          23.297  
J01  37937223.107     1688207.9921       -990.911          32.014  
J023100695031.450       65383.6241       -859.553           7.283  
E013104211946.840     2833316.2161      -1913.372          25.404  
> 2018  4 30 12  7 47.9995649  0 18
G02  23270455.699    -4332196.0011        744.652          28.395  
G03  24508420.773     7011689.1291      -3659.509          10.568  
G06  21190024.951      529946.0541       -456.372          28.695  
G09  23357819.718    -2810600.2861       1455.259          28.465  
G17  21246899.478    -1377918.1101        531.671          27.025  
G19  21223859.528    -2083340.6571        945.153          34.604  
G23  24735312.100     -406066.6111        -71.785          29.554  
G28  21490254.506     4421418.7101      -2886.130          26.918  
R02  21507167.598     3267576.8601      -2390.095          24.868  
R18  21389451.091     -993765.2701        624.597          23.628  
R16  21736749.861     1015847.6881      -1225.020          23.377  
R15  22664798.187     7295802.5161      -3910.591          11.408  
R17  21795270.248     1602173.4791       -810.733          22.087  
R03  19991472.991    -3587880.8710       1399.959          42.236  
R04  22501489.843    -6074247.5451       3946.515          22.046  
J01  37937413.475     1689201.1901       -992.664          34.751  
J023400487643.850       66248.9791       -854.459           9.291  
E013404004768.195     2835236.0561      -1915.492          26.229  
> 2018  4 30 12  7 48.9995649  0 18
G02  23270313.297    -4332936.0171        741.197          27.401  
G03  24509150.768     7015345.8721      -3659.509          10.567  
G06  21190111.291      530397.9721       -457.278          27.718  
G09  23357538.213    -2812053.9551       1453.289          28.305  
G17  21246790.953    -1378450.1861        532.168          26.389  
G19  21223674.856    -2084284.5801        940.942          32.928  
G23  24735242.548     -405995.0141        -65.116          36.049  
G28  21490818.116     4424307.6971      -2888.632          28.340  
R02  21507655.960     3269964.1781      -2391.585          22.956  
R18  21389322.180     -994387.1091        626.638          26.983  
R16  21737059.547     1017074.2511      -1231.800          25.781  
R15  22665648.998     7299710.5831      -3910.140          11.421  
R17  21795346.096     1602988.4591       -818.538          21.685  
R03  19991218.168    -3589279.8200       1401.091          37.563  
R04  22500768.842    -6078191.9051       3946.115          23.473  
J01  37937602.644     1690197.1191       -997.520          33.055  
J023700280232.260       67107.7961       -858.503           9.097  
E013703797576.055     2837147.7511      -1918.122          25.800  
> 2018  4 30 12  7 49.9995649  0 18
G02  23270196.378    -4333677.6741        743.604          26.827  
G03  24509815.708     7019004.6901      -3659.509           9.707  
G06  21190208.724      530858.7031       -461.685          30.663  
G09  23357280.991    -2813505.3851       1452.574          28.352  
G17  21246688.424    -1378981.4001        529.635          27.870  
G19  21223502.175    -2085227.7241        945.476          32.527  
G23  24735273.127     -405927.5971        -68.263          35.347  
G28  21491346.650     4427195.5711      -2886.605          27.870  
R02  21508076.868     3272360.6901      -2396.469          24.913  
R18  21389198.966     -995009.3151        626.156          26.847  
R16  21737216.338     1018305.7721      -1229.761          26.421  
R15  22666304.944     7303624.0881      -3909.958          12.686  
R17  21795496.891     1603802.2911       -812.412          19.710  
R03  19990961.545    -3590675.4201       1395.621          33.207  
R04  22499973.792    -6082136.8541       3943.424          23.892  
J01  37937787.316     1691188.4171       -993.514          33.526  
J024000072844.350       67963.4581       -859.281          11.003  
E014003590396.500     2839053.4731      -1920.973          29.358  
> 2018  4 30 12  7 50.9995649  0 18
G02  23270069.266    -4334422.5421        752.944          25.969  
G03  24510516.622     7022667.4491      -3659.509          11.219  
G06  21190295.963      531319.3291       -461.086          31.276  
G09  23356979.100    -2814957.9641       1451.102          31.937  
G17  21246597.587    -1379510.3661        531.745          27.731  
G19  21223330.094    -2086168.0711        941.129          31.950  
G23  24735286.917     -405860.8211        -67.554          36.843  
G28  21491902.765     4430082.7421      -2888.402          28.986  
R02  21508535.251     3274756.1031      -2394.872          25.491  
R18  21389101.533     -995633.0571        625.975          26.522  
R16  21737477.757     1019532.4941      -1226.838          25.228  
R15  22667011.554     7307532.2501      -3911.093          12.106  
R17  21795749.617     1604614.6481       -811.842          21.203  
R03  19990726.508    -3592069.8781       1392.567          30.276  
R04  22499322.343    -6086075.7721       3946.506          23.889  
J01  37937980.982     1692181.8081       -990.528          33.894  
J024299865484.625       68825.0591       -858.916          10.620  
E014303383232.240     2840961.7771      -1920.011          31.018  
> 2018  4 30 12  7 51.9995649  0 18
G02  23269892.089    -4335165.1181        743.826          28.734  
G03  24511194.153     7026326.5851      -3660.484          11.955  
G06  21190375.708      531777.0671       -459.473          29.196  
G09  23356703.591    -2816412.5951       1454.950          33.497  
G17  21246514.844    -1380038.4071        529.834          24.991  
G19  21223155.615    -2087109.2911        940.487          29.220  
G23  24735291.714     -405793.7730        -66.449          37.280  
G28  21492446.289     4432968.8651      -2890.411          28.560  
R02  21508984.940     3277152.7191      -2393.146          23.681  
R18  21389000.203     -996256.2871        624.053          25.830  
R16  21737667.826     1020763.5391      -1231.440          26.330  
R15  22667778.424     7311450.0821      -3909.821          12.969  
R17  21795828.462     1605420.8061       -806.934          21.357  
R03  19990444.703    -3593466.7841       1398.158          27.541  
R04  22498565.367    -6090021.6311       3944.916          25.713  
J01  37938173.749     1693174.7521       -995.106          32.372  
J024599658139.290       69681.6321       -858.671          10.579  
E014603176045.490     2842880.7471      -1920.735          31.301  
> 2018  4 30 12  7 52.9995649  0 18
G02  23269774.870    -4335908.6141        738.310          27.506  
G03  24511891.471     7029985.0311      -3660.484          11.996  
G06  21190473.440      532231.8561       -458.653          28.685  
G09  23356429.280    -2817867.4131       1456.957          33.352  
G17  21246375.440    -1380571.7081        532.078          24.172  
G19  21222959.251    -2088054.2871        943.909          29.120  
G23  24735311.800     -405726.0410        -67.565          37.819  
G28  21492987.115     4435858.6551      -2891.090          29.536  
R02  21509411.244     3279550.4741      -2392.359          25.470  
R18  21388883.584     -996880.6701        625.044          27.063  
R16  21737898.966     1022000.6221      -1233.156          23.639  
R15  22668475.141     7315359.9961      -3914.429          13.033  
R17  21795934.588     1606231.5771       -808.989          20.466  
R03  19990198.274    -3594861.4251       1396.395          27.323  
R04  22497838.970    -6093967.2871       3944.004          25.458  
J01  37938377.308     1694169.4411       -995.119          29.209  
J024899450765.170       70540.0631       -860.863          10.641  
E014902968866.550     2844800.8021      -1920.519          32.239  
> 2018  4 30 12  7 53.9995649  0 18
G02  23269603.988    -4336644.8731        742.993          28.210  
G03  24512585.490     7033646.0381      -3660.484          12.045  
G06  21190566.676      532691.7931       -460.047          26.797  
G09  23356153.172    -2819319.6461       1454.660          30.890  
G17  21246293.897    -1381104.0721        536.560          24.642  
G19  21222783.573    -2088999.7151        946.573          27.810  
G23  24735329.788     -405658.1081        -70.348          35.798  
G28  21493541.131     4438748.0721      -2888.896          28.935  
R02  21509858.535     3281942.3761      -2392.427          25.757  
R18  21388738.784     -997505.1511        624.953          27.434  
R16  21738226.639     1023226.7051      -1231.304          20.670  
R15  22669200.039     7319275.8971      -3912.407          13.615  
R17  21796117.462     1607045.4521       -809.018          20.491  
R03  19989949.446    -3596259.0761       1391.569          27.532  
R04  22497092.187    -6097907.0871       3946.909          24.740  
J01  37938544.892     1695165.3731       -993.594          32.013  
J025199243218.980       71401.7681       -858.666          10.694  
E015202761695.984     2846721.9241      -1920.783          32.313  
> 2018  4 30 12  7 54.9995649  0 18
G02  23269479.874    -4337389.7441        747.476          28.316  
G03  24513275.612     7037304.6771      -3659.509          11.685  
G06  21190635.628      533144.7901       -457.695          31.470  
G09  23355882.159    -2820772.7821       1449.726          29.199  
G17  21246173.680    -1381635.2081        535.717          27.081  
G19  21222595.903    -2089944.2721        944.083          32.322  
G23  24735369.960     -405583.3261        -71.524          33.477  
G28  21494095.747     4441636.8471      -2888.302          28.293  
R02  21510301.328     3284334.7281      -2392.280          25.571  
R18  21388615.270     -998127.5151        624.358          25.942  
R16  21738403.516     1024458.8721      -1231.944          24.544  
R15  22669911.747     7323182.5901      -3911.914          13.477  
R17  21796272.455     1607861.1271       -811.547          20.608  
R03  19989657.448    -3597656.1271       1389.212          26.289  
R04  22496362.193    -6101856.8051       3948.271          23.804  
J01  37938728.665     1696158.6651       -995.852          34.164  
J025499035841.860       72259.6791       -859.978          12.570  
E015502554520.630     2848642.7871      -1918.297          30.805  
> 2018  4 30 12  7 55.9995649  0 18
G02  23269323.083    -4338131.3591        744.156          28.144  
G03  24513954.043     7040964.1581      -3659.509          11.756  
G06  21190715.373      533605.4161       -456.040          30.620  
G09  23355606.050    -2822223.4771       1452.110          28.115  
G17  21246088.839    -1382166.9521        534.267          25.334  
G19  21222436.713    -2090887.7371        941.315          29.254  
G23  24735356.469     -405513.8411        -72.998          31.817  
G28  21494633.875     4444526.2751      -2889.459          29.249  
R02  21510800.183     3286734.9201      -2394.665          23.729  
R18  21388500.449     -998747.8781        625.567          24.662  
R16  21738684.722     1025687.3701      -1229.199          22.337  
R15  22670614.160     7327100.8351      -3912.588          14.218  
R17  21796467.619     1608677.5451       -810.739          19.830  
R03  19989408.321    -3599053.2431       1391.600          25.424  
R04  22495592.026    -6105801.0701       3948.201          25.081  
J01  37938925.928     1697151.7040       -992.358          37.779  
J025798828463.250       73119.3341       -859.142          12.529  
E015802347343.180     2850564.2921      -1919.978          29.151  
> 2018  4 30 12  7 56.9995649  0 18
G02  23269226.550    -4338877.0481        743.770          25.812  
G03  24514599.796     7044616.3041      -3659.509          11.618  
G06  21190819.401      534065.4981       -457.199          30.137  
G09  23355324.245    -2823679.6801       1455.923          25.453  
G17  21245976.716    -1382706.5301        531.026          25.224  
G19  21222266.131    -2091831.3171        938.803          25.975  
G23  24735400.838     -405444.9231        -69.620          29.263  
G28  21495180.096     4447417.4080      -2889.217          35.638  
R02  21511185.716     3289133.6051      -2398.793          23.137  
R18  21388421.604     -999371.7501        627.613          23.685  
R16  21738892.778     1026918.2571      -1230.256          20.830  
R15  22671358.845     7331010.5431      -3912.416          13.795  
R17  21796595.031     1609488.5331       -810.563          20.844  
R03  19989164.589    -3600450.4681       1393.355          25.802  
R04  22494876.421    -6109743.2511       3945.822          23.064  
J01  37939114.198     1698144.9701       -992.753          35.619  
J026098621086.130       73975.9221       -858.955          12.337  
E016102140166.030     2852485.6421      -1921.009          28.972  
> 2018  4 30 12  7 57.9995649  0 18
G02  23269046.075    -4339623.8391        745.236          25.575  
G03  24515319.597     7048281.7131      -3658.533          11.395  
G06  21190900.645      534521.4961       -456.623          29.577  
G09  23355054.732    -2825130.9751       1451.779          25.717  
G17  21245863.095    -1383235.4251        535.535          28.006  
G19  21222077.861    -2092773.6531        940.687          24.500  
G23  24735438.312     -405379.1671        -72.237          26.840  
G28  21495731.415     4450309.3681      -2892.243          38.206  
R02  21511662.386     3291526.6111      -2396.564          24.989  
R18  21388273.506     -999998.1401        627.268          26.648  
R16  21739090.341     1028144.9471      -1234.841          20.379  
R15  22672151.196     7334925.1311      -3913.230          12.935  
R17  21796739.531     1610298.5621       -809.876          20.908  
R03  19988908.866    -3601842.4361       1393.188          25.137  
R04  22494102.657    -6113691.8151       3943.844          21.302  
J01  37939312.061     1699138.3471       -993.706          34.265  
J026398413709.020       74835.6951       -856.091          12.081  
E016401933002.060     2854402.9941      -1915.745          27.465  
> 2018  4 30 12  7 58.9995649  0 18
G02  23268914.466    -4340371.5711        747.281          26.117  
G03  24516045.095     7051945.7821      -3659.509          11.462  
G06  21190982.488      534980.4031       -456.473          31.218  
G09  23354754.340    -2826585.1241       1451.614          25.944  
G17  21245748.874    -1383771.7161        538.784          27.719  
G19  21221885.994    -2093723.1941        943.352          22.535  
G23  24735413.430     -405309.6671        -71.453          30.135  
G28  21496277.637     4453200.9270      -2890.528          40.854  
R02  21512102.182     3293919.0371      -2396.603          25.014  
R18  21388146.394    -1000625.2671        623.018          25.553  
R16  21739340.068     1029380.4641      -1234.526          22.590  
R15  22672883.290     7338831.4081      -3909.604          12.996  
R17  21796900.520     1611113.3561       -814.687          19.900  
R03  19988645.649    -3603232.7601       1392.703          25.964  
R04  22493377.159    -6117641.8201       3946.149          21.807  
J01  37939487.439     1700130.6191       -993.497          33.140  
J026698206331.910       75695.7561       -859.293          11.936  
E016701725828.210     2856313.4941      -1919.840          27.602  
> 2018  4 30 12  7 59.9995649  0 18
G02  23268770.565    -4341114.5761        745.976          26.971  
G03  24516757.702     7055600.5801      -3660.484          12.406  
G06  21191087.415      535440.4281       -460.889          29.462  
G09  23354504.613    -2828037.5111       1450.672          27.173  
G17  21245662.534    -1384313.8271        534.245          29.851  
G19  21221723.207    -2094669.6601        941.095          21.257  
G23  24735425.122     -405238.9361        -76.911          29.346  
G28  21496831.054     4456093.2421      -2892.300          39.508  
R02  21512562.363     3296317.3951      -2398.844          24.586  
R18  21388049.861    -1001250.3751        624.993          27.106  
R16  21739581.401     1030614.8621      -1238.899          22.030  
R15  22673607.288     7342745.1671      -3911.592          13.944  
R17  21797073.200     1611926.7631       -813.185          20.485  
R03  19988365.343    -3604626.3081       1390.248          28.689  
R04  22492703.825    -6121588.6471       3952.168          22.939  
J01  37939676.608     1701124.1131       -992.997          31.632  
J026997998955.695       76557.4371       -857.721          11.835  
E017001518648.960     2858217.7751      -1922.123          29.615  
> 2018  4 30 12  8  0.9995649  0 18
G02  23268627.564    -4341860.6131        742.715          26.539  
G03  24517460.715     7059261.1021      -3658.533          11.632  
G06  21191152.171      535898.5411       -459.822          30.122  
G09  23354188.632    -2829491.0791       1454.992          27.220  
G17  21245560.604    -1384848.9011        533.016          32.404  
G19  21221563.717    -2095606.6811        939.490          19.891  
G23  24735476.386     -405164.3731        -75.284          28.590  
G28  21497378.175     4458986.1221      -2893.239          37.130  
R02  21513003.058     3298717.6251      -2399.907          26.878  
R18  21387941.336    -1001873.1841        627.974          26.863  
R16  21739777.765     1031848.7961      -1238.100          22.870  
R15  22674313.899     7346656.3071      -3910.636          13.413  
R17  21797209.906     1612734.4021       -812.645          21.191  
R03  19988119.813    -3606010.2351       1387.448          29.177  
R04  22491970.233    -6125539.8901       3950.142          21.248  
J01  37939876.570     1702116.8111       -992.844          29.627  
J027297791705.990       77411.0101       -857.403          11.877  
E017301311458.914     2860121.3121      -1920.716          28.896  
> 2018  4 30 12  8  1.9995649  0 18
G02  23268495.656    -4342607.9351        742.578          26.419  
G03  24518162.829     7062919.0611      -3659.509          11.277  
G06  21191243.308      536357.5131       -457.569          28.505  
G09  23353938.905    -2830939.5021       1452.204          28.176  
G17  21245452.080    -1385382.1971        534.772          35.282  
G19  21221382.942    -2096544.2431        941.001          22.428  
G23  24735450.604     -405088.5701        -70.055          29.209  
G28  21497937.587     4461879.6141      -2893.058          39.563  
R02  21513457.543     3301114.2501      -2397.107          26.829  
R18  21387842.705    -1002498.6131        627.439          27.558  
R16  21740002.609     1033087.9321      -1236.531          22.811  
R15  22675041.795     7350568.1661      -3914.113          13.596  
R17  21797413.165     1613545.0081       -812.314          20.641  
R03  19987856.895    -3607398.6691       1388.830          27.785  
R04  22491167.689    -6129486.8211       3944.057          21.914  
J01  37940054.047     1703108.3631       -994.927          28.935  
J027597584316.880       78271.5551       -860.518          12.312  
E017601104300.350     2862028.6931      -1916.847          30.162  
> 2018  4 30 12  8  2.9995649  0 18
G02  23268363.447    -4343360.6841        747.386          25.718  
G03  24518858.947     7066578.9491      -3659.509          12.221  
G06  21191346.136      536816.1111       -454.895          27.575  
G09  23353622.923    -2832392.5021       1449.267          29.938  
G17  21245345.653    -1385916.1280        535.910          38.317  
G19  21221222.553    -2097486.6911        937.795          20.779  
G23  24735495.873     -405017.1881        -70.536          30.255  
G28  21498479.312     4464773.2050      -2892.675          38.774  
R02  21513895.240     3303515.4871      -2399.957          27.943  
R18  21387668.825    -1003123.5401        629.848          25.465  
R16  21740307.199     1034325.5141      -1233.917          25.337  
R15  22675778.385     7354481.7331      -3912.628          13.155  
R17  21797505.201     1614354.9121       -810.101          22.993  
R03  19987622.757    -3608793.2981       1387.632          27.619  
R04  22490410.713    -6133436.0951       3943.808          24.766  
J01  37940251.311     1704101.1381       -992.364          31.441  
J027897376934.375       79132.0731       -858.619          11.777  
E017900897124.090     2863944.9981      -1920.474          28.001  
> 2018  4 30 12  8  3.9995649  0 18
G02  23268237.235    -4344109.0341        747.548          26.039  
G03  24519554.466     7070234.8291      -3658.533          13.107  
G06  21191426.781      537271.4451       -456.722          28.829  
G09  23353342.617    -2833839.1381       1451.598          32.719  
G17  21245252.418    -1386446.8121        532.824          37.560  
G19  21221039.080    -2098421.3141        938.781          19.877  
G23  24735486.879     -404945.4401        -74.880          33.033  
G28  21499030.031     4467667.6630      -2893.129          35.565  
R02  21514328.440     3305912.3231      -2403.022          26.521  
R18  21387557.602    -1003743.0141        626.590          25.708  
R16  21740476.881     1035561.5451      -1234.970          25.040  
R15  22676509.879     7358392.4711      -3911.922          13.864  
R17  21797632.013     1615160.9131       -806.058          24.177  
R03  19987327.761    -3610179.4821       1385.800          28.145  
R04  22489706.800    -6137381.4311       3946.896          23.739  
J01  37940435.683     1705094.0741       -992.748          34.902  
J028197169562.660       79987.3451       -856.879          11.479  
E018200689949.640     2865868.1171      -1914.550          27.086  
> 2018  4 30 12  8  4.9995649  0 18
G02  23268074.747    -4344854.9981        746.413          24.562  
G03  24520244.588     7073895.1031      -3658.533          13.158  
G06  21191497.232      537727.0571       -460.830          28.205  
G09  23353076.701    -2835291.1251       1454.846          34.779  
G17  21245151.987    -1386980.0861        534.109          37.708  
G19  21220866.100    -2099359.6441        946.940          19.753  
G23  24735504.267     -404873.7100        -71.166          35.935  
G28  21499609.830     4470560.9981      -2891.739          31.178  
R02  21514818.601     3308317.0791      -2405.541          25.782  
R18  21387413.402    -1004376.3391        631.075          23.861  
R16  21740676.543     1036794.3051      -1236.328          22.074  
R15  22677255.763     7362307.1001      -3911.402          13.275  
R17  21797756.127     1615966.7701       -806.191          24.572  
R03  19987033.964    -3611566.5461       1386.516          34.599  
R04  22489036.464    -6141336.8221       3949.214          24.456  
J01  37940621.254     1706087.1411       -994.674          36.609  
J028496962186.740       80845.2571       -855.649          15.085  
E018500482778.484     2867790.4121      -1913.471          25.968  
> 2018  4 30 12  8  5.9995649  0 18
G02  23267968.321    -4345601.1781        750.974          24.170  
G03  24520939.507     7077550.4831      -3658.533          13.864  
G06  21191593.465      538186.4351       -462.551          29.458  
G09  23352787.701    -2836742.1851       1449.691          36.215  
G17  21245040.465    -1387517.8411        531.991          36.592  
G19  21220657.445    -2100310.4231        946.648          20.507  
G23  24735541.141     -404801.1091        -76.549          33.209  
G28  21500166.844     4473457.0881      -2894.501          31.080  
R02  21515215.226     3310726.7851      -2404.059          25.720  
R18  21387368.133    -1005002.4251        628.640          24.036  
R16  21741025.801     1038027.9371      -1234.694          21.930  
R15  22677952.480     7366218.0421      -3909.653          13.689  
R17  21797988.167     1616771.1451       -808.919          22.995  
R03  19986804.323    -3612953.1041       1384.937          37.725  
R04  22488236.318    -6145287.6251       3944.503          25.256  
J01  37940808.925     1707080.6281       -993.232          37.442  
J028796754801.234       81711.9071       -854.592          16.237  
E018800275604.330     2869708.8891      -1917.553          27.837  
> 2018  4 30 12  8  6.9995649  0 18
G02  23267773.456    -4346348.1011        748.303          25.200  
G03  24521630.229     7081208.3181      -3659.479          13.979  
G06  21191680.105      538650.4361       -459.840          29.961  
G09  23352518.788    -2838193.7491       1450.459          39.225  
G17  21244947.829    -1388056.3291        530.986          39.515  
G19  21220460.481    -2101253.3821        945.431          19.643  
G23  24735568.422     -404725.6351        -83.774          29.927  
G28  21500722.060     4476353.9411      -2894.603          29.364  
R02  21515709.284     3313126.6121      -2404.193          26.603  
R18  21387197.251    -1005627.9461        622.859          26.673  
R16  21741199.681     1039264.4461      -1237.665          22.532  
R15  22678665.686     7370130.8361      -3912.182          13.648  
R17  21798049.025     1617586.2561       -810.151          21.175  
R03  19986536.009    -3614337.3721       1382.820          38.437  
R04  22487467.650    -6149233.1961       3945.280          26.073  
J01  37941005.289     1708074.6301       -993.898          37.576  
J029096547427.414       82567.1521       -858.088          16.569  
E019100068436.480     2871629.0601      -1916.920          25.943  
> 2018  4 30 12  8  7.9995649  0 18
G02  23267652.339    -4347097.6011        744.119          29.086  
G03  24522331.143     7084870.8411      -3659.854          14.014  
G06  21191779.936      539105.4341       -458.495          26.812  
G09  23352245.377    -2839644.8881       1451.272          36.898  
G17  21244851.295    -1388587.6711        530.232          37.994  
G19  21220265.016    -2102190.5611        942.086          22.281  
G23  24735583.412     -404641.9521        -86.417          28.941  
G28  21501270.680     4479249.3811      -2895.239          30.167  
R02  21516154.476     3315526.8841      -2408.111          27.260  
R18  21387104.616    -1006253.6111        622.000          30.331  
R16  21741411.934     1040500.2371      -1239.793          21.979  
R15  22679378.893     7374041.0751      -3913.008          13.734  
R17  21798226.502     1618403.1531       -810.582          24.475  
R03  19986275.489    -3615721.3441       1382.826          37.716  
R04  22486710.974    -6153179.1781       3946.074          27.147  
J01  37941193.858     1709068.6610       -994.376          38.673  
J029396340106.370       83420.0551       -852.959          21.206  
E019399861256.920     2873548.7411      -1915.753          26.099  
> 2018  4 30 12  8  8.9995649  0 18
G02  23267493.150    -4347845.8981        742.675          29.427  
G03  24523032.958     7088534.6991      -3659.537          13.543  
G06  21191885.763      539557.2731       -458.517          24.095  
G09  23351961.473    -2841096.1790       1451.503          38.421  
G17  21244737.974    -1389118.5600        529.904          42.953  
G19  21220128.311    -2103128.0141        941.122          20.704  
G23  24735620.586     -404565.2551        -79.436          27.247  
G28  21501807.309     4482147.2871      -2895.861          29.789  
R02  21516609.861     3317933.9091      -2410.610          27.437  
R18  21387003.586    -1006882.7731        624.898          28.008  
R16  21741640.076     1041743.5401      -1237.644          24.193  
R15  22680120.879     7377958.6521      -3911.471          14.337  
R17  21798376.398     1619218.0501       -815.156          23.555  
R03  19986036.555    -3617104.9191       1384.173          35.890  
R04  22486005.562    -6157123.6841       3945.305          25.145  
J01  37941378.530     1710062.7450       -994.027          38.756  
J029696132736.445       84273.0821       -852.450          23.196  
E019699654067.780     2875472.7951      -1926.132          26.637  
> 2018  4 30 12  8  9.9995649  0 18
G02  23267348.350    -4348594.0371        745.921          29.777  
G03  24523717.084     7092194.6061      -3659.154          13.414  
G06  21191940.325      540018.5021       -462.317          24.737  
G09  23351692.260    -2842546.8450       1450.387          39.375  
G17  21244643.539    -1389648.5640        529.276          42.604  
G19  21219931.347    -2104069.4551        940.125          22.382  
G23  24735580.714     -404486.0731        -74.901          26.688  
G28  21502384.709     4485044.4431      -2895.388          28.467  
R02  21517082.034     3320342.9131      -2411.259          25.271  
R18  21386843.496    -1007508.7091        628.142          27.649  
R16  21741860.423     1042984.4871      -1239.459          24.646  
R15  22680894.643     7381864.4851      -3914.259          15.187  
R17  21798535.288     1620030.4001       -814.211          21.582  
R03  19985760.146    -3618487.5130       1380.916          38.592  
R04  22485301.650    -6161072.9691       3942.820          24.754  
J01  37941570.697     1711057.2250       -995.168          37.625  
J029995925313.460       85125.0271       -861.478          20.108  
E019999446901.120     2877401.7281      -1917.851          24.663  
