     3.03           OBSERVATION DATA    M: Mixed            RINEX VERSION / TYPE
Geo++ RINEX Logger  Geo++               20180417 123242 UTC PGM / RUN BY / DATE
************************************************************COMMENT
This file was generated by the Geo++ RINEX Logger App       COMMENT
for Android devices (Version 1.2.4). If you encounter       COMMENT
any issues, please send an email to android@geopp.de        COMMENT
Note: Tracking signals and phase shifts by best knowledge   COMMENT
************************************************************COMMENT
Geo++                                                       MARKER NAME
GEODETIC                                                    MARKER TYPE
RINEX Logger user   Geo++                                   OBSERVER / AGENCY
7EX0217A17003237    HUAWEI              VTR-L29             REC # / TYPE / VERS
7EX0217A17003237    VTR-L29                                 ANT # / TYPE
 -2418164.3490  5386095.5686  2405071.1455                  APPROX POSITION XYZ
        0.0000        0.0000        0.0000                  ANTENNA: DELTA H/E/N
G    4 C1C L1C D1C S1C                                      SYS / # / OBS TYPES
R    4 C1C L1C D1C S1C                                      SYS / # / OBS TYPES
E    4 C1B L1B D1B S1B                                      SYS / # / OBS TYPES
C    4 C2I L2I D2I S2I                                      SYS / # / OBS TYPES
J    4 C1C L1C D1C S1C                                      SYS / # / OBS TYPES
  2018     4    17    12    33    0.9997928     GPS         TIME OF FIRST OBS
G                                                           SYS / PHASE SHIFTS
R                                                           SYS / PHASE SHIFTS
E                                                           SYS / PHASE SHIFTS
C                                                           SYS / PHASE SHIFTS
J                                                           SYS / PHASE SHIFTS
                                                            END OF HEADER
> 2018  4 17 12 33 30.9997928  0 15
G02  23602925.235    -1123624.7760        938.092          27.395  
G06  21184669.459       36751.0131       -182.883          22.008  
G09  23934549.956    -1689159.0190       1580.657          27.538  
G17  21546448.204     -801746.8020        711.171          32.805  
G19  21627185.611    -1176575.8610       1060.713          37.630  
G30  25150517.759      372920.8711      -2589.279          16.662  
R26  21733179.633      392708.4161       -897.223          21.016  
R06  20720711.250    -1237456.8281       2580.251          18.749  
R09  23839529.837     3938124.5820      -4362.791          29.889  
R11  21648492.760     -684434.3540        219.739          27.489  
R05  21190401.191      926341.7930      -1319.698          36.856  
R21  21796999.751     -544890.3280        544.619          36.101  
J01  37714721.642     1002609.1720       -982.888          33.252  
J02  36847689.475     1018778.7541       -967.102          21.723  
C11  23405203.115     -654357.3680        675.258          30.829  
> 2018  4 17 12 33 31.9997928  0 14
G02  23602730.370    -1124562.3361        939.129          24.891  
G06  21184712.928       36933.3901       -184.304          21.447  
G17  21546318.694     -802457.8240        711.206          34.816  
G19  21626978.155    -1177636.5650       1061.131          37.039  
G30  25151017.813      375509.1461      -2588.552          13.602  
R26  21733299.550      393604.0731       -897.764          21.601  
R06  20720225.287    -1240038.8171       2578.347          18.695  
R09  23840362.361     3942487.8740      -4364.691          29.473  
R11  21648436.699     -684653.0990        217.242          25.866  
R05  21190653.916      927662.0680      -1321.085          36.918  
R21  21796893.625     -545435.1340        545.766          36.013  
J01  37714909.012     1003592.9110       -984.659          33.239  
J02  36847848.965     1019745.3561       -959.740          20.200  
C11  23405068.808     -655032.4400        675.827          33.131  
> 2018  4 17 12 33 32.9997928  0 15
G02  23602569.381    -1125496.8541        932.482          27.807  
G06  21184727.918       37117.2731       -183.894          19.864  
G17  21546180.789     -803169.8831        712.662          34.677  
G19  21626781.491    -1178699.2200       1063.483          39.465  
G28  20789310.060     1995642.5781      -2171.579          23.706  
G30  25151539.751      378101.2731      -2590.743          19.611  
R26  21733469.832      394504.8841       -894.445          20.718  
R06  20719744.120    -1242617.2571       2576.426          20.488  
R09  23841147.517     3946854.1290      -4365.894          28.413  
R11  21648376.741     -684870.1501        216.464          26.150  
R05  21190903.643      928984.6970      -1324.110          32.988  
R21  21796816.278     -545979.9701        550.333          32.516  
J01  37715090.986     1004578.3310       -986.983          36.314  
J02  36848066.914     1020706.0751       -969.582          22.910  
C11  23404943.495     -655710.2710        678.675          38.786  
> 2018  4 17 12 33 33.9997928  0 16
G02  23602395.202    -1126430.2001        931.552          29.025  
G06  21184764.793       37299.6841       -183.313          24.231  
G09  23933583.125    -1693890.3111       1575.012          31.934  
G17  21546040.786     -803882.7370        712.640          39.178  
G19  21626572.236    -1179763.7041       1064.099          37.320  
G28  20789756.151     1997809.1391      -2171.842          23.789  
G30  25152018.220      380691.9471      -2591.599          19.239  
R26  21733685.682      395402.8541       -890.629          21.361  
R06  20719260.255    -1245190.6691       2572.891          22.423  
R09  23841984.538     3951219.8981      -4367.912          26.509  
R11  21648296.396     -685088.1681        215.271          23.380  
R05  21191141.678      930307.8220      -1323.134          35.023  
R21  21796684.070     -546529.4140        550.079          35.910  
J01  37715281.054     1005563.5541       -984.051          37.190  
J02  36848235.397     1021667.3461       -967.886          25.080  
C11  23404811.286     -656389.5771        679.604          35.162  
> 2018  4 17 12 33 34.9997928  0 16
G02  23602192.842    -1127364.4231        937.240          26.121  
G06  21184785.178       37483.5721       -185.281          26.018  
G09  23933274.039    -1695463.4271       1575.145          32.529  
G17  21545904.980     -804596.1651        713.616          39.193  
G19  21626372.874    -1180828.5901       1064.351          36.012  
G28  20790170.464     1999988.9101      -2172.613          22.745  
G30  25152531.165      383279.0081      -2592.468          18.256  
R26  21733799.604      396301.0491       -902.008          23.137  
R06  20718788.681    -1247763.9231       2572.391          23.821  
R09  23842792.178     3955585.6521      -4365.443          25.684  
R11  21648303.291     -685307.2501        213.396          22.526  
R05  21191421.384      931629.9791      -1321.202          30.493  
R21  21796583.639     -547080.0730        549.495          38.876  
J01  37715461.529     1006549.6710       -985.630          37.134  
J02  36848386.193     1022631.1861       -969.381          24.189  
C11  23404686.273     -657069.7061        680.967          34.091  
> 2018  4 17 12 33 35.9997928  0 15
G02  23602037.849    -1128305.7961        937.402          29.560  
G06  21184824.451       37669.9231       -182.556          23.622  
G17  21545767.675     -805309.4680        713.654          40.260  
G19  21626167.216    -1181893.2850       1065.726          38.748  
G28  20790558.396     2002162.4901      -2171.280          23.578  
G30  25153039.613      385870.7381      -2592.068          18.754  
R26  21733971.684      397204.5061       -896.764          24.891  
R06  20718375.267    -1250336.5881       2570.752          22.288  
R09  23843652.883     3959953.7271      -4366.086          23.538  
R11  21648266.717     -685526.3311        214.123          22.428  
R05  21191606.656      932954.2261      -1325.984          27.810  
R21  21796484.708     -547631.1070        550.325          37.707  
J01  37715651.598     1007535.6961       -987.660          34.644  
J02  36848576.861     1023596.3551       -966.617          21.460  
C11  23404555.863     -657750.3371        682.208          31.322  
> 2018  4 17 12 33 36.9997928  0 15
G02  23601874.163    -1129237.0591        928.485          33.097  
G06  21184865.223       37852.9181       -184.130          24.865  
G17  21545635.767     -806022.1400        710.716          40.137  
G19  21625963.657    -1182957.5581       1063.281          36.982  
G28  20790969.711     2004336.5781      -2173.204          23.160  
G30  25153549.860      388468.7471      -2592.546          18.706  
R26  21734098.497      398106.2901       -896.868          24.625  
R06  20717792.471    -1252911.5511       2575.087          22.635  
R09  23844387.674     3964325.2961      -4367.866          22.844  
R11  21648234.039     -685740.3061        210.197          21.724  
R05  21191871.673      934278.8181      -1325.972          26.610  
R21  21796386.675     -548182.0580        549.702          33.898  
J01  37715840.467     1008522.4420       -986.748          37.295  
J02  36848772.626     1024568.6591       -968.380          21.880  
C11  23404420.057     -658430.2920        680.241          35.292  
> 2018  4 17 12 33 37.9997928  0 15
G02  23601676.899    -1130170.7571        932.261          30.731  
G06  21184914.989       38031.0751       -186.630          23.507  
G17  21545503.258     -806734.2691        711.027          35.753  
G19  21625762.196    -1184022.1070       1064.447          37.978  
G28  20791392.119     2006518.0761      -2177.634          23.565  
G30  25154039.421      391062.2261      -2591.377          14.502  
R26  21734278.972      399000.9161       -895.592          24.938  
R06  20717322.996    -1255486.2451       2570.134          24.046  
R09  23845196.814     3968693.0861      -4369.571          25.565  
R11  21648174.081     -685954.2751        211.762          22.082  
R05  21192159.173      935605.8971      -1327.030          25.790  
R21  21796274.553     -548733.2960        550.236          35.844  
J01  37716029.036     1009509.2000       -987.100          38.823  
J02  36848950.103     1025534.5731       -968.134          21.922  
C11  23404292.046     -659110.2090        679.625          35.582  
> 2018  4 17 12 33 38.9997928  0 16
G02  23601476.338    -1131105.1441        934.922          29.900  
G06  21184957.859       38220.6901       -188.114          24.642  
G09  23932100.052    -1701780.3541       1568.433          27.719  
G17  21545357.859     -807445.5631        712.414          38.967  
G19  21625567.331    -1185085.9601       1062.890          34.778  
G28  20791794.440     2008698.2731      -2179.517          27.724  
G30  25154540.974      393657.5671      -2590.225          13.351  
R26  21734424.971      399897.9161       -898.624          25.206  
R06  20716844.827    -1258055.8121       2568.437          23.678  
R09  23846019.144     3973060.8621      -4366.435          25.258  
R11  21648039.474     -686176.9121        216.859          20.988  
R05  21192378.921      936934.2211      -1327.417          29.321  
R21  21796177.420     -549284.0090        550.376          38.897  
J01  37716213.409     1010496.5750       -987.544          38.505  
J02  36849171.350     1026506.8171       -971.025          21.103  
C11  23404158.638     -659789.6660        679.455          35.522  
> 2018  4 17 12 33 39.9997928  0 15
G02  23601321.045    -1132037.3521        933.317          30.835  
G06  21184962.356       38408.3911       -188.035          23.876  
G17  21545227.150     -808157.7570        711.427          40.740  
G19  21625357.776    -1186148.2691       1060.793          33.756  
G28  20792202.458     2010878.7001      -2181.353          31.402  
G30  25155043.126      396250.7581      -2591.659          12.772  
R26  21734628.230      400796.7361       -895.797          23.892  
R06  20716381.647    -1260624.9681       2567.971          24.476  
R09  23846984.176     3977430.2821      -4369.090          21.499  
R11  21648088.640     -686397.1971        215.465          20.508  
R05  21192628.049      938263.6761      -1329.676          30.143  
R21  21796077.290     -549834.5680        549.623          38.696  
J01  37716405.876     1011484.3360       -988.215          39.678  
J02  36849375.808     1027473.4371       -964.630          22.539  
C11  23404027.029     -660469.1821        677.122          33.390  
> 2018  4 17 12 33 40.9997928  0 16
G02  23601118.086    -1132968.8341        934.254          29.235  
G06  21184975.247       38591.1521       -185.799          21.708  
G09  23931505.863    -1704925.5241       1582.019          26.658  
G17  21545096.440     -808869.8200        711.681          40.995  
G19  21625154.217    -1187212.6011       1063.686          34.198  
G28  20792611.075     2013059.9681      -2181.360          35.292  
G30  25155507.505      398844.1731      -2592.691          17.789  
R26  21734754.143      401690.5621       -894.716          24.246  
R06  20715889.088    -1263193.4711       2569.369          24.151  
R09  23847675.198     3981797.4981      -4368.408          20.658  
R11  21647985.811     -686617.6201        212.765          20.184  
R05  21192875.677      939593.8170      -1332.355          32.563  
R21  21795977.759     -550385.3800        550.012          35.825  
J01  37716589.948     1012472.1230       -988.550          39.977  
J02  36849544.291     1028436.0881       -959.976          23.761  
C11  23403900.517     -661148.7111        679.907          32.328  
> 2018  4 17 12 33 41.9997928  0 15
G02  23600971.787    -1133903.1581        935.737          30.297  
G06  21185016.918       38771.4531       -186.248          22.302  
G17  21544957.336     -809581.8250        710.473          39.174  
G19  21624956.954    -1188274.0851       1061.982          33.021  
G28  20793032.283     2015242.0130      -2182.525          37.267  
G30  25155990.170      401437.5461      -2592.505          19.932  
R26  21734931.020      402585.3021       -892.759          23.233  
R06  20715450.792    -1265761.5231       2569.521          22.888  
R09  23848473.845     3986160.6051      -4367.538          20.499  
R11  21647933.348     -686834.1341        209.968          22.499  
R05  21193126.004      940924.6031      -1334.478          31.933  
R21  21795865.037     -550936.1250        549.806          36.668  
J01  37716782.115     1013460.0220       -988.494          39.071  
J02  36849737.358     1029399.9971       -963.522          23.640  
C11  23403764.111     -661827.8160        678.760          32.355  
> 2018  4 17 12 33 42.9997928  0 17
G02  23600804.503    -1134832.2671        930.000          29.708  
G06  21185084.071       38954.3821       -188.126          21.512  
G09  23930892.788    -1708087.6371       1570.031          28.137  
G17  21544821.530     -810293.4610        710.914          40.623  
G19  21624749.497    -1189335.9431       1061.339          34.625  
G28  20793450.194     2017424.5691      -2182.842          33.608  
G30  25156487.526      404031.0411      -2593.743          14.601  
R26  21735136.078      403485.4081       -900.630          25.003  
R06  20714939.346    -1268328.5321       2563.367          22.651  
R09  23849349.239     3990524.8771      -4367.606          20.340  
R11  21647976.518     -687045.0141        210.003          21.611  
R05  21193382.027      942256.3681      -1333.006          31.266  
R21  21795765.506     -551486.5640        549.493          38.530  
J01  37716970.685     1014448.1650       -988.155          39.543  
J02  36849892.650     1030366.2741       -967.351          22.292  
C06  38606846.736    -1108671.4311       1169.827          15.006  
C11  23403634.901     -662509.2951        681.034          30.645  
> 2018  4 17 12 33 43.9997928  0 17
G02  23600594.648    -1135758.2491        933.563          27.980  
G06  21185083.472       39142.0721       -183.338          22.105  
G09  23930616.079    -1709659.2521       1566.874          28.501  
G17  21544687.523     -811004.8570        710.144          38.962  
G19  21624555.832    -1190396.1301       1063.984          32.927  
G28  20793864.807     2019607.5951      -2180.222          32.601  
G30  25156927.621      406628.5541      -2589.590          13.998  
R26  21735314.455      404379.3111       -899.047          23.997  
R06  20714470.171    -1270895.6551       2567.810          23.806  
R09  23850193.155     3994891.8081      -4367.756          18.072  
R11  21647844.009     -687254.4571        203.690          22.206  
R05  21193620.362      943589.2271      -1331.932          31.511  
R21  21795655.482     -552037.3640        551.161          38.869  
J01  37717155.956     1015436.2730       -988.401          39.867  
J02  36850112.698     1031330.1311       -964.477          23.314  
C06  38606628.487    -1109844.2311       1170.684          14.044  
C11  23403511.986     -663190.2851        676.312          31.649  
> 2018  4 17 12 33 44.9997928  0 17
G02  23600377.599    -1136691.8421        936.252          28.093  
G06  21185150.026       39329.1191       -184.838          22.782  
G09  23930297.999    -1711230.7481       1571.931          27.587  
G17  21544549.019     -811716.4680        711.419          39.311  
G19  21624351.673    -1191459.2471       1061.684          33.488  
G28  20794286.015     2021791.2041      -2181.391          29.797  
G30  25157379.708      409186.5111      -2590.798          13.138  
R26  21735511.718      405273.6111       -890.009          22.077  
R06  20714023.180    -1273464.3951       2569.469          21.208  
R09  23851020.582     3999259.0651      -4368.828          17.473  
R11  21647805.636     -687453.7091        207.209          21.062  
R05  21193869.489      944916.8661      -1331.627          29.991  
R21  21795569.441     -552588.1340        550.265          37.850  
J01  37717342.127     1016424.7700       -989.643          39.544  
J02  36850278.783     1032296.4931       -963.054          22.235  
C06  38606429.425    -1111009.4321       1170.403          16.497  
C11  23403375.580     -663865.9841        677.248          31.325  
> 2018  4 17 12 33 45.9997928  0 16
G02  23600210.614    -1137632.7701        934.412          28.469  
G06  21185205.188       39514.3061       -187.487          19.915  
G09  23929973.024    -1712801.5271       1572.748          29.860  
G17  21544411.414     -812427.9290        710.697          38.269  
G19  21624139.120    -1192518.7371       1055.580          31.506  
G28  20794706.924     2023975.4471      -2184.267          27.746  
R26  21735631.635      406165.3021       -891.661          22.163  
R06  20713488.350    -1276032.5391       2568.711          20.479  
R09  23851829.122     4003623.1851      -4368.824          16.551  
R11  21647817.028     -687663.1131        209.559          20.272  
R05  21194121.615      946249.8901      -1336.476          28.157  
R21  21795451.323     -553139.1280        550.878          38.458  
J01  37717531.296     1017413.2050       -989.169          37.988  
J02  36850486.239     1033259.4641       -964.165          24.591  
C06  38606206.080    -1112177.0001       1169.829          15.013  
C11  23403244.271     -664542.7841        678.778          32.071  
> 2018  4 17 12 33 46.9997928  0 17
G02  23600023.544    -1138570.0151        935.510          29.370  
G06  21185215.081       39701.1481       -189.023          21.978  
G09  23929709.507    -1714373.2401       1573.159          27.452  
G17  21544275.608     -813139.0491        712.818          37.604  
G19  21623938.859    -1193573.7581       1061.696          33.199  
G28  20795117.340     2026159.3601      -2184.212          25.782  
G30  25158464.358      414368.3551      -2589.635          12.240  
R26  21735786.028      407064.5001       -900.026          21.396  
R06  20712984.999    -1278597.8031       2566.146          21.588  
R09  23852674.537     4007993.4391      -4369.802          15.802  
R11  21647797.242     -687874.8241        207.864          19.502  
R05  21194371.642      947585.1661      -1336.171          29.660  
R21  21795348.494     -553690.4250        550.795          37.737  
J01  37717716.568     1018401.3510       -988.324          37.571  
J02  36850634.636     1034221.7221       -965.424          23.203  
C06  38605988.131    -1113346.6261       1170.891          14.071  
C11  23403116.560     -665222.4440        679.656          33.083  
> 2018  4 17 12 33 47.9997928  0 16
G02  23599888.637    -1139504.3611        932.706          29.194  
G06  21185265.446       39891.6321       -188.498          20.504  
G17  21544140.702     -813849.8220        710.228          35.268  
G19  21623736.799    -1194636.4171       1065.593          34.985  
G28  20795544.544     2028342.7221      -2182.978          24.783  
G30  25159006.682      416956.7061      -2586.754          11.563  
R26  21735941.321      407962.7831       -895.261          22.675  
R06  20712509.828    -1281162.7231       2567.976          20.303  
R09  23853528.646     4012360.7951      -4370.091          16.403  
R11  21647725.292     -688078.6801        206.202          21.464  
R05  21194620.170      948921.2051      -1335.731          30.512  
R21  21795249.563     -554241.8040        550.909          36.868  
J01  37717912.932     1019389.6530       -988.869          37.023  
J02  36850837.296     1035183.1361       -964.411          27.468  
C06  38605773.479    -1114517.6951       1168.951          16.061  
C11  23402984.651     -665902.1690        679.748          33.974  
> 2018  4 17 12 33 48.9997928  0 16
G02  23599706.363    -1140432.3601        933.666          29.845  
G06  21185294.826       40079.2681       -190.342          18.666  
G17  21544012.391     -814561.4301        711.176          35.999  
G19  21623541.034    -1195699.7071       1062.235          34.145  
G28  20795974.147     2030526.9281      -2184.723          24.249  
G30  25159466.564      419548.1621      -2590.067          10.703  
R26  21736150.576      408855.5061       -894.418          22.927  
R06  20712049.646    -1283727.1081       2568.702          19.698  
R09  23854363.868     4016728.1751      -4367.871          14.973  
R11  21647663.834     -688289.4781        206.588          22.479  
R05  21194892.381      950257.7181      -1336.477          29.815  
R21  21795154.229     -554793.5890        551.258          37.313  
J01  37718094.606     1020378.1531       -985.910          35.781  
J02  36851014.174     1036151.2181       -963.539          25.027  
C06  38605545.637    -1115681.8211       1169.725          15.569  
C11  23402853.342     -666582.2760        679.445          33.758  
> 2018  4 17 12 33 49.9997928  0 15
G02  23599537.280    -1141363.7931        931.461          30.236  
G06  21185296.624       40264.2821       -189.348          20.398  
G17  21543875.086     -815272.4631        713.989          32.578  
G19  21623331.479    -1196763.2321       1064.172          37.011  
G28  20796375.869     2032716.9891      -2186.797          24.384  
R26  21736276.789      409747.2761       -893.489          23.868  
R06  20711558.287    -1286291.9971       2565.839          20.613  
R09  23855190.995     4021095.8101      -4367.140          14.833  
R11  21647639.251     -688501.3641        206.165          22.462  
R05  21195112.129      951600.7031      -1337.463          29.143  
R21  21795044.804     -555345.5060        551.039          36.002  
J01  37718283.775     1021369.0931       -989.287          33.689  
J02  36851207.840     1037117.3931       -965.168          24.333  
C06  38605298.908    -1116857.4291       1170.416          17.570  
C11  23402723.831     -667262.5760        680.886          36.002  
> 2018  4 17 12 33 50.9997928  0 15
G02  23599337.319    -1142297.7461        934.151          31.222  
G06  21185368.275       40449.9061       -188.020          21.025  
G17  21543732.984     -815984.1281        712.019          35.307  
G19  21623129.119    -1197826.7101       1063.080          37.529  
G28  20796829.455     2034896.1501      -2185.027          22.726  
R26  21736435.079      410645.9161       -894.576          23.660  
R06  20711110.696    -1288849.3431       2562.371          21.950  
R09  23855977.351     4025490.1241      -4364.370          14.520  
R11  21647613.169     -688707.8961        202.591          22.385  
R05  21195383.741      952938.0571      -1338.332          30.344  
R21  21794939.877     -555897.8590        551.729          37.420  
J01  37718473.844     1022355.7761       -987.183          35.457  
J02  36851370.927     1038080.6421       -966.194          23.369  
C06  38605086.355    -1118026.1541       1171.346          15.211  
C11  23402591.623     -667943.1800        680.728          35.673  
> 2018  4 17 12 33 51.9997928  0 15
G02  23599209.008    -1143228.5651        931.665          30.849  
G06  21185382.965       40635.7631       -184.260          22.548  
G17  21543603.174     -816695.9630        710.970          39.546  
G19  21622927.359    -1198890.1761       1061.206          37.037  
G28  20797215.587     2037084.3701      -2183.115          21.249  
R26  21736648.232      411539.4641       -894.456          25.748  
R06  20710620.536    -1291410.6101       2566.775          23.123  
R09  23856807.476     4029854.3961      -4364.702          14.007  
R11  21647578.393     -688905.2161        202.201          22.298  
R05  21195625.374      954276.0551      -1340.047          33.491  
R21  21794837.048     -556450.2580        551.942          38.454  
J01  37718658.216     1023343.3500       -987.654          37.092  
J02  36851572.387     1039047.0391       -966.664          23.722  
C06  38604860.611    -1119192.1621       1170.437          16.150  
C11  23402464.211     -668623.7131        679.332          33.777  
> 2018  4 17 12 33 52.9997928  0 15
G02  23598998.553    -1144157.5671        930.743          33.584  
G06  21185419.239       40811.3661       -178.583          19.443  
G17  21543464.370     -817408.0930        712.425          40.074  
G19  21622728.297    -1199954.0420       1064.528          36.742  
G28  20797646.689     2039263.9471      -2186.088          18.504  
R26  21736825.709      412433.0971       -894.186          23.947  
R06  20710131.574    -1293974.7601       2567.406          21.880  
R09  23857584.538     4034218.8821      -4364.430          14.829  
R11  21647546.915     -689100.2621        199.859          19.779  
R05  21195887.692      955614.8880      -1339.081          34.324  
R21  21794731.821     -557003.1220        553.015          37.484  
J01  37718852.482     1024330.7140       -987.197          38.748  
J02  36851762.156     1040009.2591       -965.283          24.316  
C06  38604640.863    -1120363.0831       1170.563          14.375  
C11  23402325.107     -669305.3441        681.472          29.975  
> 2018  4 17 12 33 53.9997928  0 15
G02  23598811.183    -1145091.6411        935.971          32.821  
G06  21185459.412       40993.6501       -180.021          19.034  
G17  21543334.560     -818121.2420        712.657          39.340  
G19  21622525.937    -1201018.5270       1064.498          34.523  
G28  20798087.684     2041446.2491      -2185.451          19.258  
R26  21736960.915      413326.2841       -892.698          26.552  
R06  20709628.822    -1296539.3721       2565.821          21.228  
R09  23858367.596     4038584.2071      -4362.129          17.927  
R11  21647517.535     -689300.2461        199.021          21.442  
R05  21196124.528      956953.8480      -1339.492          34.343  
R21  21794633.789     -557559.0050        560.701          35.027  
J01  37719031.758     1025317.0260       -986.484          37.370  
J02  36851951.625     1040970.8951       -960.298          28.118  
C06  38604427.111    -1121533.8761       1172.662          16.940  
C11  23402200.394     -669982.0811        681.288          32.463  
> 2018  4 17 12 33 54.9997928  0 15
G02  23598643.299    -1146022.0891        931.284          36.046  
G06  21185492.089       41177.0441       -181.213          17.773  
G17  21543192.458     -818832.7421        710.869          36.958  
G19  21622322.977    -1202079.7551       1063.940          34.157  
G28  20798515.787     2043630.8981      -2185.139          19.806  
R26  21737104.516      414219.0991       -892.353          29.449  
R06  20709198.320    -1299108.1881       2561.077          23.269  
R09  23859195.922     4042942.8791      -4361.742          15.709  
R11  21647450.382     -689499.1411        200.896          22.731  
R05  21196378.752      958293.3350      -1340.047          34.351  
R21  21794523.166     -558114.2171        552.680          32.522  
J01  37719220.027     1026303.2981       -987.642          35.255  
J02  36852148.888     1041931.9921       -960.827          25.763  
C06  38604189.076    -1122702.2221       1176.730          21.266  
C11  23402071.183     -670663.9491        681.038          32.831  
> 2018  4 17 12 33 55.9997928  0 15
G02  23598450.832    -1146955.5401        935.492          33.527  
G06  21185533.760       41358.1981       -182.744          18.612  
G17  21543050.656     -819545.6411        711.996          34.321  
G19  21622117.320    -1203144.2000       1064.253          37.009  
G28  20798930.100     2045812.0921      -2185.523          16.723  
R26  21737277.496      415110.9511       -893.023          28.735  
R06  20708679.080    -1301671.7121       2561.253          24.816  
R09  23860023.949     4047299.0921      -4361.577          14.185  
R11  21647415.306     -689703.0571        203.519          22.948  
R05  21196634.475      959633.0690      -1339.630          35.246  
R21  21794426.033     -558668.8731        552.511          33.126  
J01  37719410.695     1027288.8751       -988.085          35.753  
J02  36852298.485     1042893.9031       -962.294          24.696  
C06  38603963.632    -1123873.7491       1169.436          17.528  
C11  23401940.174     -671351.5341        684.715          28.909  
> 2018  4 17 12 33 56.9997928  0 15
G02  23598312.328    -1147888.1691        932.178          32.501  
G06  21185577.230       41547.2381       -184.320          18.956  
G17  21542926.242     -820259.2760        714.200          37.890  
G19  21621914.360    -1204209.1220       1065.136          38.752  
G28  20799318.931     2047994.3091      -2187.334          18.520  
R26  21737450.176      416005.4701       -891.641          36.840  
R06  20708212.903    -1304235.1371       2563.253          27.494  
R09  23860928.123     4051660.1451      -4361.306          17.130  
R11  21647383.828     -689901.0361        198.455          25.119  
R05  21196883.903      960973.7000      -1340.693          36.515  
R21  21794316.309     -559223.6890        554.958          35.625  
J01  37719598.665     1028274.7501       -985.952          37.701  
J02  36852511.637     1043856.5811       -960.268          27.149  
C06  38603742.385    -1125048.4971       1170.767          14.786  
C11  23401811.563     -672035.5781        682.542          29.480  
> 2018  4 17 12 33 57.9997928  0 15
G02  23598115.365    -1148819.6661        931.512          31.430  
G06  21185624.297       41736.3071       -182.992          20.440  
G17  21542791.036     -820972.5480        713.062          37.953  
G19  21621709.902    -1205274.0290       1064.641          40.149  
G28  20799744.037     2050181.5711      -2185.793          18.634  
R26  21737611.765      416897.1081       -891.117          35.181  
R06  20707729.637    -1306798.3490       2562.979          28.595  
R09  23861712.380     4056025.8401      -4358.820          17.102  
R11  21647332.564     -690094.9971        199.011          25.319  
R05  21197133.030      962314.7880      -1342.150          36.314  
R21  21794224.272     -559778.5770        554.944          35.298  
J01  37719786.635     1029259.1391       -985.789          34.756  
J02  36852675.324     1044822.0301       -960.419          26.230  
C06  38603504.950    -1126221.5871       1176.082          18.630  
C11  23401675.157     -672717.8831        682.551          30.079  
> 2018  4 17 12 33 58.9997928  0 15
G02  23597949.879    -1149753.7921        930.638          35.918  
G06  21185600.914       41925.3391       -185.047          22.741  
G17  21542656.429     -821685.9910        712.415          38.606  
G19  21621512.638    -1206338.9810       1065.734          39.983  
G28  20800173.040     2052373.0511      -2184.362          18.619  
R26  21737774.852      417788.0011       -890.581          33.021  
R06  20707229.583    -1309360.9810       2561.897          28.560  
R09  23862390.811     4060378.8471      -4357.835          20.341  
R11  21647271.106     -690303.7051        202.782          22.894  
R05  21197387.554      963656.2900      -1342.208          34.962  
R21  21794116.047     -560333.4720        554.154          34.113  
J01  37719976.404     1030245.1191       -986.721          34.057  
J02  36852829.717     1045790.9051       -964.185          25.117  
C06  38603272.610    -1127400.4431       1174.871          17.717  
C11  23401544.148     -673400.7361        681.979          30.208  
> 2018  4 17 12 33 59.9997928  0 15
G02  23597774.201    -1150685.3091        931.201          39.757  
G06  21185639.287       42106.9281       -184.491          22.641  
G17  21542517.625     -822399.9030        714.061          39.647  
G19  21621309.679    -1207404.2730       1065.410          38.406  
G28  20800577.160     2054565.0861      -2183.843          18.268  
R26  21737951.429      418678.9961       -892.165          31.227  
R06  20706755.911    -1311923.5251       2562.412          28.681  
R09  23863208.345     4064734.7341      -4357.912          23.025  
R11  21647260.613     -690511.4491        194.915          23.552  
R05  21197634.283      964998.4230      -1343.571          35.159  
R21  21794009.921     -560889.1860        555.236          34.888  
J01  37720158.078     1031230.3111       -986.605          35.978  
J02  36853057.259     1046755.6361       -961.801          26.563  
C06  38603051.663    -1128572.2481       1177.332          17.708  
C11  23401411.040     -674084.6141        683.080          30.097  
> 2018  4 17 12 34  0.9997928  0 15
G02  23597586.531    -1151614.8740        928.149          37.281  
G06  21185672.564       42292.8551       -182.648          22.390  
G17  21542377.622     -823113.6350        712.765          38.690  
G19  21621103.122    -1208469.4360       1065.080          39.993  
G28  20800979.182     2056750.8331      -2182.974          17.905  
R26  21738143.297      419570.9091       -894.003          28.364  
R06  20706286.436    -1314485.5861       2560.412          26.981  
R09  23864046.265     4069095.1371      -4360.059          24.606  
R11  21647271.106     -690707.5711        194.646          22.851  
R05  21197885.509      966341.2300      -1344.670          35.737  
R21  21793902.295     -561445.0090        555.357          35.653  
J01  37720351.144     1032214.9961       -983.731          34.656  
J02  36853239.233     1047720.9181       -962.427          27.924  
C06  38602836.712    -1129745.6141       1178.320          17.805  
C11  23401279.731     -674768.1391        684.587          29.765  
> 2018  4 17 12 34  1.9997928  0 16
G02  23597405.756    -1152544.1770        928.565          38.267  
G06  21185697.147       42475.8301       -184.563          24.039  
G09  23925236.304    -1738017.4691       1576.718          29.267  
G17  21542246.913     -823826.9581        714.173          37.743  
G19  21620902.261    -1209534.2550       1064.587          41.227  
G28  20801414.780     2058935.9911      -2185.381          19.270  
R26  21738308.482      420466.9201       -892.976          25.980  
R06  20705799.273    -1317046.9571       2559.461          27.229  
R09  23864883.285     4073455.4960      -4360.819          28.207  
R11  21647234.831     -690901.6571        199.383          23.067  
R05  21198126.243      967685.1860      -1345.678          35.213  
R21  21793801.865     -562000.3301        550.865          33.122  
J01  37720530.720     1033196.7091       -987.739          33.625  
J02  36853420.308     1048691.4051       -965.355          24.317  
C06  38602616.065    -1130924.3961       1178.591          19.023  
C11  23401154.118     -675450.4951        683.503          31.421  
> 2018  4 17 12 34  2.9997928  0 16
G02  23597233.975    -1153479.1131        929.374          35.004  
G06  21185754.407       42658.4881       -183.944          23.793  
G09  23924913.427    -1739599.0181       1573.708          30.248  
G17  21542111.407     -824540.4390        711.774          37.674  
G19  21620699.901    -1210599.1500       1064.825          40.106  
G28  20801831.792     2061127.0031      -2186.086          16.887  
R26  21738443.089      421355.7681       -889.531          24.471  
R06  20705322.304    -1319608.0040       2560.386          27.311  
R09  23865663.045     4077815.1661      -4360.504          26.766  
R11  21647155.686     -691091.6811        193.329          28.996  
R05  21198384.064      969029.6910      -1346.418          35.928  
R21  21793693.640     -562556.0290        554.925          32.823  
J01  37720726.784     1034180.2151       -983.335          34.557  
J02  36853595.986     1049654.4941       -963.710          25.078  
C06  38602392.120    -1132106.0161       1179.541          17.112  
C11  23401023.409     -676134.0021        680.524          31.136  
> 2018  4 17 12 34  3.9997928  0 15
G02  23596995.640    -1154414.5091        933.919          33.581  
G06  21185758.305       42841.2941       -184.641          25.043  
G17  21541971.404     -825253.8821        714.203          36.028  
G19  21620501.139    -1211664.1770       1064.824          38.997  
G28  20802241.908     2063319.8031      -2184.240          16.851  
R26  21738657.740      422242.5591       -891.127          22.603  
R06  20704845.034    -1322168.5840       2560.122          28.076  
R09  23866500.066     4082175.2870      -4361.306          28.066  
R11  21647126.606     -691282.5411        192.702          26.700  
R05  21198637.389      970375.0490      -1347.118          33.935  
R21  21793573.123     -563111.9850        554.637          32.955  
J01  37720912.056     1035161.6941       -986.789          32.154  
J02  36853816.334     1050617.4501       -958.790          26.376  
C06  38602160.680    -1133287.2951       1178.787          21.530  
C11  23400888.502     -676817.2551        682.037          32.234  
> 2018  4 17 12 34  4.9997928  0 15
G02  23596869.127    -1155346.5971        931.045          34.428  
G06  21185815.265       43023.7931       -182.796          25.454  
G09  23924346.819    -1742749.8961       1579.577          27.465  
G17  21541838.595     -825967.5651        711.550          37.084  
G19  21620294.282    -1212730.0990       1069.301          36.362  
G28  20802653.822     2065505.9591      -2184.754          19.269  
R26  21738817.230      423132.5101       -892.636          23.667  
R06  20704359.670    -1324728.8701       2561.725          26.623  
R09  23867322.397     4086534.9410      -4359.937          29.902  
R11  21647098.426     -691474.2621        193.308          26.321  
R05  21198886.816      971721.1800      -1349.243          33.033  
R21  21793497.576     -563666.5731        548.760          30.347  
J01  37721095.829     1036146.2391       -986.782          32.711  
C06  38601925.643    -1134460.6161       1178.429          17.728  
C11  23400755.694     -677500.9290        683.016          33.016  
> 2018  4 17 12 34  5.9997928  0 15
G02  23596709.638    -1156275.7301        928.015          36.554  
G06  21185855.138       43208.3161       -184.667          25.932  
G09  23924006.855    -1744324.9031       1577.165          28.622  
G17  21541706.087     -826680.8661        714.693          38.518  
G19  21620106.312    -1213795.4591       1061.943          32.509  
G28  20803056.444     2067693.6221      -2184.464          17.709  
R26  21738956.034      424022.7481       -889.314          24.554  
R06  20703897.090    -1327288.9531       2562.579          25.588  
R09  23868139.931     4090894.0900      -4359.971          30.967  
R11  21647049.260     -691671.7431        193.532          27.290  
R05  21199145.237      973067.6621      -1346.335          31.765  
R21  21793389.051     -564221.6351        550.527          28.991  
J01  37721292.193     1037131.3421       -986.393          35.388  
C06  38601702.298    -1135640.9721       1178.373          18.733  
C11  23400625.884     -678184.8860        683.446          34.362  
> 2018  4 17 12 34  6.9997928  0 15
G02  23596513.274    -1157203.3880        923.881          33.759  
G06  21185865.331       43400.2051       -185.773          28.394  
G09  23923695.370    -1745899.5051       1573.470          30.383  
G17  21541564.285     -827394.2091        713.770          36.524  
G19  21619889.562    -1214852.4781       1063.419          34.521  
G28  20803476.153     2069878.1991      -2184.666          19.993  
R26  21739155.396      424918.0311       -890.294          22.946  
R06  20703362.261    -1329847.3981       2557.033          23.837  
R09  23868937.378     4095253.7691      -4359.577          27.066  
R11  21647001.892     -691864.1121        193.315          26.511  
R05  21199394.365      974415.2071      -1347.450          33.847  
R21  21793318.599     -564778.6211        555.370          26.515  
J01  37721473.567     1038116.2921       -984.596          32.791  
C06  38601490.045    -1136822.7091       1181.425          22.065  
C11  23400501.170     -678868.7210        682.271          32.776  
> 2018  4 17 12 34  7.9997928  0 16
G02  23596317.809    -1158136.4551        935.955          30.229  
G06  21185902.205       43584.5391       -183.373          30.675  
G09  23923434.251    -1747474.2621       1577.806          29.925  
G17  21541427.580     -828107.8761        712.740          34.474  
G19  21619691.399    -1215916.8780       1063.073          36.933  
G28  20803911.452     2072061.4591      -2187.276          19.334  
R26  21739313.686      425812.6081       -889.902          23.776  
R06  20702942.551    -1332405.9421       2556.447          24.119  
R09  23869799.582     4099616.1261      -4356.369          22.529  
R11  21646939.536     -692057.2321        192.845          25.507  
R05  21199632.700      975764.0300      -1350.350          35.135  
R21  21793206.177     -565327.8851        552.883          27.500  
J01  37721657.640     1039099.7251       -985.380          34.098  
J02  36854770.273     1054465.1011       -964.874          25.568  
C06  38601261.003    -1138008.8951       1182.305          18.856  
C11  23400365.364     -679552.5070        683.907          32.328  
> 2018  4 17 12 34  8.9997928  0 15
G02  23596166.414    -1159073.1681        928.062          30.248  
G06  21185939.379       43769.4230       -185.776          31.554  
G09  23923118.869    -1749048.6151       1577.639          29.369  
G17  21541292.074     -828820.5710        711.103          36.036  
G19  21619483.343    -1216980.9170       1063.040          35.833  
G28  20804303.281     2074251.8841      -2187.793          20.041  
R26  21739419.813      426701.8911       -890.214          23.708  
R06  20702401.126    -1334963.3491       2561.340          24.029  
R09  23870600.927     4103976.3131      -4357.765          22.564  
R11  21646938.636     -692240.9041        187.468          24.633  
R05  21199878.230      977113.8550      -1351.192          35.868  
R21  21793077.566     -565878.5851        552.989          28.426  
J01  37721847.708     1040086.1711       -987.751          35.848  
C06  38601028.664    -1139197.6401       1182.164          18.094  
C11  23400232.556     -680235.6380        682.244          32.597  
> 2018  4 17 12 34  9.9997928  0 16
G02  23595977.245    -1160005.2871        925.178          31.116  
G06  21185972.357       43954.3390       -185.198          33.609  
G09  23922853.853    -1750621.1211       1577.592          27.577  
G17  21541158.366     -829532.8950        711.454          39.228  
G19  21619280.084    -1218044.9950       1064.016          33.771  
G28  20804741.577     2076443.5791      -2188.478          20.126  
R26  21739634.764      427590.6051       -888.617          25.507  
R06  20701976.920    -1337519.4841       2559.942          24.082  
R09  23871441.545     4108335.8651      -4358.094          21.339  
R11  21646898.164     -692428.9091        188.566          23.812  
R05  21200154.039      978464.5840      -1351.135          35.923  
R21  21792966.943     -566434.8361        557.038          30.616  
J01  37722039.276     1041072.7450       -987.185          38.122  
J02  36855082.657     1056393.2801       -962.905          27.664  
C06  38600808.616    -1140378.1811       1182.590          17.687  
C11  23400100.647     -680919.1781        683.162          30.707  
> 2018  4 17 12 34 10.9997928  0 16
G02  23595789.275    -1160927.6231        928.718          29.366  
G06  21186015.826       44140.6880       -190.973          33.957  
G09  23922543.867    -1752197.1731       1577.845          27.975  
G17  21541021.661     -830245.4870        711.071          37.841  
G19  21619081.621    -1219108.5360       1060.902          35.733  
G28  20805158.289     2078639.4741      -2192.920          21.673  
R26  21739805.346      428483.9051       -893.192          23.519  
R06  20701478.065    -1340076.6311       2555.727          23.568  
R09  23872261.177     4112694.9991      -4360.688          19.183  
R11  21646866.386     -692623.1331        191.153          25.037  
R05  21200407.363      979815.9430      -1351.465          36.060  
R21  21792870.710     -566991.2821        557.378          31.686  
J01  37722222.149     1042058.7991       -985.227          36.774  
J02  36855281.420     1057357.6181       -964.346          27.192  
C06  38600574.478    -1141564.0091       1180.398          16.271  
C11  23399972.336     -681602.4921        682.322          31.611  
> 2018  4 17 12 34 11.9997928  0 16
G02  23595630.985    -1161854.0301        930.484          31.038  
G06  21186043.707       44332.8251       -186.928          31.265  
G09  23922201.205    -1753775.5491       1572.392          32.466  
G17  21540887.054     -830957.2680        710.698          36.049  
G19  21618871.767    -1220170.8791       1060.356          33.191  
G28  20805577.099     2080835.6021      -2195.142          18.839  
R26  21739938.154      429374.5091       -890.997          24.708  
R06  20701023.280    -1342634.9561       2555.838          22.390  
R09  23873008.860     4117054.4110      -4359.266          25.259  
R11  21646853.495     -692812.6571        186.264          31.066  
R05  21200656.791      981168.7701      -1351.302          33.094  
R21  21792766.082     -567546.7301        555.619          32.090  
J01  37722417.314     1043045.5940       -986.843          36.504  
J02  36855460.995     1058322.3671       -966.575          25.288  
C06  38600349.934    -1142739.4741       1180.737          15.082  
C11  23399836.830     -682285.2901        680.977          31.024  
> 2018  4 17 12 34 12.9997928  0 16
G02  23595469.996    -1162779.9701        926.787          31.496  
G06  21186080.582       44521.9841       -187.331          32.031  
G09  23921900.513    -1755348.6951       1575.782          33.027  
G17  21540759.942     -831668.7380        709.420          35.705  
G19  21618676.901    -1221233.8751       1063.964          34.831  
G23  24857176.835      -64564.4440        396.381          26.555  
G28  20806004.303     2083034.7561      -2193.596          18.339  
R26  21740134.818      430267.6451       -890.752          24.815  
R06  20700538.216    -1345190.4491       2556.669          23.337  
R09  23873860.870     4121413.6481      -4358.275          25.682  
R11  21646794.436     -693000.0501        184.068          30.041  
R05  21200911.614      982522.6601      -1352.401          32.262  
R21  21792657.557     -568102.2080        554.750          34.563  
J01  37722604.085     1044032.5690       -987.223          35.993  
C06  38600126.289    -1143913.9181       1180.451          19.030  
C11  23399708.219     -682968.9451        684.450          28.686  
> 2018  4 17 12 34 13.9997928  0 16
G02  23595265.238    -1163707.4561        925.808          28.767  
G06  21186122.253       44709.6181       -187.612          31.805  
G09  23921614.811    -1756922.2321       1578.394          32.078  
G17  21540613.344     -832379.9000        710.506          36.891  
G19  21618473.342    -1222296.5760       1063.378          35.574  
G23  24857113.878      -64962.7311        396.504          24.025  
G28  20806410.522     2085233.1501      -2192.785          18.941  
R26  21740279.917      431161.0941       -895.992          25.461  
R06  20700039.361    -1347743.2061       2554.388          25.534  
R09  23874674.507     4125772.9210      -4358.923          29.314  
R11  21646797.734     -693183.5471        181.796          26.597  
R05  21201166.138      983877.1551      -1354.800          33.953  
R21  21792561.923     -568656.9191        556.424          32.943  
J01  37722786.358     1045020.0830       -988.231          36.431  
C06  38599895.448    -1145096.3111       1180.917          15.756  
C11  23399582.006     -683651.1961        683.867          27.911  
> 2018  4 17 12 34 14.9997928  0 16
G02  23595059.580    -1164641.5131        932.356          24.977  
G06  21186149.234       44897.2471       -188.006          33.714  
G09  23921314.419    -1758494.6601       1573.497          31.782  
G17  21540492.228     -833090.5690        708.822          32.685  
G19  21618270.083    -1223358.8100       1062.580          35.318  
G23  24857088.396      -65360.9881        396.100          21.397  
G28  20806834.128     2087431.3251      -2195.034          18.517  
R26  21740474.483      432056.1141       -895.833          25.493  
R06  20699603.463    -1350292.4701       2552.577          23.396  
R09  23875499.536     4130131.5161      -4358.952          26.622  
R11  21646741.673     -693362.1681        184.187          27.510  
R05  21201418.863      985232.9871      -1356.315          32.777  
R21  21792451.000     -569210.5471        554.611          31.872  
J01  37722977.026     1046007.1000       -985.135          36.405  
C06  38599669.105    -1146284.5391       1181.344          14.129  
C11  23399446.800     -684333.3290        681.328          33.380  
> 2018  4 17 12 34 15.9997928  0 16
G02  23594932.768    -1165568.0991        926.923          23.975  
G06  21186189.706       45084.9740       -188.337          34.756  
G09  23921023.620    -1760067.5521       1573.660          32.319  
G17  21540349.227     -833801.9791        712.467          30.700  
G19  21618073.119    -1224421.1420       1061.713          37.648  
G23  24857000.257      -65757.2191        396.681          20.073  
G28  20807237.349     2089630.1751      -2194.708          19.827  
R26  21740626.477      432952.3531       -891.905          25.712  
R06  20699152.275    -1352848.4801       2554.016          21.591  
R09  23876254.113     4134493.9641      -4358.583          23.045  
R11  21646643.640     -693541.9111        187.089          23.934  
R05  21201675.785      986589.5180      -1356.885          32.932  
R21  21792345.473     -569765.8100        554.532          36.964  
J01  37723165.896     1046992.3701       -990.876          32.405  
C06  38599444.561    -1147469.7921       1178.799          12.939  
C11  23399312.193     -685021.7961        681.474          30.672  
> 2018  4 17 12 34 16.9997928  0 16
G02  23594725.611    -1166497.2861        923.737          22.738  
G06  21186222.084       45274.6611       -189.718          31.706  
G09  23920694.448    -1761640.4591       1574.698          33.836  
G17  21540202.628     -834512.8901        709.852          33.535  
G19  21617868.961    -1225483.2200       1061.055          35.827  
G23  24856934.602      -66152.6051        394.632          23.128  
G28  20807629.778     2091827.0791      -2194.824          18.765  
R26  21740780.271      433843.3601       -892.707          26.472  
R06  20698600.957    -1355405.2721       2548.972          20.531  
R09  23877229.638     4138846.9211      -4357.347          20.311  
R11  21646649.936     -693722.2811        183.243          20.732  
R05  21201915.020      987946.9421      -1355.371          32.325  
R21  21792242.644     -570321.2300        555.216          37.583  
J01  37723352.067     1047979.7960       -987.938          36.959  
C06  38599211.622    -1148646.4251       1177.754          12.840  
C11  23399182.383     -685704.7471        683.276          26.779  
> 2018  4 17 12 34 17.9997928  0 15
G02  23594508.861    -1167422.0431        928.070          22.823  
G06  21186255.960       45462.3470       -187.894          36.593  
G09  23920408.746    -1763212.7181       1574.826          33.087  
G17  21540072.518     -835223.9181        710.550          36.433  
G19  21617671.997    -1226545.4091       1060.202          32.885  
G23  24856870.447      -66547.5541        391.944          23.601  
G28  20808059.980     2094018.3011      -2194.364          18.846  
R26  21740990.426      434737.6791       -893.382          23.594  
R06  20698117.691    -1357956.0771       2552.285          21.869  
R09  23877922.758     4143203.2371      -4358.517          21.438  
R11  21646580.384     -693903.6281        180.831          25.520  
R05  21202193.827      989305.0571      -1357.070          30.554  
R21  21792144.912     -570877.1161        556.335          33.551  
J01  37723539.737     1048968.1371       -986.480          36.602  
C11  23399046.577     -686387.7071        684.079          29.564  
> 2018  4 17 12 34 18.9997928  0 15
G02  23594359.265    -1168352.0001        932.423          25.260  
G06  21186293.134       45650.1830       -187.609          38.000  
G09  23920107.154    -1764785.6621       1574.155          34.227  
G17  21539944.807     -835933.7461        707.286          34.074  
G19  21617473.834    -1227601.9281       1059.735          29.311  
G23  24856799.096      -66942.9931        396.313          20.408  
G28  20808482.387     2096211.1821      -2190.000          20.348  
R26  21741127.431      435639.7211       -894.267          22.987  
R06  20697672.799    -1360508.0831       2557.729          23.306  
R09  23878750.185     4147562.9441      -4361.968          20.992  
R11  21646543.510     -694084.5511        180.692          24.831  
R05  21202419.570      990663.4151      -1359.392          29.112  
R21  21792052.876     -571431.1431        561.255          31.091  
J01  37723729.505     1049955.4300       -987.026          39.235  
C11  23398917.666     -687071.1291        685.086          29.067  
> 2018  4 17 12 34 19.9997928  0 15
G02  23594228.555    -1169283.3051        925.704          23.416  
G06  21186324.912       45837.7690       -187.417          39.730  
G09  23919911.990    -1766368.1761       1584.697          31.887  
G17  21539804.204     -836645.0551        710.350          34.629  
G19  21617257.684    -1228664.5931       1063.275          35.301  
G23  24856673.783      -67334.0201        397.609          22.934  
G28  20808897.300     2098398.2261      -2191.193          19.401  
R26  21741347.778      436531.4901       -891.217          22.335  
R06  20697218.014    -1363058.6621       2554.653          21.915  
R09  23879618.684     4151925.0561      -4365.617          19.533  
R11  21646529.420     -694272.0731        179.657          23.363  
R05  21202679.191      992023.1691      -1358.796          33.423  
R21  21791927.862     -571983.4021        554.362          31.295  
J01  37723911.779     1050942.6621       -986.295          35.200  
C11  23398790.255     -687754.2901        683.808          29.766  
> 2018  4 17 12 34 20.9997928  0 15
G02  23594014.204    -1170208.9661        924.550          21.692  
G06  21186365.984       46025.6190       -188.265          38.686  
G09  23919623.889    -1767956.3031       1582.504          32.328  
G17  21539672.895     -837352.1181        712.462          32.477  
G19  21617060.720    -1229727.5280       1063.446          36.699  
G23  24856621.919      -67724.5981        395.184          20.866  
G28  20809290.028     2100589.3631      -2193.231          19.555  
R26  21741509.966      437429.4981       -891.283          21.042  
R06  20696733.849    -1365607.1241       2550.282          20.749  
R09  23880454.805     4156290.2111      -4364.210          15.619  
R11  21646497.642     -694453.8381        180.651          22.113  
R05  21202948.404      993383.6741      -1358.810          31.819  
R21  21791814.841     -572540.5651        553.503          31.657  
J01  37724103.946     1051929.8911       -986.918          36.117  
C11  23398656.847     -688437.4661        682.263          27.477  
> 2018  4 17 12 34 21.9997928  0 16
G02  23593801.351    -1171136.0101        933.553          19.369  
G06  21186401.659       46213.6620       -188.329          38.510  
G09  23919207.477    -1769540.4181       1574.562          31.188  
G17  21539533.491     -838060.4571        712.068          33.412  
G19  21616857.461    -1230790.4320       1063.350          35.768  
G23  24856540.975      -68119.4921        389.970          16.988  
G28  20809701.044     2102788.7241      -2195.555          17.465  
R26  21741593.908      438321.7391       -890.894          20.735  
R06  20696247.886    -1368158.0441       2547.715          17.891  
R09  23881488.190     4160658.5681      -4363.179          10.432  
R11  21646425.991     -694633.0011        178.814          21.576  
R05  21203214.620      994740.6011      -1361.554          28.640  
R21  21791726.102     -573090.3121        555.003          32.666  
J01  37724289.818     1052917.0081       -985.775          36.168  
C06  38598088.899    -1154489.4941       1172.195          11.564  
C11  23398526.737     -689121.3241        684.886          30.520  
> 2018  4 17 12 34 22.9997928  0 15
G02  23593601.689    -1172073.9241        931.714          22.261  
G06  21186433.437       46401.8001       -188.388          37.989  
G09  23918909.184    -1771118.2801       1572.326          32.228  
G17  21539404.281     -838772.1741        710.161          37.086  
G19  21616656.600    -1231852.2061       1062.503          35.199  
G23  24856487.612      -68514.7291        391.289          16.917  
G28  20810124.051     2104991.7921      -2196.757          16.577  
R26  21741770.186      439212.2411       -890.537          21.692  
R06  20695782.608    -1370712.9921       2548.725          18.946  
R09  23882157.626     4165024.0331      -4359.754          12.539  
R11  21646467.362     -694810.6001        179.219          20.465  
R05  21203480.236      996099.7121      -1362.370          28.164  
R21  21791631.368     -573647.4851        558.019          33.657  
J01  37724484.982     1053904.6751       -985.954          36.643  
C11  23398397.826     -689805.1381        684.936          30.571  
> 2018  4 17 12 34 23.9997928  0 17
G02  23593421.214    -1173007.9181        931.167          25.474  
G06  21186476.008       46590.9000       -188.683          38.054  
G09  23918642.069    -1772691.3221       1579.775          34.374  
G17  21539259.781     -839483.1001        711.181          33.675  
G19  21616449.443    -1232914.7160       1062.437          37.247  
G23  24856376.389      -68909.1331        394.336          19.751  
G28  20810560.549     2107196.2631      -2197.833          19.228  
R26  21742003.124      440097.9171       -889.059          22.117  
R06  20695293.347    -1373264.8001       2549.286          22.628  
R09  23882975.760     4169388.0711      -4359.415          11.723  
R11  21646418.496     -694986.4981        177.810          23.672  
R05  21203744.053      997462.8311      -1364.365          28.381  
R21  21791515.648     -574204.1110        556.167          34.158  
J01  37724662.759     1054892.2280       -988.319          35.160  
J02  36857507.978     1069916.1481       -964.830          16.129  
C06  38597655.399    -1156845.6631       1176.333           9.157  
C11  23398265.318     -690488.6361        682.695          32.150  
> 2018  4 17 12 34 24.9997928  0 17
G02  23593247.335    -1173939.8641        930.427          25.949  
G06  21186496.394       46779.9401       -188.697          35.196  
G09  23918343.176    -1774263.8131       1577.842          35.362  
G17  21539133.868     -840196.7021        706.524          33.559  
G19  21616242.587    -1233976.7850       1061.774          36.450  
G23  24856309.235      -69302.0981        395.699          19.415  
G28  20811007.839     2109394.8091      -2198.214          20.105  
R26  21742112.549      440994.3811       -894.761          21.564  
R06  20694810.381    -1375812.4871       2548.153          22.635  
R09  23883662.884     4173734.2941      -4355.566          11.694  
R11  21646332.756     -695160.5321        177.443          24.533  
R05  21203972.795      998828.4701      -1365.790          26.156  
R21  21791408.022     -574760.8300        557.143          34.530  
J01  37724865.419     1055877.5851       -988.159          31.498  
J02  36857680.059     1070879.8581       -964.787          18.545  
C06  38597430.255    -1158015.0971       1175.636          14.260  
C11  23398131.910     -691171.5841        683.107          30.859  
> 2018  4 17 12 34 25.9997928  0 17
G02  23593067.459    -1174875.4571        931.555          26.730  
G06  21186547.358       46969.1241       -191.603          33.623  
G09  23918045.781    -1775836.8051       1577.659          32.531  
G17  21538999.861     -840906.7991        712.899          34.885  
G19  21616053.118    -1235038.7091       1058.487          34.067  
G23  24856258.870      -69695.1251        392.510          22.463  
G28  20811415.557     2111595.7471      -2203.832          20.794  
R26  21742314.009      441886.0651       -894.015          22.585  
R06  20694331.313    -1378355.7091       2549.311          20.941  
R09  23884449.240     4178087.0521      -4354.793          13.478  
R11  21646316.567     -695331.4221        175.483          21.275  
R05  21204232.116     1000192.7991      -1367.035          25.380  
R21  21791322.881     -575316.9621        557.709          33.048  
J01  37725042.896     1056860.8081       -986.800          35.750  
J02  36857799.676     1071852.3331       -967.376          20.401  
C06  38597210.207    -1159184.0011       1175.270          15.475  
C11  23398000.901     -691851.5711        682.076          28.893  
> 2018  4 17 12 34 26.9997928  0 17
G02  23592887.284    -1175808.9571        930.591          27.414  
G06  21186582.734       47158.5731       -188.168          35.490  
G09  23917697.123    -1777409.7110       1573.777          33.295  
G17  21538857.159     -841617.5180        711.942          34.797  
G19  21615850.158    -1236100.4491       1061.669          32.336  
G23  24856185.121      -70088.2841        391.714          19.960  
G28  20811839.763     2113796.9331      -2199.672          19.375  
R26  21742444.419      442776.7071       -893.047          23.089  
R06  20693856.441    -1380901.9121       2551.157          21.513  
R09  23885285.661     4182441.4941      -4354.924          13.217  
R11  21646268.000     -695501.1991        174.747          21.503  
R05  21204443.769     1001553.6221      -1364.536          24.210  
R21  21791202.365     -575874.0401        557.350          31.326  
J01  37725235.963     1057848.4840       -986.260          36.374  
J02  36857958.266     1072824.4351       -967.896          21.647  
C06  38596976.669    -1160353.4551       1174.453          15.681  
C11  23397868.393     -692540.0401        684.113          27.165  
> 2018  4 17 12 34 27.9997928  0 17
G02  23592714.304    -1176738.9671        932.585          26.376  
G06  21186620.508       47347.2011       -188.443          38.557  
G09  23917441.700    -1778984.0491       1572.136          30.762  
G17  21538724.351     -842327.6601        708.826          32.585  
G19  21615649.297    -1237158.8901       1062.261          32.738  
G23  24856125.762      -70482.5421        393.139          17.626  
G28  20812265.468     2115994.4101      -2200.751          18.865  
R26  21742615.301      443663.8211       -888.438          23.744  
R06  20693386.966    -1383450.1821       2549.811          22.082  
R09  23886112.488     4186792.7941      -4353.671          13.377  
R11  21646257.808     -695674.1201        173.787          22.005  
R05  21204741.163     1002918.9331      -1365.589          24.904  
R21  21791075.253     -576431.6201        555.006          29.163  
J01  37725422.733     1058835.5351       -987.840          35.807  
J02  36858179.213     1073795.1841       -965.495          22.744  
C06  38596750.326    -1161528.9331       1174.881          13.678  
C11  23397736.784     -693224.4201        683.732          29.332  
> 2018  4 17 12 34 28.9997928  0 17
G02  23592524.535    -1177672.5271        935.338          26.158  
G06  21186649.588       47535.7220       -187.154          40.586  
G09  23917103.234    -1780559.4541       1575.685          30.304  
G17  21538587.346     -843039.6571        713.297          32.665  
G19  21615438.843    -1238220.1221       1065.119          36.632  
G23  24856055.311      -70877.5051        392.659          20.442  
G28  20812658.496     2118196.4501      -2204.273          20.564  
R26  21742779.887      444550.5671       -887.932          22.714  
R06  20692862.929    -1385998.1971       2545.423          23.312  
R09  23886960.301     4191152.6541      -4354.590          12.924  
R11  21646197.249     -695854.2021        173.232          20.204  
R05  21204969.305     1004284.4901      -1365.485          22.802  
R21  21791028.785     -576985.4171        555.913          26.638  
J01  37725610.403     1059821.9411       -985.239          34.590  
J02  36858404.657     1074762.0701       -962.824          20.828  
C06  38596518.886    -1162705.2361       1174.653           9.823  
C11  23397607.573     -693909.6371        685.063          30.895  
> 2018  4 17 12 34 29.9997928  0 16
G02  23592388.130    -1178602.3351        932.805          24.158  
G06  21186690.659       47723.6900       -187.169          40.832  
G09  23916819.331    -1782135.1241       1578.266          28.822  
G17  21538455.737     -843751.9451        714.642          30.166  
G19  21615237.982    -1239284.4030       1064.815          38.527  
G23  24855991.155      -71274.0871        391.898          18.531  
G28  20813089.598     2120394.2901      -2201.595          19.448  
R26  21742969.955      445432.2971       -884.168          25.378  
R06  20692385.959    -1388546.4421       2546.211          23.456  
R11  21646229.927     -696028.2861        172.208          21.097  
R05  21205264.901     1005651.9551      -1362.232          23.534  
R21  21790931.952     -577537.1591        555.909          23.366  
J01  37725795.675     1060807.3711       -983.518          32.633  
J02  36858554.254     1075722.2341       -963.779          20.746  
C06  38596295.241    -1163881.0601       1175.588          10.046  
C11  23397476.264     -694595.7201        686.790          30.424  
> 2018  4 17 12 34 30.9997928  0 16
G02  23592192.365    -1179540.2471        932.528          20.758  
G06  21186722.437       47911.0740       -186.108          41.000  
G09  23916533.029    -1783710.9931       1577.078          28.410  
G17  21538319.332     -844465.3531        711.939          30.422  
G19  21615037.421    -1240349.2750       1065.331          38.771  
G23  24855914.109      -71669.6221        392.907          18.097  
G28  20813524.597     2122592.1631      -2200.882          19.433  
R26  21743144.135      446319.0191       -886.883          28.586  
R06  20691965.051    -1391095.4301       2549.661          22.792  
R09  23888591.772     4199856.8081      -4350.753          11.389  
R11  21646188.855     -696196.4281        172.811          19.385  
R05  21205495.141     1007016.9301      -1362.726          22.064  
R21  21790779.058     -578087.9941        552.753          21.143  
J01  37725980.047     1061792.9571       -984.610          33.696  
J02  36858765.008     1076687.9791       -961.503          22.036  
C11  23397345.855     -695282.0851        688.915          33.850  
> 2018  4 17 12 34 31.9997928  0 16
G02  23592040.970    -1180472.9991        932.478          20.688  
G06  21186759.612       48098.7300       -186.764          38.762  
G09  23916236.834    -1785286.5011       1580.393          27.481  
G17  21538191.320     -845179.0331        711.838          30.527  
G19  21614832.063    -1241414.1761       1064.263          36.875  
G23  24855832.865      -72064.3391        396.135          18.447  
G28  20813948.803     2124798.0541      -2200.286          18.593  
R26  21743291.932      447206.7821       -888.543          32.095  
R06  20691486.582    -1393648.4261       2558.844          19.218  
R09  23889371.232     4204208.7401      -4351.086          11.269  
R11  21646155.878     -696367.9071        173.062          19.175  
R05  21205818.617     1008382.2081      -1365.308          21.766  
R21  21790707.407     -578647.1471        553.468          22.129  
J01  37726170.416     1062777.8711       -984.508          34.826  
J02  36858941.286     1077646.9391       -961.373          21.085  
C11  23397212.147     -695968.8820        687.162          34.248  
> 2018  4 17 12 34 32.9997928  0 17
G02  23591840.409    -1181408.0551        930.446          23.023  
G06  21186799.784       48286.5920       -186.482          36.741  
G09  23915946.335    -1786862.0261       1581.066          28.038  
G17  21538042.623     -845891.6911        712.874          35.023  
G19  21614631.502    -1242478.8241       1063.907          37.137  
G23  24855756.418      -72458.2381        395.432          18.678  
G28  20814341.531     2126998.7381      -2201.675          20.041  
R26  21743448.424      448095.4181       -888.725          32.250  
R06  20691001.518    -1396209.7461       2555.030          21.546  
R09  23890234.035     4208554.3591      -4350.746          11.523  
R11  21646128.297     -696540.2511        172.273          19.535  
R05  21206014.082     1009749.4551      -1363.711          22.780  
R21  21790623.165     -579196.7081        554.670          21.755  
J01  37726361.383     1063757.9781       -985.597          31.986  
J02  36859137.050     1078611.6991       -961.802          22.624  
C06  38595655.484    -1167410.1151       1179.038          13.412  
C11  23397082.337     -696655.7770        687.057          34.065  
> 2018  4 17 12 34 33.9997928  0 16
G02  23591657.535    -1182344.5641        932.529          20.151  
G06  21186838.157       48474.8101       -185.842          32.833  
G09  23915662.731    -1788439.1911       1578.275          26.083  
G17  21537913.113     -846604.5601        712.322          34.928  
G19  21614422.846    -1243543.0190       1063.065          34.019  
G23  24855675.474      -72853.4081        396.641          18.906  
G28  20814780.128     2129202.4671      -2201.376          18.580  
R26  21743632.796      448983.9371       -884.693          30.564  
R06  20690489.172    -1398768.2681       2553.772          20.652  
R11  21646059.345     -696707.5041        171.288          19.483  
R05  21206211.945     1011118.1241      -1369.663          23.484  
R21  21790451.384     -579755.3741        557.627          23.266  
J01  37726554.450     1064740.5081       -985.309          31.078  
J02  36859341.509     1079574.2181       -961.075          23.134  
C06  38595411.153    -1168583.9371       1177.605          12.803  
C11  23396950.128     -697342.5340        686.204          34.394  
> 2018  4 17 12 34 34.9997928  0 17
G02  23591488.153    -1183277.5731        931.213          18.030  
G06  21186876.830       48661.3191       -191.627          30.703  
G09  23915365.037    -1790015.2121       1578.397          25.124  
G17  21537776.408     -847316.8181        712.460          36.702  
G19  21614233.378    -1244607.2741       1064.539          32.556  
G23  24855614.616      -73246.7641        395.158          21.471  
G28  20815220.822     2131404.7991      -2202.205          17.727  
R26  21743809.374      449873.7501       -888.256          28.982  
R06  20690054.174    -1401319.8491       2549.034          20.668  
R09  23891956.942     4217258.4541      -4349.031          10.502  
R11  21646041.357     -696878.6391        170.276          22.181  
R05  21206519.532     1012486.7591      -1372.646          25.469  
R21  21790401.619     -580312.4571        554.317          20.895  
J01  37726740.621     1065723.3491       -985.506          30.580  
J02  36859520.485     1080530.2171       -962.329          22.310  
C06  38595182.411    -1169763.2641       1177.823          13.478  
C11  23396813.423     -698028.9040        685.822          36.160  
> 2018  4 17 12 34 35.9997928  0 17
G02  23591298.684    -1184207.0661        929.937          21.731  
G06  21186910.107       48849.3011       -190.758          31.545  
G09  23915097.622    -1791593.7541       1581.525          23.847  
G17  21537640.901     -848028.6531        710.855          35.715  
G19  21614020.825    -1245670.9890       1063.580          38.004  
G23  24855557.056      -73646.6401        396.298          18.838  
G28  20815616.549     2133608.3471      -2201.557          20.653  
R26  21743966.765      450764.0301       -891.551          29.179  
R06  20689599.988    -1403866.0761       2548.503          20.661  
R09  23892785.569     4221612.0881      -4349.065          11.469  
R11  21646024.269     -697050.5761        174.532          19.708  
R05  21206756.668     1013855.3571      -1370.023          27.487  
R21  21790334.765     -580863.8171        551.826          19.182  
J01  37726923.494     1066706.9471       -985.130          28.552  
J02  36859676.077     1081494.7881       -964.583          22.566  
C06  38594947.074    -1170939.8261       1179.654          16.360  
C11  23396684.213     -698714.7930        686.129          35.989  
> 2018  4 17 12 34 36.9997928  0 17
G02  23591181.765    -1185131.9541        926.528          20.620  
G06  21186941.286       49039.4901       -188.512          33.463  
G09  23914739.670    -1793178.9151       1577.509          23.447  
G17  21537506.894     -848739.9801        710.640          33.667  
G19  21613818.765    -1246733.9480       1062.903          39.372  
G23  24855488.403      -74040.2701        394.011          19.853  
G28  20816052.147     2135808.5741      -2202.210          19.820  
R26  21744117.261      451652.6731       -890.053          30.496  
R06  20689136.509    -1406417.2381       2549.705          20.220  
R09  23893598.906     4225956.2171      -4345.289          10.897  
R11  21645979.001     -697219.0611        170.972          21.564  
R05  21207033.676     1015223.3411      -1368.358          27.849  
R21  21790222.643     -581410.7901        551.844          19.180  
J01  37727118.659     1067693.0631       -985.380          29.183  
J02  36859856.552     1082462.4201       -968.709          25.804  
C06  38594722.829    -1172119.1271       1179.103          15.437  
C11  23396550.805     -699400.4100        686.550          34.708  
> 2018  4 17 12 34 37.9997928  0 17
G02  23590972.809    -1186056.9941        929.029          19.873  
G06  21186978.760       49229.9881       -192.057          32.477  
G09  23914446.473    -1794762.1901       1580.372          25.421  
G17  21537366.292     -849451.4510        712.189          35.369  
G19  21613620.002    -1247796.7670       1062.328          37.020  
G23  24855381.677      -74438.3541        391.660          21.953  
G28  20816427.487     2138011.5531      -2202.187          21.639  
R26  21744304.032      452542.6561       -888.247          28.776  
R06  20688615.170    -1408965.2531       2550.218          19.036  
R09  23894403.249     4230303.7491      -4348.877          10.710  
R11  21645950.220     -697387.1991        169.436          23.134  
R05  21207295.095     1016595.8711      -1371.655          28.779  
R21  21790039.470     -581958.9311        553.110          19.843  
J01  37727294.937     1068679.8321       -987.539          30.053  
J02  36860018.140     1083435.0971       -964.836          25.149  
C06  38594497.086    -1173299.3081       1178.542          15.579  
C11  23396421.894     -700086.0970        685.209          33.090  
> 2018  4 17 12 34 38.9997928  0 16
G02  23590795.032    -1186983.3681        928.629          20.630  
G06  21187018.332       49420.9801       -193.567          30.478  
G09  23914144.582    -1796344.5761       1579.855          27.199  
G17  21537225.689     -850159.6451        708.195          32.739  
G19  21613419.441    -1248859.1770       1062.269          38.973  
G23  24855311.826      -74826.8261        387.918          17.432  
G28  20816882.272     2140209.7501      -2194.822          20.605  
R26  21744473.714      453427.8361       -890.429          25.076  
R06  20688088.734    -1411509.9371       2548.722          19.477  
R11  21645903.753     -697554.9271        168.305          22.453  
R05  21207538.826     1017968.6650      -1373.561          34.977  
R21  21789947.733     -582514.8041        554.503          19.732  
J01  37727482.907     1069666.6991       -986.443          35.005  
J02  36860234.591     1084401.9021       -960.008          25.245  
C06  38594277.038    -1174476.7221       1180.223          14.613  
C11  23396291.185     -700770.9341        684.295          34.910  
> 2018  4 17 12 34 39.9997928  0 16
G02  23590612.159    -1187909.4721        928.923          20.246  
G06  21187054.907       49614.2041       -194.308          27.296  
G09  23913914.342    -1797928.5571       1585.723          25.686  
G17  21537097.977     -850870.3590        711.886          37.373  
G19  21613212.884    -1249921.6470       1063.587          39.680  
G23  24855245.272      -75211.9811        389.533          20.046  
G28  20817305.879     2142408.1711      -2198.039          19.575  
R26  21744625.409      454320.9931       -888.464          25.036  
R06  20687592.278    -1414060.4101       2546.697          16.784  
R11  21645883.367     -697721.0631        167.910          24.466  
R05  21207805.941     1019343.2470      -1374.619          37.348  
R21  21789868.588     -583069.2271        554.345          19.728  
J01  37727673.875     1070653.7660       -986.689          37.333  
J02  36860437.850     1085363.0291       -957.991          23.209  
C06  38594059.688    -1175652.8711       1178.975          13.344  
C11  23396159.876     -701456.2171        685.233          34.417  
> 2018  4 17 12 34 40.9997928  0 16
G02  23590414.596    -1188836.9081        928.301          21.574  
G06  21187094.480       49810.3671       -194.557          26.430  
G09  23913596.861    -1799518.1831       1590.149          25.973  
G17  21536962.771     -851580.7040        710.371          37.225  
G19  21613009.325    -1250983.6790       1063.214          41.041  
G23  24855163.428      -75596.9131        390.251          20.882  
G28  20817731.584     2144614.0521      -2201.126          20.467  
R26  21744802.886      455210.9651       -889.309          23.289  
R06  20687117.107    -1416613.2921       2547.500          18.809  
R11  21645855.186     -697885.6831        164.686          23.115  
R05  21208064.962     1020718.9740      -1376.125          36.884  
R21  21789734.581     -583622.5291        555.212          20.850  
J01  37727855.549     1071641.1200       -987.485          35.351  
J02  36860606.633     1086325.3181       -958.786          22.086  
C06  38593844.737    -1176832.7731       1179.623          10.277  
C11  23396022.571     -702141.0491        684.147          33.228  
> 2018  4 17 12 34 41.9997928  0 16
G02  23590242.215    -1189762.2741        925.566          18.413  
G06  21187145.444       50000.4241       -196.762          23.711  
G09  23913311.459    -1801102.8851       1583.973          27.565  
G17  21536827.565     -852290.8350        710.961          37.505  
G19  21612804.267    -1252045.4020       1062.310          40.824  
G23  24855080.985      -75991.6771        395.661          19.449  
G28  20818128.210     2146816.2051      -2203.308          20.409  
R26  21744942.290      456099.7491       -887.548          25.501  
R06  20686638.938    -1419166.5411       2545.940          15.888  
R11  21645830.304     -698046.8951        163.408          23.076  
R05  21208326.081     1022095.9190      -1377.988          35.905  
R21  21789671.324     -584180.8621        559.733          20.502  
J01  37728049.815     1072628.8770       -987.235          35.138  
J02  36860770.320     1087279.5291       -962.002          20.083  
C06  38593627.688    -1178006.5551       1180.112          14.387  
C11  23395888.863     -702826.1491        684.221          32.519  
> 2018  4 17 12 34 42.9997928  0 16
G02  23590064.438    -1190685.4611        925.432          18.740  
G06  21187194.610       50194.4941       -197.889          21.207  
G09  23913018.862    -1802684.1311       1585.407          30.143  
G17  21536692.658     -853000.9380        710.956          40.607  
G19  21612606.104    -1253107.1410       1062.354          40.070  
G23  24855004.538      -76391.9901        394.487          16.710  
G28  20818558.112     2149016.4321      -2204.094          20.383  
R26  21745084.092      456991.0291       -889.162          24.211  
R06  20686185.352    -1421720.4881       2544.966          16.953  
R11  21645736.169     -698207.3231        164.254          20.500  
R05  21208583.903     1023473.3281      -1376.286          32.475  
R21  21789507.938     -584741.0811        560.285          21.401  
J01  37728231.789     1073616.7031       -988.001          34.390  
J02  36860995.464     1088240.6931       -963.384          21.309  
C06  38593410.638    -1179186.2271       1176.290          12.523  
C11  23395761.751     -703511.4691        685.376          33.387  
> 2018  4 17 12 34 43.9997928  0 16
G02  23589891.158    -1191616.2231        926.210          20.537  
G06  21187232.684       50394.4271       -197.705          21.989  
G09  23912711.574    -1804267.0491       1586.940          30.993  
G17  21536556.852     -853710.7051        710.227          37.673  
G19  21612407.042    -1254168.3840       1061.659          40.693  
G23  24854954.473      -76785.3161        394.014          17.851  
G28  20818957.735     2151218.0311      -2204.631          22.804  
R26  21745362.599      457880.3731       -890.142          23.331  
R06  20685704.185    -1424272.8391       2542.451          17.602  
R11  21645773.043     -698375.2921        160.950          22.991  
R05  21208846.221     1024851.3961      -1377.710          30.767  
R21  21789470.164     -585298.4951        554.208          20.632  
J01  37728422.157     1074603.7821       -987.457          32.952  
J02  36861193.027     1089209.1031       -965.129          20.679  
C06  38593177.399    -1180362.6541       1175.182          14.585  
C11  23395628.044     -704195.6561        682.530          32.519  
> 2018  4 17 12 34 44.9997928  0 16
G02  23589735.566    -1192544.1241        928.809          18.131  
G06  21187244.976       50599.2411       -196.828          23.008  
G09  23912400.090    -1805853.3360       1586.902          31.238  
G17  21536424.044     -854419.8330        709.965          38.291  
G19  21612202.883    -1255229.1030       1061.446          41.781  
G23  24854900.510      -77173.0961        393.089          17.353  
G28  20819374.147     2153435.5511      -2212.620          23.000  
R26  21745457.033      458770.6401       -891.802          22.487  
R06  20685299.765    -1426819.3291       2541.268          18.210  
R11  21645699.594     -698535.0501        156.110          26.264  
R05  21209086.055     1026230.9351      -1379.611          31.177  
R21  21789352.945     -585854.1841        553.828          19.243  
J01  37728615.523     1075592.2521       -988.890          34.783  
J02  36861364.808     1090175.6611       -958.659          24.382  
C06  38592912.683    -1181533.7181       1178.241          17.270  
C11  23395497.934     -704877.4501        683.350          33.406  
> 2018  4 17 12 34 45.9997928  0 15
G02  23589550.294    -1193469.3851        926.451          20.697  
G06  21187297.439       50792.1091       -198.393          23.309  
G09  23912083.209    -1807439.8691       1585.012          31.817  
G17  21536289.437     -855129.2150        710.868          39.426  
G19  21611999.924    -1256289.4121       1060.152          37.792  
G23  24854767.403      -77561.5521        390.439          21.601  
G28  20819798.054     2155643.3761      -2211.404          22.456  
R26  21745669.886      459659.0231       -888.502          25.350  
R06  20684839.584    -1429355.9591       2541.542          17.296  
R11  21645629.443     -698696.6221        159.351          24.564  
R05  21209344.177     1027611.0611      -1381.033          31.404  
R21  21789237.225     -586407.2391        555.525          22.608  
J01  37728795.998     1076581.0511       -987.445          33.538  
J02  36861548.281     1091139.4731       -959.336          23.411  
C11  23395369.023     -705562.2040        686.562          37.928  
> 2018  4 17 12 34 46.9997928  0 16
G02  23589367.721    -1194393.7871        926.068          22.805  
G06  21187354.700       50984.8481       -198.234          21.625  
G09  23911802.903    -1809026.3660       1586.143          34.616  
G17  21536151.233     -855838.3990        709.721          39.774  
G19  21611800.862    -1257350.2580       1060.974          41.114  
G23  24854707.744      -77948.7321        392.977          18.294  
G28  20820239.048     2157855.2191      -2205.890          25.829  
R26  21745843.766      460550.6241       -887.462          26.207  
R06  20684324.240    -1431890.6451       2540.145          15.927  
R11  21645666.017     -698861.4561        161.150          27.917  
R05  21209603.197     1028991.9360      -1380.544          36.986  
R21  21789126.602     -586966.0701        559.973          25.152  
J01  37728983.968     1077569.5241       -989.060          36.768  
J02  36861754.838     1092105.0561       -961.280          22.993  
C06  38592459.396    -1183883.1121       1175.481          13.998  
C11  23395234.716     -706247.0100        685.350          35.067  
> 2018  4 17 12 34 47.9997928  0 16
G02  23589188.445    -1195312.2681        924.482          22.299  
G06  21187384.379       51184.6131       -198.343          21.459  
G09  23911492.918    -1810612.1920       1586.482          33.502  
G17  21536018.125     -856546.8600        708.788          37.257  
G19  21611599.701    -1258410.2510       1060.652          40.479  
G23  24854657.379      -78345.6711        391.890          17.503  
G28  20820636.873     2160063.4311      -2205.682          24.603  
R26  21746035.333      461440.6001       -890.919          25.907  
R06  20683750.138    -1434425.5731       2539.668          19.163  
R11  21645625.245     -699015.5241        159.876          25.559  
R05  21209863.417     1030374.2760      -1381.757          38.039  
R21  21789064.544     -587520.1411        558.742          22.356  
J01  37729177.934     1078558.5250       -989.050          37.015  
J02  36861902.036     1093062.4541       -965.096          22.632  
C06  38592235.751    -1185054.5171       1174.391          12.654  
C11  23395107.304     -706930.9471        684.776          33.077  
> 2018  4 17 12 34 48.9997928  0 16
G02  23589041.546    -1196237.6791        923.474          22.690  
G06  21187390.675       51378.5411       -199.090          23.762  
G09  23911205.117    -1812197.8410       1586.087          35.181  
G17  21535882.918     -857255.3411        710.710          35.781  
G19  21611393.444    -1259470.1600       1060.412          42.285  
G23  24854586.328      -78737.4891        391.504          18.594  
G28  20821069.174     2162267.7321      -2209.487          25.923  
R26  21746140.560      462334.5681       -891.766          26.046  
R06  20683316.638    -1436962.7831       2538.280          19.215  
R11  21645590.470     -699167.3611        156.820          25.138  
R05  21210121.838     1031757.4730      -1383.222          37.684  
R21  21788963.215     -588076.2521        558.150          19.154  
J01  37729365.604     1079547.5530       -989.681          37.067  
J02  36862111.591     1094022.5551       -964.594          24.248  
C06  38592007.909    -1186223.1231       1177.260          19.064  
C11  23394975.695     -707615.2371        686.130          31.402  
> 2018  4 17 12 34 49.9997928  0 16
G02  23588894.348    -1197162.4871        919.150          21.217  
G06  21187425.451       51575.0181       -199.389          22.962  
G09  23910896.631    -1813783.5180       1586.373          35.351  
G17  21535741.716     -857966.6011        705.360          34.835  
G19  21611196.180    -1260529.8890       1060.141          41.665  
G23  24854505.984      -79124.1711        390.132          19.188  
G28  20821493.380     2164479.5781      -2209.073          25.798  
R26  21746354.912      463225.9901       -891.126          25.546  
R06  20682911.318    -1439497.7721       2536.782          19.056  
R11  21645558.392     -699323.0901        153.858          27.438  
R05  21210376.662     1033141.6220      -1384.475          36.351  
R21  21788832.805     -588634.8981        557.250          21.744  
J01  37729547.278     1080536.7361       -989.844          35.641  
J02  36862259.089     1094983.0531       -962.839          22.199  
C06  38591772.572    -1187399.9321       1177.341          18.048  
C11  23394844.386     -708299.0880        683.906          30.836  
> 2018  4 17 12 34 50.9997928  0 16
G02  23588672.502    -1198074.5571        916.760          22.384  
G06  21187502.497       51773.8491       -200.853          21.659  
G09  23910598.337    -1815368.6890       1586.024          35.076  
G17  21535612.206     -858674.8981        708.522          33.885  
G19  21610995.019    -1261589.3050       1059.785          37.339  
G23  24854445.126      -79515.2831        388.150          19.640  
G28  20821912.190     2166682.7231      -2210.846          27.300  
R26  21746486.521      464112.7071       -892.278          24.428  
R06  20682437.946    -1442032.6981       2535.883          17.899  
R11  21645534.708     -699477.2551        153.080          29.243  
R05  21210637.781     1034525.4901      -1385.599          34.654  
R21  21788671.217     -589192.5181        555.156          22.461  
J01  37729741.244     1081524.9801       -990.602          35.203  
J02  36862469.543     1095947.0071       -960.575          22.104  
C06  38591542.631    -1188582.1231       1178.752          18.024  
C11  23394715.475     -708982.9041        682.434          27.661  
> 2018  4 17 12 34 51.9997928  0 16
G02  23588482.733    -1198995.5871        919.833          20.201  
G06  21187531.877       51973.1661       -199.191          21.175  
G09  23910305.440    -1816954.0390       1585.956          32.591  
G17  21535477.299     -859382.8971        709.988          35.047  
G19  21610793.859    -1262648.5661       1061.054          34.765  
G23  24854385.167      -79907.6421        386.789          19.955  
G28  20822322.906     2168889.1451      -2209.997          29.571  
R26  21746635.817      465004.8891       -893.474          24.890  
R06  20681996.951    -1444567.1401       2536.115          20.620  
R11  21645476.548     -699637.2951        156.068          26.082  
R05  21210899.800     1035911.4380      -1385.743          34.976  
R21  21788640.938     -589750.9531        555.884          21.342  
J01  37729931.912     1082514.5671       -989.637          35.496  
J02  36862658.113     1096904.3651       -961.041          21.824  
C06  38591324.382    -1189762.4001       1178.508          16.897  
C11  23394600.355     -709667.3691        684.297          23.207  
> 2018  4 17 12 34 52.9997928  0 15
G02  23588343.929    -1199915.3071        919.646          27.048  
G06  21187547.466       52173.8901       -198.373          20.952  
G09  23909969.073    -1818539.5621       1583.540          29.697  
G17  21535339.994     -860090.5060        706.865          36.680  
G19  21610591.199    -1263707.7520       1058.735          32.901  
G28  20822764.200     2171092.3381      -2210.950          27.121  
R26  21746798.005      465896.3651       -890.362          26.275  
R06  20681404.861    -1447105.5131       2535.815          20.822  
R11  21645493.037     -699790.5791        153.159          25.157  
R05  21211166.915     1037298.2670      -1387.645          36.617  
R21  21788543.205     -590310.9621        553.987          21.899  
J01  37730115.984     1083503.5301       -991.098          36.811  
J02  36862828.995     1097869.5461       -965.478          23.102  
C06  38591100.437    -1190938.0781       1179.889          19.001  
C11  23394467.847     -710343.2251        683.208          20.648  
> 2018  4 17 12 34 53.9997928  0 15
G02  23588175.446    -1200833.3891        918.964          26.710  
G06  21187597.232       52370.5861       -202.340          21.016  
G09  23909658.788    -1820127.7351       1579.074          26.069  
G17  21535205.687     -860797.9650        707.502          38.705  
G19  21610383.443    -1264767.1351       1056.050          29.746  
G28  20823151.832     2173301.4321      -2215.372          25.618  
R26  21746987.174      466789.3971       -889.104          23.991  
R06  20680995.345    -1449641.0501       2534.182          21.288  
R11  21645415.990     -699942.2961        150.359          27.381  
R05  21211417.841     1038686.2500      -1389.003          36.363  
R21  21788410.397     -590869.1231        555.145          24.552  
J01  37730305.453     1084493.5040       -991.066          37.577  
J02  36862968.998     1098838.6991       -967.652          20.417  
C06  38590873.494    -1192112.6541       1179.965          14.737  
C11  23394318.250     -711026.3861        682.558          21.045  
> 2018  4 17 12 34 54.9997928  0 15
G02  23588000.667    -1201751.3951        916.862          26.505  
G06  21187646.997       52566.5641       -199.704          23.693  
G09  23909353.899    -1821704.6261       1577.405          25.179  
G17  21535079.475     -861504.4541        710.642          34.970  
G19  21610204.467    -1265826.4211       1059.113          28.600  
G28  20823604.818     2175515.2441      -2218.051          24.320  
R26  21747206.322      467683.7771       -892.110          24.570  
R06  20680535.763    -1452173.8071       2535.642          22.359  
R11  21645420.187     -700093.0081        151.053          25.833  
R05  21211685.256     1040074.7520      -1389.168          35.869  
R21  21788288.082     -591425.0321        558.412          25.190  
J01  37730494.322     1085483.4181       -988.852          34.358  
J02  36863200.437     1099810.8441       -964.128          22.413  
C06  38590638.457    -1193287.0271       1178.515          16.442  
C11  23394207.927     -711709.6831        681.546          21.049  
> 2018  4 17 12 34 55.9997928  0 16
G02  23587801.305    -1202675.1301        919.930          26.604  
G06  21187656.591       52760.7961       -196.572          20.773  
G09  23909051.108    -1823283.0711       1579.939          24.672  
G17  21534940.371     -862212.3690        706.510          35.317  
G19  21610009.602    -1266884.7811       1058.422          27.107  
G23  24854130.044      -81457.6821        386.655          17.873  
G28  20824013.136     2177728.3621      -2217.853          25.076  
R26  21747339.430      468578.6191       -893.247          23.442  
R06  20680032.711    -1454708.2301       2535.071          22.844  
R11  21645340.742     -700244.3751        154.965          26.287  
R05  21211931.985     1041463.9490      -1389.479          35.608  
R21  21788181.356     -591981.3881        557.188          25.476  
J01  37730680.493     1086471.9501       -992.161          34.390  
J02  36863375.516     1100768.3731       -962.393          21.737  
C06  38590405.218    -1194466.5261       1178.723          16.471  
C11  23394082.614     -712395.8951        680.897          19.095  
> 2018  4 17 12 34 56.9997928  0 16
G02  23587654.107    -1203592.9811        917.985          27.542  
G06  21187753.124       52962.3171       -196.901          20.220  
G09  23908784.893    -1824861.4471       1585.400          28.593  
G17  21534803.366     -862919.3151        705.661          34.903  
G19  21609788.655    -1267942.7161       1055.537          26.199  
G23  24854015.523      -81842.8311        389.665          19.920  
G28  20824436.443     2179950.0651      -2215.693          24.103  
R26  21747450.353      469473.7261       -890.044          25.206  
R06  20679542.551    -1457237.6971       2532.793          24.816  
R11  21645359.030     -700397.7911        151.232          25.710  
R05  21212212.291     1042854.3490      -1389.899          35.931  
R21  21788097.114     -592537.7331        553.934          25.300  
J01  37730863.067     1087459.8381       -988.451          34.783  
J02  36863543.400     1101734.3461       -964.444          22.199  
C06  38590180.974    -1195649.9421       1178.831          14.862  
C11  23393933.017     -713081.8001        682.922          21.790  
> 2018  4 17 12 34 57.9997928  0 15
G02  23587456.544    -1204510.2521        916.034          28.056  
G06  21187724.943       53159.9161       -198.505          21.949  
G09  23908471.310    -1826452.4821       1587.361          28.745  
G17  21534666.361     -863626.2961        707.876          34.484  
G19  21609612.077    -1268992.4901       1054.698          26.018  
G28  20824855.253     2182166.3121      -2217.316          27.917  
R26  21747647.917      470365.2791       -889.542          27.145  
R06  20679062.883    -1459764.2261       2527.202          26.800  
R11  21645322.755     -700545.1101        148.764          26.118  
R05  21212459.320     1044245.8640      -1392.332          35.728  
R21  21787991.887     -593091.7581        551.365          22.869  
J01  37731058.832     1088450.0601       -989.024          34.393  
J02  36863731.969     1102704.4531       -965.249          23.134  
C06  38589966.022    -1196828.3381       1178.491          16.768  
C11  23393817.897     -713767.1841        683.797          20.212  
> 2018  4 17 12 34 58.9997928  0 15
G02  23587302.151    -1205427.5951        916.586          29.255  
G06  21187760.319       53355.0331       -199.217          24.779  
G09  23908161.324    -1828036.0311       1582.566          27.464  
G17  21534539.548     -864333.2601        704.183          33.794  
G19  21609408.518    -1270055.1941       1059.138          24.150  
G28  20825258.773     2184389.8431      -2220.017          26.946  
R26  21747794.815      471255.9091       -891.489          27.623  
R06  20678596.705    -1462294.5961       2528.734          26.609  
R11  21645254.702     -700689.7011        151.638          24.266  
R05  21212720.439     1045637.5390      -1392.101          34.747  
R21  21787931.329     -593647.4541        554.284          23.293  
J01  37731251.598     1089436.9241       -992.299          34.399  
J02  36863913.344     1103671.4421       -971.443          23.813  
C06  38589744.776    -1198006.9991       1179.942          18.382  
C11  23393691.085     -714455.9271        683.514          17.413  
> 2018  4 17 12 34 59.9997928  0 15
G02  23587106.386    -1206343.9791        918.883          27.287  
G06  21187791.797       53553.4281       -200.162          25.974  
G09  23907855.536    -1829619.1211       1577.887          27.062  
G17  21534398.646     -865040.3321        707.458          33.975  
G19  21609184.573    -1271115.4681       1060.575          25.816  
G28  20825693.173     2186612.6061      -2223.289          36.142  
R26  21748011.265      472147.9891       -893.037          26.517  
R06  20678138.623    -1464824.3761       2528.561          27.295  
R11  21645234.016     -700837.5911        149.242          24.687  
R05  21212992.651     1047030.3820      -1392.880          35.739  
R21  21787778.735     -594202.0691        558.298          24.223  
J01  37731434.471     1090424.2451       -990.772          33.775  
J02  36864095.018     1104641.1861       -969.252          25.460  
C06  38589507.640    -1199187.1851       1180.343          19.403  
C11  23393550.182     -715139.0541        683.734          18.896  
> 2018  4 17 12 35  0.9997928  0 15
G02  23586939.102    -1207260.5101        920.287          29.137  
G06  21187836.766       53754.0991       -200.161          25.215  
G09  23907550.947    -1831203.0621       1576.182          26.807  
G17  21534273.333     -865747.0570        706.573          34.618  
G19  21608996.003    -1272173.7611       1055.679          24.521  
G28  20826102.989     2188834.2700      -2222.208          37.300  
R26  21748134.480      473037.5541       -888.451          25.891  
R06  20677640.068    -1467353.6371       2530.600          26.684  
R11  21645196.542     -700983.6011        146.215          24.873  
R05  21213239.980     1048424.1221      -1394.828          34.123  
R21  21787650.124     -594756.8021        556.607          24.662  
J01  37731627.838     1091414.9761       -988.418          34.321  
J02  36864299.776     1105603.2691       -960.551          24.713  
C06  38589277.999    -1200367.2311       1180.937          17.936  
C11  23393422.770     -715821.0051        684.150          16.734  
> 2018  4 17 12 35  1.9997928  0 15
G02  23586754.430    -1208178.8371        917.372          28.157  
G06  21187893.127       53957.3141       -200.346          23.814  
G09  23907249.356    -1832787.4851       1579.701          27.683  
G17  21534131.231     -866453.2491        706.259          38.109  
G19  21608789.446    -1273233.0311       1051.003          21.427  
G28  20826532.592     2191056.7490      -2224.181          38.030  
R26  21748267.588      473927.0321       -886.619          28.123  
R06  20677192.178    -1469879.0811       2529.487          26.126  
R11  21645199.840     -701130.6591        145.369          25.839  
R05  21213507.095     1049818.5571      -1393.524          35.025  
R21  21787538.601     -595318.1051        557.264          26.595  
J01  37731811.910     1092405.8481       -989.434          33.097  
J02  36864470.958     1106565.0541       -967.299          26.381  
C06  38589046.259    -1201549.0141       1181.755          18.502  
C11  23393298.057     -716498.4161        684.549          16.430  
> 2018  4 17 12 35  2.9997928  0 15
G02  23586570.057    -1209096.0151        918.821          27.862  
G06  21187925.504       54158.5891       -200.510          25.917  
G09  23906938.771    -1834370.0391       1573.839          27.782  
G17  21533999.622     -867159.3480        706.138          37.512  
G19  21608618.565    -1274285.6881       1049.781          20.313  
G28  20826953.500     2193280.0051      -2223.221          36.542  
R26  21748465.151      474817.8020       -891.224          35.334  
R06  20676705.914    -1472406.9771       2527.790          27.630  
R11  21645141.380     -701276.8421        146.478          26.492  
R05  21213762.818     1051214.4410      -1396.491          34.576  
R21  21787445.365     -595876.2680        558.531          33.751  
J01  37732004.077     1093396.4651       -991.232          36.431  
J02  36864649.035     1107529.3331       -970.640          27.105  
C06  38588821.715    -1202727.9571       1181.796          18.033  
C11  23393172.744     -717181.1161        683.783          16.649  
> 2018  4 17 12 35  3.9997928  0 15
G02  23586416.863    -1210020.7861        919.827          27.735  
G06  21187968.974       54364.5381       -200.701          25.841  
G09  23906656.066    -1835941.6171       1571.918          28.735  
G17  21533860.519     -867865.5300        706.149          38.046  
G19  21608415.006    -1275333.3201       1049.403          18.427  
G28  20827369.912     2195503.7491      -2224.372          36.181  
R26  21748625.840      475709.2461       -892.635          33.512  
R06  20676225.647    -1474934.4681       2527.727          26.925  
R11  21645064.634     -701427.6781        151.662          27.381  
R05  21214015.543     1052610.8510      -1396.720          32.968  
R21  21787344.635     -596435.0020        558.390          34.261  
J01  37732188.150     1094385.7531       -991.616          36.239  
J02  36864842.700     1108499.8381       -969.117          24.302  
C06  38588590.275    -1203903.7751       1182.057          20.219  
C11  23393015.352     -717867.3181        684.029          18.660  
> 2018  4 17 12 35  4.9997928  0 16
G02  23586251.078    -1210934.1001        918.472          26.339  
G06  21187987.861       54566.4451       -200.775          27.658  
G09  23906350.578    -1837512.2431       1575.760          27.892  
G17  21533729.809     -868571.7760        705.862          38.714  
G19  21608222.839    -1276377.0041       1048.916          19.136  
G23  24853382.062      -84921.7571        383.339          22.028  
G28  20827806.709     2197727.8221      -2223.162          36.791  
R26  21748818.606      476600.7461       -892.261          31.597  
R06  20675775.658    -1477461.4031       2527.542          26.896  
R11  21645091.615     -701582.1141        150.840          26.328  
R05  21214318.033     1054006.2201      -1395.113          32.092  
R21  21787247.502     -596993.7990        559.333          32.649  
J01  37732381.816     1095375.8431       -986.494          35.501  
J02  36865013.282     1109464.8101       -966.103          25.492  
C06  38588375.024    -1205086.5141       1182.092          18.980  
C11  23392878.347     -718554.6761        683.504          18.356  
> 2018  4 17 12 35  5.9997928  0 16
G02  23586055.314    -1211850.0751        917.596          28.639  
G06  21188025.335       54766.4701       -200.327          30.675  
G09  23906030.100    -1839083.1501       1573.107          28.507  
G17  21533590.705     -869277.8951        705.679          34.402  
G19  21608036.967    -1277428.5381       1048.524          18.041  
G23  24853307.114      -85302.8351        381.998          23.988  
G28  20828221.322     2199952.3210      -2225.340          37.436  
R26  21748950.515      477490.5731       -889.187          34.221  
R06  20675286.097    -1479988.1061       2528.025          26.805  
R11  21645035.254     -701727.5971        145.992          24.739  
R05  21214557.567     1055402.7471      -1396.200          32.324  
R21  21787149.770     -597552.7421        558.802          29.065  
J01  37732558.094     1096366.0491       -992.007          34.026  
J02  36865206.049     1110436.6011       -964.441          25.467  
C06  38588155.576    -1206274.6331       1182.640          16.585  
C11  23392753.334     -719243.4011        683.464          17.636  
> 2018  4 17 12 35  6.9997928  0 17
G02  23585895.524    -1212768.7491        918.724          28.489  
G03  23611019.931     2883874.0340      -3394.956          34.441  
G06  21188061.011       54966.1640       -199.709          32.565  
G09  23905733.605    -1840653.7311       1572.294          27.569  
G17  21533458.497     -869984.2211        708.610          32.897  
G19  21607841.503    -1278473.9641       1049.957          16.846  
G23  24853262.145      -85689.9431        383.416          24.240  
G28  20828644.330     2202177.3091      -2224.051          35.741  
R26  21749123.195      478380.7741       -889.018          33.594  
R06  20674822.019    -1482521.4251       2527.962          26.441  
R11  21644956.708     -701876.0871        150.631          27.725  
R05  21214824.383     1056800.6801      -1400.918          32.406  
R21  21787027.455     -598112.0891        559.963          28.817  
J01  37732755.357     1097356.5771       -991.735          36.232  
J02  36865384.126     1111405.4151       -964.244          24.542  
C06  38587934.029    -1207452.5381       1183.389          17.090  
C11  23392624.123     -719928.3931        684.968          16.933  
> 2018  4 17 12 35  7.9997928  0 17
G02  23585692.565    -1213692.3561        920.707          25.892  
G03  23611650.395     2887267.4721      -3393.550          33.013  
G06  21188095.487       55165.3340       -199.126          34.768  
G09  23905429.915    -1842225.6051       1575.897          27.634  
G17  21533323.890     -870690.9621        705.934          29.925  
G19  21607631.948    -1279529.7421       1051.931          16.282  
G23  24853192.893      -86073.6201        388.803          22.694  
G28  20829073.333     2204401.5581      -2224.755          36.612  
R26  21749299.173      479269.7130       -888.332          37.816  
R06  20674323.164    -1485056.5001       2527.528          27.065  
R11  21644956.708     -702026.1201        151.065          31.480  
R05  21215067.814     1058198.7611      -1396.990          34.211  
R21  21786926.125     -598672.3381        559.770          27.520  
J01  37732946.025     1098346.0271       -988.473          36.467  
J02  36865573.594     1112372.0931       -967.500          24.742  
C06  38587704.988    -1208637.8641       1182.971          17.126  
C11  23392491.615     -720608.5151        686.593          15.837  
> 2018  4 17 12 35  8.9997928  0 16
G02  23585517.186    -1214614.8501        916.824          25.557  
G03  23612302.443     2890661.3981      -3393.849          33.716  
G06  21188133.261       55364.4540       -199.501          37.304  
G09  23905143.314    -1843797.7301       1577.612          27.418  
G17  21533198.577     -871395.4031        703.935          26.307  
G19  21607374.726    -1280589.2881       1053.150          18.404  
G28  20829496.939     2206626.0101      -2224.698          35.828  
R26  21749470.655      480157.7991       -888.401          35.090  
R06  20673884.268    -1487582.8601       2526.700          26.512  
R11  21644907.542     -702175.6281        146.236          30.966  
R05  21215322.938     1059597.6890      -1398.753          35.346  
R21  21786814.602     -599233.4661        559.191          25.709  
J01  37733140.590     1099335.2901       -989.322          35.332  
J02  36865738.480     1113345.7441       -969.352          26.361  
C06  38587487.338    -1209825.2711       1182.470          15.674  
C11  23392353.111     -721294.4011        684.468          19.777  
> 2018  4 17 12 35  9.9997928  0 16
G02  23585377.483    -1215533.0661        916.979          24.978  
G03  23612952.393     2894055.5291      -3391.912          32.374  
G06  21188174.932       55563.3980       -199.138          38.178  
G09  23904833.328    -1845369.8911       1570.569          29.312  
G17  21533070.865     -872096.3741        704.249          24.196  
G19  21607176.263    -1281644.2131       1052.286          16.359  
G28  20829919.047     2208850.9461      -2223.685          34.777  
R26  21749618.752      481045.8281       -887.498          35.607  
R06  20673405.499    -1490109.0951       2525.235          26.405  
R11  21644895.551     -702325.3901        146.484          28.392  
R05  21215589.753     1060996.9580      -1399.469          35.514  
R21  21786740.853     -599797.1781        557.556          23.982  
J01  37733319.566     1100323.4891       -989.190          36.551  
J02  36865956.729     1114317.0521       -965.221          24.704  
C06  38587266.691    -1211009.8821       1182.076          17.432  
C11  23392220.003     -721979.4351        684.574          19.632  
> 2018  4 17 12 35 10.9997928  0 17
G02  23585167.628    -1216455.9591        918.706          27.782  
G03  23613597.846     2897450.0400      -3393.932          32.913  
G06  21188211.207       55762.7120       -199.782          40.607  
G09  23904530.238    -1846942.0961       1573.391          27.723  
G17  21532931.162     -872806.6191        706.633          22.105  
G19  21606977.801    -1282696.2761       1053.803          16.564  
G23  24852959.654      -87243.7181        384.329          22.082  
G28  20830343.853     2211076.1601      -2225.341          35.365  
R26  21749789.034      481931.9991       -889.574          32.784  
R06  20672906.944    -1492635.0021       2527.248          26.228  
R11  21644930.926     -702473.1381        145.240          25.596  
R05  21215856.868     1062397.1740      -1400.949          36.203  
R21  21786608.645     -600357.9971        559.327          27.668  
J01  37733512.633     1101312.4441       -987.849          36.666  
J02  36866112.022     1115282.4351       -963.704          25.778  
C06  38587038.249    -1212187.1511       1180.390          16.747  
C11  23392092.591     -722661.5841        685.330          18.887  
> 2018  4 17 12 35 11.9997928  0 17
G02  23584993.149    -1217372.7361        918.082          28.478  
G03  23614245.098     2900844.4011      -3394.782          32.228  
G06  21188249.280       55962.5530       -200.237          40.364  
G09  23904237.341    -1848514.1361       1574.535          28.239  
G17  21532783.664     -873504.7921        703.115          20.237  
G19  21606789.231    -1283749.2951       1054.971          17.447  
G23  24852849.031      -87617.3181        378.609          21.850  
G28  20830772.256     2213302.1030      -2225.930          34.640  
R26  21749967.411      482818.8611       -889.888          31.541  
R06  20672418.882    -1495162.4751       2525.129          26.617  
R11  21644881.161     -702618.4951        143.537          26.492  
R05  21216122.784     1063797.9550      -1399.810          34.773  
R21  21786518.407     -600918.1671        560.291          25.590  
J01  37733699.104     1102300.7101       -988.773          33.766  
J02  36866298.193     1116241.7411       -962.288          25.996  
C06  38586795.417    -1213371.0781       1181.794          19.002  
C11  23391965.479     -723346.1611        685.233          21.770  
> 2018  4 17 12 35 12.9997928  0 16
G02  23584837.257    -1218288.0201        918.297          28.602  
G03  23614897.147     2904240.0581      -3395.073          31.718  
G06  21188285.555       56163.0810       -201.213          42.412  
G09  23903927.955    -1850085.7071       1571.961          29.831  
G17  21532688.630     -874210.1831        704.238          21.311  
G19  21606578.477    -1284810.8991       1057.056          18.585  
G28  20831188.069     2215529.3571      -2227.865          32.016  
R26  21750112.810      483709.5911       -888.724          29.933  
R06  20671968.594    -1497690.5521       2523.318          25.593  
R11  21644828.097     -702768.0951        143.971          26.645  
R05  21216376.708     1065200.4241      -1401.131          34.265  
R21  21786428.469     -601477.9031        555.691          23.520  
J01  37733886.174     1103291.6861       -987.838          33.088  
J02  36866473.871     1117203.6191       -968.090          25.557  
C06  38586557.682    -1214553.1561       1182.074          18.244  
C11  23391827.575     -724034.3141        682.424          18.728  
> 2018  4 17 12 35 13.9997928  0 16
G02  23584650.186    -1219207.1061        918.576          28.616  
G03  23615570.481     2907630.1601      -3397.270          27.797  
G06  21188327.226       56364.1410       -201.774          39.093  
G09  23903633.859    -1851657.2901       1573.135          27.892  
G17  21532551.025     -874916.2211        708.337          19.834  
G19  21606354.232    -1285874.9891       1056.931          21.133  
G28  20831640.156     2217757.2941      -2226.500          30.110  
R26  21750320.267      484601.9251       -888.368          26.712  
R06  20671515.608    -1500214.1361       2521.614          26.318  
R11  21644791.223     -702913.2931        143.181          27.053  
R05  21216645.922     1066603.4280      -1402.799          35.148  
R21  21786300.458     -602038.2191        556.750          26.593  
J01  37734077.142     1104281.7940       -988.963          37.158  
J02  36866683.426     1118166.1801       -965.024          23.108  
C06  38586334.337    -1215730.4521       1181.484          16.979  
C11  23391692.368     -724719.5821        683.172          24.651  
> 2018  4 17 12 35 14.9997928  0 16
G02  23584485.600    -1220127.9231        920.035          27.618  
G03  23616215.035     2911027.4071      -3396.131          24.563  
G06  21188366.199       56565.8170       -201.230          34.888  
G09  23903338.263    -1853228.5851       1574.653          27.831  
G17  21532417.318     -875621.8241        707.604          19.953  
G19  21606185.449    -1286931.4551       1058.749          21.390  
G28  20832050.571     2219981.1521      -2225.026          29.678  
R26  21750506.738      485491.8961       -888.903          24.372  
R06  20671051.829    -1502736.6841       2523.785          26.321  
R11  21644755.847     -703057.7781        141.948          28.808  
R05  21216905.842     1068007.1550      -1403.895          36.962  
R21  21786192.833     -602597.3791        560.582          25.795  
J01  37734261.514     1105271.8161       -989.412          37.729  
J02  36866840.517     1119131.9321       -964.443          22.734  
C06  38586110.092    -1216910.5481       1183.830          15.719  
C11  23391561.659     -725404.0281        684.524          26.388  
> 2018  4 17 12 35 15.9997928  0 16
G02  23584315.018    -1221041.8851        915.750          29.796  
G03  23616848.496     2914426.9131      -3398.401          23.119  
G06  21188409.969       56768.6171       -200.510          35.432  
G09  23903060.356    -1854806.2351       1575.520          26.568  
G17  21532303.397     -876324.3321        706.759          19.463  
G19  21605965.102    -1287986.4651       1065.244          20.265  
G28  20832505.057     2222211.0661      -2227.823          26.227  
R26  21750694.108      486385.9921       -892.919          23.401  
R06  20670556.871    -1505258.8541       2523.694          26.851  
R11  21644731.564     -703200.7771        141.777          30.092  
R05  21217175.055     1069412.4371      -1405.748          36.827  
R21  21786092.702     -603156.0701        557.508          24.830  
J01  37734446.486     1106262.3240       -989.899          39.581  
J02  36867044.376     1120097.9781       -964.644          20.913  
C06  38585878.652    -1218088.1891       1182.661          16.688  
C11  23391430.350     -726088.9771        684.836          26.497  
> 2018  4 17 12 35 16.9997928  0 16
G02  23584123.751    -1221955.9551        913.968          28.734  
G03  23617525.727     2917820.5131      -3396.524          21.649  
G06  21188428.556       56971.4391       -202.082          33.288  
G09  23902758.764    -1856378.5271       1573.197          26.317  
G17  21532161.595     -877027.1951        706.007          18.736  
G19  21605749.851    -1289042.8581       1061.646          19.462  
G28  20832925.666     2224435.4201      -2229.784          26.612  
R26  21750783.446      487277.1621       -893.963          21.759  
R06  20670065.811    -1507780.5811       2521.450          25.793  
R11  21644711.178     -703342.5781        141.194          28.657  
R05  21217443.370     1070819.5250      -1407.844          36.515  
R21  21785978.181     -603711.8941        559.442          28.368  
J01  37734643.750     1107253.1361       -989.821          37.935  
J02  36867238.642     1121060.3111       -966.470          22.360  
C06  38585645.713    -1219265.0951       1181.101          16.752  
C11  23391302.338     -726774.1990        685.319          26.566  
> 2018  4 17 12 35 17.9997928  0 16
G02  23583943.576    -1222873.4981        915.980          27.394  
G03  23618179.575     2921213.7611      -3395.011          21.061  
G06  21188481.320       57177.0090       -201.498          37.637  
G09  23902441.284    -1857954.2701       1575.504          27.181  
G17  21532017.395     -877730.7291        706.550          17.404  
G19  21605548.690    -1290103.2761       1060.489          18.607  
G28  20833356.767     2226660.2421      -2228.055          26.004  
R26  21750996.299      488166.3311       -889.185          21.735  
R06  20669634.410    -1510302.0841       2521.049          26.302  
R11  21644689.293     -703484.1181        139.754          29.314  
R05  21217695.795     1072225.3921      -1407.993          35.608  
R21  21785868.757     -604272.6850        561.089          31.012  
J01  37734827.223     1108243.4681       -990.469          37.042  
J02  36867404.127     1122034.1061       -968.486          22.773  
C06  38585415.473    -1220442.2501       1180.096          15.023  
C11  23391167.432     -727459.7411        686.391          25.670  
> 2018  4 17 12 35 18.9997928  0 16
G02  23583784.086    -1223787.4991        916.437          24.272  
G03  23618772.864     2924609.1871      -3399.370          23.861  
G06  21188515.196       57378.8790       -202.388          43.402  
G09  23902145.389    -1859525.8381       1573.452          29.418  
G17  21531898.977     -878438.0111        705.927          16.839  
G19  21605383.804    -1291165.6291       1059.182          22.282  
G28  20833769.881     2228878.4831      -2224.973          24.971  
R26  21751174.076      489051.7131       -885.816          21.856  
R06  20669153.243    -1512823.6511       2519.761          26.981  
R11  21644626.637     -703618.7991        139.694          31.210  
R05  21217964.709     1073632.4351      -1406.067          34.633  
R21  21785776.121     -604833.7510        560.955          30.438  
J01  37735012.494     1109233.5831       -992.163          32.149  
J02  36867593.896     1123003.4061       -968.564          25.081  
C06  38585190.628    -1221623.1711       1180.442          13.773  
C11  23391015.437     -728141.1161        683.000          21.312  
> 2018  4 17 12 35 19.9997928  0 16
G02  23583586.823    -1224701.7261        913.738          27.623  
G03  23619438.103     2928003.7781      -3402.240          22.705  
G06  21188552.970       57581.2610       -202.893          43.666  
G09  23901840.200    -1861097.2291       1571.050          30.461  
G17  21531774.263     -879138.2621        704.078          17.885  
G19  21605175.148    -1292222.6181       1055.302          23.658  
G28  20834183.595     2231103.8631      -2224.277          24.973  
R26  21751353.351      489942.2561       -887.988          24.479  
R06  20668667.579    -1515344.2061       2520.485          26.346  
R11  21644615.245     -703759.2281        140.435          29.422  
R05  21218226.727     1075040.5221      -1407.038          34.554  
R21  21785685.883     -605394.4090        559.141          29.876  
J01  37735201.663     1110222.7481       -986.042          31.796  
J02  36867767.176     1123970.1851       -967.603          24.944  
C06  38584974.178    -1222806.1601       1180.465          12.648  
C11  23390911.709     -728823.7401        683.496          20.471  
> 2018  4 17 12 35 20.9997928  0 16
G02  23583418.339    -1225616.2900        914.589          29.567  
G03  23620075.162     2931403.3691      -3400.676          25.594  
G06  21188591.643       57784.4810       -203.381          41.636  
G09  23901537.710    -1862672.5461       1572.379          28.573  
G17  21531614.473     -879838.4071        705.625          18.943  
G19  21604990.177    -1293280.1271       1051.917          20.993  
G28  20834591.912     2233334.0841      -2228.656          23.132  
R26  21751483.461      490834.5041       -890.706          23.522  
R06  20668215.492    -1517865.5001       2519.509          25.111  
R11  21644575.972     -703894.1541        137.398          29.657  
R05  21218487.847     1076449.7191      -1411.069          34.883  
R21  21785560.570     -605954.6690        560.102          30.529  
J01  37735402.824     1111213.0361       -986.835          32.759  
J02  36867979.129     1124938.1501       -964.810          21.553  
C06  38584781.112    -1223986.0591       1179.839          12.248  
C11  23390778.001     -729508.2651        684.162          21.808  
> 2018  4 17 12 35 21.9997928  0 16
G02  23583259.749    -1226530.9971        916.190          25.970  
G03  23620738.303     2934802.7471      -3398.110          24.417  
G06  21188631.516       57987.8150       -204.653          40.752  
G09  23901248.110    -1864244.5251       1573.785          28.846  
G17  21531496.055     -880536.9031        706.005          17.442  
G19  21604787.217    -1294336.7051       1054.931          21.916  
G28  20835054.192     2235559.8111      -2229.327          22.708  
R26  21751643.551      491721.3451       -889.260          22.454  
R06  20667727.130    -1520388.1401       2522.236          24.324  
R11  21644550.190     -704025.2461        136.524          30.503  
R05  21218753.463     1077859.5031      -1412.287          37.659  
R21  21785449.047     -606514.9730        559.372          32.275  
J01  37735581.800     1112202.1811       -990.590          33.891  
J02  36868131.724     1125903.4961       -967.935          21.725  
C06  38584580.251    -1225175.7051       1175.218          14.248  
C11  23390655.986     -730193.4271        685.660          24.049  
> 2018  4 17 12 35 22.9997928  0 15
G02  23583057.089    -1227449.0311        915.169          26.806  
G03  23621418.232     2938196.0321      -3399.516          25.456  
G06  21188666.591       58192.0370       -204.903          40.083  
G09  23900949.517    -1865816.6941       1572.846          29.205  
G17  21531365.946     -881246.0511        704.943          14.816  
G19  21604568.968    -1295392.5781       1055.771          23.972  
G28  20835493.688     2237786.6891      -2224.420          21.735  
R26  21751851.606      492613.0381       -888.499          22.306  
R06  20667263.651    -1522907.8051       2521.848          23.860  
R11  21644522.309     -704161.9381        135.827          29.230  
R05  21219011.584     1079270.0940      -1411.527          37.092  
R21  21785354.613     -607075.0630        559.594          32.809  
J01  37735778.764     1113195.3591       -988.194          31.822  
J02  36868316.995     1126871.8931       -971.004          23.965  
C11  23390533.371     -730877.7121        683.234          22.461  
> 2018  4 17 12 35 23.9997928  0 16
G02  23582881.711    -1228363.4361        915.653          26.127  
G03  23622097.262     2941599.2161      -3400.124          24.910  
G06  21188712.759       58397.0260       -204.256          38.175  
G09  23900644.928    -1867392.1321       1573.764          27.906  
G17  21531231.639     -881954.4121        703.313          15.721  
G19  21604352.818    -1296447.7051       1054.684          23.719  
G28  20835898.408     2240012.9391      -2233.947          23.336  
R26  21752105.830      493501.7401       -890.646          23.401  
R06  20666822.057    -1525427.4481       2520.034          23.573  
R11  21644584.666     -704294.5231        131.649          25.680  
R05  21219285.894     1080681.3630      -1410.820          36.045  
R21  21785239.792     -607634.1730        560.112          32.470  
J01  37735968.533     1114189.8401       -990.079          32.832  
J02  36868496.571     1127840.3240       -968.088          25.957  
C06  38584111.975    -1227525.7001       1174.465          12.005  
C11  23390410.456     -731556.4711        678.625          21.078  
